     3.03           OBSERVATION DATA     I:IRNSS            RINEX VERSION / TYPE
OBS GEN             NPLI                24-JAN-25 00:00     PGM / RUN BY / DATE 
REF                                                         MARKER NAME         
0                                                           MARKER NUMBER       
Human                                                       MARKER TYPE         
NPLI                NPLI                                    OBSERVER / AGENCY   
01                  NGS-C60 CV42        1.0                 REC # / TYPE / VERS 
18730               L5S1                                    ANT # / TYPE        
  1243911.1339   5462557.3081   3038748.0760                APPROX POSITION XYZ 
        0.0000         0.0000         0.0000                ANTENNA: DELTA H/E/N
I    8 C5C L5C D5C S5C C9C L9C D9C S9C                      SYS / # / OBS TYPES 
DBHZ                                                        SIGNAL STRENGTH UNIT
SNR is mapped to RINEX snr flag value [1-9]                 COMMENT             
< 12dBHz -> 1; 12-17dBHz -> 2; 18-23dBHz -> 3               COMMENT             
24-29dBHz -> 4; 30-35dBHz -> 5; 36-41dBHz -> 6              COMMENT             
42-47dBHz -> 7; 48-53dBHz -> 8; >= 54dBHz -> 9              COMMENT             
                                                            COMMENT             
    30.000                                                  INTERVAL            
  2025     1    24     0     0    0.0000000     IRN         TIME OF FIRST OBS   
  2025     1    24    23    59   30.0000000     IRN         TIME OF LAST OBS    
                                                            SYS / PHASE SHIFT   
                                                            SYS / PHASE SHIFT   
                                                            END OF HEADER       
> 2025 01 24  0  0  0.0000000  0  8      -263.974058233001
I01         0.000 8         0.00008        -0.121 8        50.312           0.000 3         0.00003        -0.257 3        22.969  
I02  39084478.468 7 153372506.64707      -319.763 7        42.656    39084470.807 6 324882864.75406      -677.222 6        36.406  
I03         0.000 8         0.00008        -0.121 8        49.688           0.000 7         0.00007        -0.257 7        45.781  
I05         0.000 7         0.00007        -0.121 7        46.406           0.000 7         0.00007        -0.257 7        42.188  
I06  38488583.967 7 151034158.48607       -57.290 7        44.062    38488577.265 6 319929536.76706      -121.009 6        39.375  
I07         0.000 7         0.00007        -0.121 7        43.594           0.000 6         0.00006        -0.257 6        40.781  
I09  36208383.599 8 142086400.85508      -104.736 8        50.000    36208378.342 7 300975418.78807      -221.843 7        45.312  
I10  38868028.763 7 152523180.20807       -60.741 7        43.281    38868022.320 6 323083650.66106      -127.801 6        39.062  
> 2025 01 24  0  0 30.0000000  0  8      -261.952653131857
I01         0.000 8         0.00008        -0.037 8        50.312           0.000 4         0.00004        -0.079 4        24.219  
I02  39082030.742 7 153362901.50207      -321.018 7        42.656    39082023.335 6 324862518.52806      -679.683 6        36.250  
I03         0.000 8         0.00008        -0.037 8        49.688           0.000 7         0.00007        -0.079 7        45.938  
I05         0.000 7         0.00007        -0.037 7        46.406           0.000 7         0.00007        -0.079 7        42.344  
I06  38488148.044 7 151032448.27407       -56.705 7        44.062    38488141.515 6 319925914.07706      -121.005 6        39.375  
I07         0.000 7         0.00007        -0.037 7        43.750           0.000 6         0.00006        -0.079 6        40.625  
I09  36207584.926 8 142083266.70008      -104.420 8        50.156    36207579.661 7 300968779.81707      -221.092 7        45.625  
I10  38867567.534 7 152521370.65907       -60.526 7        43.125    38867560.891 6 323079817.57706      -127.866 6        38.906  
> 2025 01 24  0  1  0.0000000  0  8      -262.372415619106
I01         0.000 8         0.00008        -0.034 8        50.312           0.000 3         0.00003        -0.072 3        21.875  
I02  39079572.322 7 153353254.51007      -322.305 7        42.656    39079564.625 6 324842083.67306      -682.760 6        36.250  
I03         0.000 8         0.00008        -0.034 8        49.688           0.000 7         0.00007        -0.072 7        45.781  
I05         0.000 7         0.00007        -0.034 7        46.562           0.000 7         0.00007        -0.072 7        42.500  
I06  38487712.775 7 151030738.83007       -57.111 7        43.906    38487705.824 6 319922293.01806      -120.761 6        39.375  
I07         0.000 7         0.00007        -0.034 7        43.750           0.000 6         0.00006        -0.072 6        40.781  
I09  36206788.010 8 142080139.30208      -104.099 8        50.156    36206782.748 7 300962155.16607      -220.696 7        45.625  
I10  38867106.504 7 152519561.35307       -60.277 7        43.125    38867099.632 6 323075985.04106      -127.849 6        38.906  
> 2025 01 24  0  1 30.0000000  0  8      -261.885608217075
I01         0.000 8         0.00008        -0.013 8        50.469           0.000 4         0.00004        -0.028 4        24.844  
I02  39077103.311 7 153343564.74807      -323.605 7        42.656    39077096.034 6 324821558.19806      -685.735 6        36.406  
I03         0.000 8         0.00008        -0.013 8        49.688           0.000 7         0.00007        -0.028 7        45.938  
I05         0.000 7         0.00007        -0.013 7        46.875           0.000 7         0.00007        -0.028 7        42.656  
I06  38487277.134 7 151029030.10707       -56.899 7        44.062    38487270.306 6 319918673.49306      -120.719 6        39.375  
I07         0.000 7         0.00007        -0.013 7        43.750           0.000 6         0.00006        -0.028 6        40.625  
I09  36205992.843 8 142077018.76808      -103.789 8        50.156    36205987.740 7 300955545.04407      -220.096 7        45.625  
I10  38866645.450 7 152517752.28407       -60.403 7        43.125    38866638.704 6 323072152.97606      -127.755 6        38.906  
> 2025 01 24  0  2  0.0000000  0  8      -262.139748313598
I01         0.000 8         0.00008        -0.028 8        50.469           0.000 4         0.00004        -0.060 4        25.625  
I02  39074622.910 7 153333832.28407      -324.988 7        42.500    39074615.479 6 324800942.29306      -688.606 6        36.562  
I03         0.000 8         0.00008        -0.028 8        49.688           0.000 7         0.00007        -0.060 7        45.781  
I05         0.000 7         0.00007        -0.028 7        46.875           0.000 7         0.00007        -0.060 7        42.344  
I06  38486842.057 7 151027322.12507       -56.937 7        44.062    38486835.230 6 319915055.53606      -120.581 6        39.531  
I07         0.000 7         0.00007        -0.028 7        43.750           0.000 6         0.00006        -0.060 6        40.781  
I09  36205199.475 8 142073905.14408      -103.803 8        50.156    36205194.118 7 300948949.56607      -219.750 7        45.625  
I10  38866184.454 7 152515943.47107       -60.285 7        42.969    38866177.679 6 323068321.47006      -127.923 6        38.906  
> 2025 01 24  0  2 30.0000000  0  8      -262.397671181578
I01         0.000 8         0.00008        -0.048 8        50.312           0.000 4         0.00004        -0.102 4        25.000  
I02  39072131.977 7 153324057.92407      -326.591 7        42.500    39072124.712 6 324780237.64106      -691.714 6        36.562  
I03         0.000 8         0.00008        -0.048 8        49.688           0.000 7         0.00007        -0.102 7        45.781  
I05         0.000 7         0.00007        -0.048 7        46.719           0.000 7         0.00007        -0.102 7        42.344  
I06  38486407.046 7 151025614.90007       -57.123 7        44.062    38486400.180 6 319911439.18406      -120.455 6        39.688  
I07         0.000 7         0.00007        -0.048 7        43.750           0.000 6         0.00006        -0.102 6        40.625  
I09  36204407.716 8 142070798.48808      -103.461 8        50.156    36204402.368 7 300942368.84207      -219.182 7        45.625  
I10  38865723.326 7 152514134.91107       -60.283 7        42.969    38865716.878 6 323064490.50606      -127.922 6        38.906  
> 2025 01 24  0  3  0.0000000  0  8      -262.365173425357
I01         0.000 8         0.00008        -0.026 8        50.312           0.000 4         0.00004        -0.056 4        24.531  
I02  39069630.789 7 153314241.45907      -327.686 7        42.344    39069622.773 6 324759443.77806      -694.308 6        36.719  
I03         0.000 8         0.00008        -0.026 8        49.531           0.000 7         0.00007        -0.056 7        45.781  
I05         0.000 7         0.00007        -0.026 7        46.875           0.000 6         0.00006        -0.056 6        41.875  
I06  38485972.245 7 151023908.46907       -56.974 7        44.062    38485965.410 6 319907824.50606      -120.790 6        39.531  
I07         0.000 7         0.00007        -0.026 7        43.906           0.000 6         0.00006        -0.056 6        40.781  
I09  36203617.936 8 142067698.94208      -103.282 8        50.156    36203612.557 7 300935803.18107      -218.748 7        45.625  
I10  38865262.700 7 152512326.62707       -60.231 7        42.812    38865255.966 6 323060660.12806      -127.958 6        38.750  
> 2025 01 24  0  3 30.0000000  0  8      -261.745109422248
I01         0.000 8         0.00008        -0.058 8        50.312           0.000 4         0.00004        -0.123 4        25.156  
I02  39067118.889 7 153304383.64407      -329.604 7        42.500    39067111.559 6 324738562.34606      -697.858 6        37.031  
I03         0.000 8         0.00008        -0.058 8        49.531           0.000 7         0.00007        -0.123 7        45.781  
I05         0.000 7         0.00007        -0.058 7        47.031           0.000 7         0.00007        -0.123 7        42.188  
I06  38485537.425 7 151022202.76107       -56.724 7        44.219    38485530.624 6 319904211.38106      -120.447 6        39.531  
I07         0.000 7         0.00007        -0.058 7        43.906           0.000 6         0.00006        -0.123 6        40.625  
I09  36202829.797 8 142064606.49408      -102.909 8        50.156    36202824.462 7 300929252.55607      -218.249 7        45.469  
I10  38864802.058 7 152510518.63207       -60.409 7        42.969    38864795.593 6 323056830.35306      -127.945 6        38.906  
> 2025 01 24  0  4  0.0000000  0  8      -262.024910611287
I01         0.000 8         0.00008        -0.040 8        50.312           0.000 3         0.00003        -0.084 3        23.750  
I02  39064595.902 7 153294483.84007      -330.584 7        42.500    39064588.695 6 324717591.97106      -700.986 6        37.188  
I03         0.000 8         0.00008        -0.040 8        49.688           0.000 7         0.00007        -0.084 7        45.781  
I05         0.000 7         0.00007        -0.040 7        47.031           0.000 7         0.00007        -0.084 7        42.344  
I06  38485102.821 7 151020497.83907       -56.742 7        44.219    38485096.124 6 319900599.88406      -120.743 6        39.531  
I07         0.000 7         0.00007        -0.040 7        44.062           0.000 6         0.00006        -0.084 6        40.781  
I09  36202043.637 8 142061521.30008      -102.725 8        50.156    36202038.012 7 300922717.30707      -217.674 7        45.312  
I10  38864341.314 7 152508710.92707       -60.277 7        42.656    38864335.005 6 323053001.20306      -127.754 6        38.906  
> 2025 01 24  0  4 30.0000000  0  8      -261.825038549072
I01         0.000 8         0.00008        -0.078 8        50.312           0.000 4         0.00004        -0.165 4        24.844  
I02  39062062.682 7 153284542.36907      -332.082 7        42.656    39062055.282 6 324696533.33806      -703.596 6        37.188  
I03         0.000 8         0.00008        -0.078 8        49.688           0.000 7         0.00007        -0.165 7        45.781  
I05         0.000 7         0.00007        -0.078 7        47.188           0.000 7         0.00007        -0.165 7        42.344  
I06  38484668.697 7 151018793.68707       -57.020 7        44.375    38484661.942 6 319896990.04906      -120.442 6        39.688  
I07         0.000 7         0.00007        -0.078 7        44.062           0.000 6         0.00006        -0.165 6        40.625  
I09  36201259.252 8 142058443.37908      -102.680 8        50.156    36201253.711 7 300916197.45407      -217.289 7        45.469  
I10  38863880.898 7 152506903.53307       -60.482 7        42.812    38863874.390 6 323049172.71106      -127.702 6        38.906  
> 2025 01 24  0  5  0.0000000  0  8      -262.070704170489
I01         0.000 8         0.00008        -0.051 8        50.312           0.000 4         0.00004        -0.108 4        24.844  
I02  39059518.820 7 153274559.41807      -333.734 7        42.656    39059511.571 6 324675386.82606      -706.319 6        37.656  
I03         0.000 8         0.00008        -0.051 8        49.688           0.000 7         0.00007        -0.108 7        45.781  
I05         0.000 7         0.00007        -0.051 7        47.031           0.000 7         0.00007        -0.108 7        42.344  
I06  38484234.568 7 151017090.33807       -56.663 7        44.375    38484227.771 6 319893381.90806      -120.606 6        39.688  
I07         0.000 7         0.00007        -0.051 7        44.062           0.000 6         0.00006        -0.108 6        40.625  
I09  36200476.757 8 142055372.85608      -102.285 8        50.000    36200471.227 7 300909693.27007      -216.651 7        45.469  
I10  38863420.264 7 152505096.44207       -60.265 7        42.656    38863413.604 6 323045344.86306      -127.756 6        38.750  
> 2025 01 24  0  5 30.0000000  0  8      -261.524570236124
I01         0.000 8         0.00008        -0.068 8        50.469           0.000 3         0.00003        -0.145 3        20.938  
I02  39056964.756 7 153264534.93107      -334.879 7        42.812    39056957.405 6 324654152.35506      -709.741 6        37.969  
I03         0.000 8         0.00008        -0.068 8        49.688           0.000 7         0.00007        -0.145 7        45.781  
I05         0.000 7         0.00007        -0.068 7        46.875           0.000 6         0.00006        -0.145 6        41.875  
I06  38483801.022 7 151015387.78307       -56.832 7        44.375    38483794.000 6 319889775.44706      -120.537 6        39.688  
I07         0.000 7         0.00007        -0.068 7        44.219           0.000 6         0.00006        -0.145 6        40.625  
I09  36199696.271 8 142052309.74808      -101.994 8        50.156    36199690.495 7 300903204.80507      -216.281 7        45.469  
I10  38862959.949 7 152503289.66807       -60.363 7        42.656    38862953.364 6 323041517.69006      -127.607 6        38.906  
> 2025 01 24  0  6  0.0000000  0  8      -263.936667592454
I01         0.000 8         0.00008        -0.044 8        50.312           0.000 4         0.00004        -0.093 4        25.312  
I02  39054398.934 7 153254469.13407      -336.375 7        42.812    39054391.308 6 324632830.36806      -712.236 6        37.969  
I03         0.000 8         0.00008        -0.044 8        49.531           0.000 7         0.00007        -0.093 7        45.781  
I05         0.000 7         0.00007        -0.044 7        47.031           0.000 6         0.00006        -0.093 6        41.875  
I06  38483366.689 7 151013686.03107       -56.796 7        44.375    38483359.916 6 319886170.68606      -120.115 6        39.531  
I07         0.000 7         0.00007        -0.044 7        44.219           0.000 6         0.00006        -0.093 6        40.625  
I09  36198916.927 8 142049254.15908      -101.742 8        50.000    36198911.163 7 300896732.26007      -215.573 7        45.312  
I10  38862498.771 7 152501483.22607       -60.222 7        42.656    38862492.242 6 323037691.23606      -127.754 6        38.750  
> 2025 01 24  0  6 30.0000000  0  8      -261.502474219927
I01         0.000 8         0.00008        -0.090 8        50.312           0.000 3         0.00003        -0.191 3        23.906  
I02  39051824.026 7 153244362.02807      -337.644 7        42.969    39051816.821 6 324611420.85906      -715.688 6        38.125  
I03         0.000 8         0.00008        -0.090 8        49.531           0.000 7         0.00007        -0.191 7        45.781  
I05         0.000 7         0.00007        -0.090 7        47.031           0.000 7         0.00007        -0.191 7        42.031  
I06  38482934.011 7 151011985.08307       -56.947 7        44.375    38482927.217 6 319882567.63806      -120.183 6        39.531  
I07         0.000 7         0.00007        -0.090 7        44.375           0.000 6         0.00006        -0.191 6        40.469  
I09  36198140.880 8 142046206.15808      -101.478 8        50.156    36198135.197 7 300890275.79707      -214.984 7        45.312  
I10  38862039.363 7 152499677.13607       -60.393 7        42.656    38862032.613 6 323033865.50006      -128.140 6        38.750  
> 2025 01 24  0  7  0.0000000  0  8      -261.487767440175
I01         0.000 8         0.00008        -0.054 8        50.312           0.000 3         0.00003        -0.115 3        23.750  
I02  39049238.011 7 153234214.23207      -339.128 7        43.125    39049230.769 6 324589925.18306      -717.707 6        37.656  
I03         0.000 8         0.00008        -0.054 8        49.531           0.000 7         0.00007        -0.115 7        45.000  
I05         0.000 7         0.00007        -0.054 7        47.031           0.000 7         0.00007        -0.115 7        42.031  
I06  38482500.641 7 151010284.96507       -56.734 7        44.375    38482494.017 6 319878966.33706      -120.334 6        39.219  
I07         0.000 7         0.00007        -0.054 7        44.375           0.000 6         0.00006        -0.115 6        39.844  
I09  36197366.053 8 142043165.83908      -101.299 8        50.156    36197360.414 7 300883835.62107      -214.471 7        44.688  
I10  38861579.009 7 152497871.38507       -60.285 7        42.500    38861572.598 6 323030040.49106      -127.715 6        37.812  
> 2025 01 24  0  7 30.0000000  0  8      -261.043538226229
I01         0.000 8         0.00008         0.018 8        50.312           0.000 3         0.00003         0.038 3        23.906  
I02  39046641.589 7 153224025.51407      -340.123 7        42.969    39046634.488 6 324568342.79006      -720.800 6        38.438  
I03         0.000 8         0.00008         0.018 8        49.531           0.000 7         0.00007         0.038 7        45.781  
I05         0.000 7         0.00007         0.018 7        47.344           0.000 7         0.00007         0.038 7        42.188  
I06  38482067.558 7 151008585.65407       -56.645 7        44.375    38482061.201 6 319875366.74606      -119.787 6        40.000  
I07         0.000 7         0.00007         0.018 7        44.219           0.000 6         0.00006         0.038 6        40.469  
I09  36196593.282 8 142040133.27808      -100.833 8        50.156    36196587.616 7 300877411.85707      -213.760 7        45.312  
I10  38861118.983 7 152496066.00007       -60.045 7        42.500    38861112.671 6 323026216.25706      -127.511 6        38.594  
> 2025 01 24  0  8  0.0000000  0  8      -261.302536121615
I01         0.000 8         0.00008         0.010 8        50.312           0.000 4         0.00004         0.020 4        25.156  
I02  39044034.783 7 153213796.20507      -341.318 7        42.969    39044027.733 6 324546674.45106      -723.469 6        38.438  
I03         0.000 8         0.00008         0.010 8        49.531           0.000 7         0.00007         0.020 7        45.781  
I05         0.000 7         0.00007         0.010 7        47.500           0.000 7         0.00007         0.020 7        42.188  
I06  38481634.982 7 151006887.19807       -56.431 7        44.375    38481628.234 6 319871768.96506      -119.858 6        40.000  
I07         0.000 7         0.00007         0.010 7        44.375           0.000 6         0.00006         0.020 6        40.312  
I09  36195822.522 8 142037108.55208      -100.819 8        50.156    36195816.661 7 300871004.69007      -213.248 7        45.469  
I10  38860659.054 7 152494260.98407       -60.345 7        42.500    38860652.469 6 323022392.82706      -127.344 6        38.594  
> 2025 01 24  0  8 30.0000000  0  8      -265.621202197066
I01         0.000 8         0.00008        -0.050 8        50.156           0.000 4         0.00004        -0.105 4        24.531  
I02  39041416.413 7 153203526.06307      -343.098 7        42.969    39041409.007 6 324524919.60706      -726.673 6        38.281  
I03         0.000 8         0.00008        -0.050 8        49.531           0.000 7         0.00007        -0.105 7        45.781  
I05         0.000 7         0.00007        -0.050 7        47.344           0.000 7         0.00007        -0.105 7        42.188  
I06  38481201.004 7 151005189.56507       -56.841 7        44.375    38481194.476 6 319868172.93406      -119.817 6        39.844  
I07         0.000 7         0.00007        -0.050 7        44.375           0.000 6         0.00006        -0.105 6        40.312  
I09  36195052.248 8 142034091.71208      -100.506 8        50.156    36195046.568 7 300864614.24307      -212.782 7        45.156  
I10  38860197.750 7 152492456.34707       -60.187 7        42.500    38860191.409 6 323018570.18706      -127.459 6        38.750  
> 2025 01 24  0  9  0.0000000  0  8      -262.012699142957
I01         0.000 8         0.00008        -0.008 8        50.156           0.000 4         0.00004        -0.017 4        24.219  
I02  39038789.906 7 153193214.93107      -344.444 7        42.969    39038782.671 6 324503077.92506      -729.605 6        38.594  
I03         0.000 8         0.00008        -0.008 8        49.531           0.000 7         0.00007        -0.017 7        45.781  
I05         0.000 7         0.00007        -0.008 7        47.188           0.000 7         0.00007        -0.017 7        42.188  
I06  38480769.615 7 151003492.76707       -56.444 7        44.375    38480763.146 6 319864578.67906      -119.547 6        40.156  
I07         0.000 7         0.00007        -0.008 7        44.375           0.000 6         0.00006        -0.017 6        40.312  
I09  36194286.476 8 142031082.84108      -100.212 8        50.156    36194280.954 7 300858240.66907      -212.181 7        45.312  
I10  38859739.558 7 152490652.08907       -60.003 7        42.344    38859732.676 6 323014748.35606      -127.404 6        38.906  
> 2025 01 24  0  9 30.0000000  0  8      -260.831220846447
I01         0.000 8         0.00008        -0.023 8        50.156           0.000 3         0.00003        -0.050 3        23.438  
I02  39036152.601 7 153182863.59807      -345.653 7        42.969    39036145.008 6 324481151.10706      -732.313 6        38.281  
I03         0.000 8         0.00008        -0.023 8        49.531           0.000 7         0.00007        -0.050 7        45.781  
I05         0.000 7         0.00007        -0.023 7        47.031           0.000 7         0.00007        -0.050 7        42.031  
I06  38480337.696 7 151001796.82107       -56.511 7        44.531    38480331.376 6 319860986.22406      -119.707 6        40.000  
I07         0.000 7         0.00007        -0.023 7        44.375           0.000 6         0.00006        -0.050 6        40.156  
I09  36193522.407 8 142028082.04608       -99.907 8        50.312    36193516.501 7 300851884.21607      -211.506 7        45.156  
I10  38859279.792 7 152488848.24307       -60.304 7        42.344    38859273.520 6 323010927.40006      -127.408 6        38.750  
> 2025 01 24  0 10  0.0000000  0  8      -260.685897045580
I01         0.000 8         0.00008         0.027 8        50.156           0.000 3         0.00003         0.058 3        22.344  
I02  39033504.321 7 153172471.87807      -347.004 7        42.969    39033497.092 6 324459138.71806      -735.007 6        38.906  
I03         0.000 8         0.00008         0.027 8        49.531           0.000 7         0.00007         0.058 7        45.781  
I05         0.000 7         0.00007         0.027 7        46.719           0.000 7         0.00007         0.058 7        42.344  
I06  38479905.553 7 151000101.74207       -56.374 7        44.531    38479899.339 6 319857395.58206      -119.503 6        40.312  
I07         0.000 7         0.00007         0.027 7        44.531           0.000 6         0.00006         0.058 6        40.312  
I09  36192759.715 8 142025089.35008       -99.554 8        50.312    36192754.021 7 300845544.91407      -210.957 7        45.312  
I10  38858820.380 7 152487044.82307       -59.921 7        42.344    38858813.898 6 323007107.34306      -127.085 6        39.062  
> 2025 01 24  0 10 30.0000000  0  8      -260.118552846075
I01         0.000 8         0.00008         0.018 8        50.312           0.000 4         0.00004         0.038 4        25.938  
I02  39030846.213 7 153162040.10507      -348.261 7        43.125    39030839.164 6 324437041.49706      -737.722 6        38.906  
I03         0.000 8         0.00008         0.018 8        49.531           0.000 7         0.00007         0.038 7        45.781  
I05         0.000 7         0.00007         0.018 7        46.562           0.000 7         0.00007         0.038 7        42.188  
I06  38479474.222 7 150998407.51307       -56.416 7        44.531    38479468.028 6 319853806.77306      -119.804 6        40.000  
I07         0.000 7         0.00007         0.018 7        44.375           0.000 6         0.00006         0.038 6        40.156  
I09  36191999.148 8 142022104.91908       -99.352 8        50.312    36191993.319 7 300839223.11107      -210.323 7        45.156  
I10  38858360.755 7 152485241.80007       -59.971 7        42.188    38858354.528 6 323003288.11706      -126.903 6        38.906  
> 2025 01 24  0 11  0.0000000  0  8      -260.842539617456
I01         0.000 8         0.00008         0.016 8        50.312           0.000 3         0.00003         0.033 3        22.188  
I02  39028177.955 7 153151568.60507      -349.653 7        43.281    39028170.308 6 324414860.12006      -740.703 6        39.062  
I03         0.000 8         0.00008         0.016 8        49.531           0.000 7         0.00007         0.033 7        45.781  
I05         0.000 7         0.00007         0.016 7        46.875           0.000 7         0.00007         0.033 7        42.031  
I06  38479042.432 7 150996714.17707       -56.395 7        44.531    38479036.029 6 319850219.84706      -119.324 6        40.000  
I07         0.000 7         0.00007         0.016 7        44.531           0.000 6         0.00006         0.033 6        40.156  
I09  36191240.698 8 142019128.79108       -99.140 8        50.156    36191235.001 7 300832918.90407      -209.835 7        45.312  
I10  38857901.383 7 152483439.20107       -59.853 7        42.188    38857895.178 6 322999469.81106      -127.046 6        39.062  
> 2025 01 24  0 11 30.0000000  0  8      -260.781404223547
I01         0.000 8         0.00008        -0.026 8        50.312           0.000 3         0.00003        -0.056 3        22.500  
I02  39025499.027 7 153141056.43507      -351.085 7        43.281    39025491.356 6 324392592.59006      -743.592 6        39.062  
I03         0.000 8         0.00008        -0.026 8        49.375           0.000 7         0.00007        -0.056 7        45.781  
I05         0.000 7         0.00007        -0.026 7        47.188           0.000 6         0.00006        -0.056 6        41.875  
I06  38478611.343 7 150995021.71407       -56.484 7        44.531    38478604.993 6 319846634.77006      -119.573 6        40.156  
I07         0.000 7         0.00007        -0.026 7        44.375           0.000 6         0.00006        -0.056 6        40.156  
I09  36190484.361 8 142016161.00208       -98.713 8        50.156    36190478.588 7 300826632.35507      -209.377 7        45.469  
I10  38857442.421 7 152481637.06207       -59.856 7        42.188    38857436.231 6 322995652.46606      -127.717 6        39.219  
> 2025 01 24  0 12  0.0000000  0  8      -261.965692320744
I01         0.000 8         0.00008        -0.014 8        50.156           0.000 3         0.00003        -0.030 3        21.406  
I02  39022809.812 7 153130504.83407      -352.270 7        43.438    39022802.187 6 324370241.53606      -746.473 6        39.375  
I03         0.000 8         0.00008        -0.014 8        49.375           0.000 7         0.00007        -0.030 7        45.781  
I05         0.000 7         0.00007        -0.014 7        47.344           0.000 7         0.00007        -0.030 7        42.031  
I06  38478179.983 7 150993330.14307       -56.570 7        44.688    38478173.426 6 319843051.56806      -119.277 6        40.156  
I07         0.000 7         0.00007        -0.014 7        44.375           0.000 6         0.00006        -0.030 6        40.156  
I09  36189730.050 8 142013201.66208       -98.571 8        50.000    36189724.337 7 300820363.69407      -208.756 7        45.312  
I10  38856982.877 7 152479835.37407       -59.839 7        42.031    38856976.621 6 322991836.05306      -127.205 6        39.062  
> 2025 01 24  0 12 30.0000000  0  8      -260.627678286877
I01         0.000 8         0.00008        -0.045 8        50.156           0.000 4         0.00004        -0.096 4        25.781  
I02  39020111.680 7 153119913.24807      -353.753 7        43.594    39020103.492 6 324347805.79006      -749.450 6        39.531  
I03         0.000 8         0.00008        -0.045 8        49.375           0.000 7         0.00007        -0.096 7        45.625  
I05         0.000 7         0.00007        -0.045 7        47.188           0.000 6         0.00006        -0.096 6        41.875  
I06  38477749.383 7 150991639.43307       -56.366 7        44.688    38477743.135 6 319839470.21706      -119.421 6        39.844  
I07         0.000 7         0.00007        -0.045 7        44.375           0.000 6         0.00006        -0.096 6        40.156  
I09  36188978.362 8 142010250.88408       -98.301 8        50.000    36188972.695 7 300814113.19007      -208.098 7        45.312  
I10  38856524.040 7 152478034.13607       -60.037 7        42.031    38856518.244 6 322988020.62906      -127.435 6        39.375  
> 2025 01 24  0 13  0.0000000  0  8      -260.450075506010
I01         0.000 8         0.00008        -0.023 8        50.000           0.000 3         0.00003        -0.048 3        23.281  
I02  39017402.469 7 153109282.28007      -354.984 7        43.594    39017394.648 6 324325286.61806      -752.093 6        39.688  
I03         0.000 8         0.00008        -0.023 8        49.375           0.000 7         0.00007        -0.048 7        45.625  
I05         0.000 7         0.00007        -0.023 7        47.188           0.000 6         0.00006        -0.048 6        41.875  
I06  38477318.990 7 150989949.65407       -56.294 7        44.688    38477312.581 6 319835890.83206      -119.251 6        40.000  
I07         0.000 7         0.00007        -0.023 7        44.375           0.000 6         0.00006        -0.048 6        40.000  
I09  36188228.625 8 142007308.72808       -98.032 8        50.000    36188223.060 7 300807880.93907      -207.445 7        45.469  
I10  38856065.207 7 152476233.37307       -60.118 7        42.031    38856059.366 6 322984206.19206      -126.944 6        39.219  
> 2025 01 24  0 13 30.0000000  0  8      -260.593094722566
I01         0.000 8         0.00008        -0.013 8        50.156           0.000 4         0.00004        -0.028 4        24.219  
I02  39014683.147 7 153098611.76707      -356.326 7        43.750    39014675.210 6 324302683.67006      -754.719 6        39.688  
I03         0.000 8         0.00008        -0.013 8        49.375           0.000 7         0.00007        -0.028 7        45.625  
I05         0.000 7         0.00007        -0.013 7        47.188           0.000 6         0.00006        -0.028 6        41.875  
I06  38476888.340 7 150988260.75907       -56.219 7        44.844    38476881.809 6 319832313.30506      -119.316 6        39.844  
I07         0.000 7         0.00007        -0.013 7        44.219           0.000 6         0.00006        -0.028 6        40.156  
I09  36187481.167 8 142004375.24208       -97.632 8        50.000    36187475.708 7 300801667.05807      -206.912 7        45.469  
I10  38855606.438 7 152474433.08907       -59.956 7        42.031    38855600.679 6 322980392.78106      -127.087 6        39.219  
> 2025 01 24  0 14  0.0000000  0  8      -260.714607302162
I01         0.000 8         0.00008        -0.034 8        50.000           0.000 3         0.00003        -0.073 3        23.750  
I02  39011954.191 7 153087902.47007      -357.722 7        43.750    39011946.257 6 324279998.57806      -757.464 6        40.000  
I03         0.000 8         0.00008        -0.034 8        49.375           0.000 7         0.00007        -0.073 7        45.625  
I05         0.000 7         0.00007        -0.034 7        47.500           0.000 6         0.00006        -0.073 6        40.781  
I06  38476458.417 7 150986572.79407       -56.233 7        44.688    38476451.713 6 319828737.76106      -119.195 6        39.844  
I07         0.000 7         0.00007        -0.034 7        44.219           0.000 6         0.00006        -0.073 6        40.156  
I09  36186735.701 8 142001450.53708       -97.418 8        50.000    36186730.158 7 300795471.76707      -206.188 7        45.469  
I10  38855147.647 6 152472633.28706       -60.112 6        41.875    38855142.163 6 322976580.37106      -127.140 6        39.219  
> 2025 01 24  0 14 30.0000000  0  8      -260.474555671675
I01         0.000 8         0.00008        -0.077 8        50.156           0.000 4         0.00004        -0.163 4        26.094  
I02  39009215.109 7 153077154.03107      -359.132 7        43.750    39009207.409 6 324257230.58106      -760.622 6        40.000  
I03         0.000 8         0.00008        -0.077 8        49.375           0.000 7         0.00007        -0.163 7        45.625  
I05         0.000 7         0.00007        -0.077 7        47.500           0.000 6         0.00006        -0.163 6        41.875  
I06  38476028.453 7 150984885.75307       -56.361 7        44.688    38476021.850 6 319825164.18006      -119.250 6        40.000  
I07         0.000 7         0.00007        -0.077 7        44.375           0.000 6         0.00006        -0.163 6        40.000  
I09  36185992.693 8 141998534.70208       -97.172 8        50.000    36185987.311 7 300789295.27607      -205.838 7        45.469  
I10  38854689.201 6 152470833.98106       -60.049 6        41.875    38854683.543 6 322972769.04006      -127.180 6        39.219  
> 2025 01 24  0 15  0.0000000  0  8      -260.542346079539
I01         0.000 8         0.00008        -0.037 8        50.000           0.000 4         0.00004        -0.077 4        24.844  
I02  39006466.069 7 153066366.48707      -360.192 7        43.906    39006458.402 6 324234379.72906      -763.098 6        40.156  
I03         0.000 8         0.00008        -0.037 8        49.219           0.000 7         0.00007        -0.077 7        45.625  
I05         0.000 7         0.00007        -0.037 7        47.500           0.000 6         0.00006        -0.077 6        41.875  
I06  38475598.986 7 150983199.62507       -56.339 7        44.844    38475591.939 6 319821592.52906      -119.137 6        40.000  
I07         0.000 7         0.00007        -0.037 7        44.219           0.000 6         0.00006        -0.077 6        40.000  
I09  36185251.802 8 141995627.77108       -96.818 8        50.000    36185246.378 7 300783137.65007      -204.978 7        45.469  
I10  38854231.022 6 152469035.18506       -59.975 6        41.875    38854225.370 6 322968958.77806      -127.040 6        39.219  
> 2025 01 24  0 15 30.0000000  0  8      -260.723117617624
I01         0.000 8         0.00008        -0.026 8        50.000           0.000 3         0.00003        -0.055 3        23.594  
I02  39003707.497 7 153055540.37407      -361.538 7        43.750    39003699.722 6 324211447.19106      -765.883 6        40.156  
I03         0.000 8         0.00008        -0.026 8        49.219           0.000 7         0.00007        -0.055 7        45.469  
I05         0.000 7         0.00007        -0.026 7        47.344           0.000 7         0.00007        -0.055 7        42.031  
I06  38475169.461 7 150981514.41807       -56.047 7        44.688    38475162.390 6 319818022.82006      -118.925 6        39.844  
I07         0.000 7         0.00007        -0.026 7        44.062           0.000 6         0.00006        -0.055 6        39.844  
I09  36184513.294 8 141992729.89908       -96.531 8        49.844    36184507.967 7 300776999.20607      -204.361 7        45.312  
I10  38853772.470 6 152467236.90106       -60.033 6        41.719    38853766.937 6 322965149.60806      -126.979 6        39.062  
> 2025 01 24  0 16  0.0000000  0  8      -260.959744448405
I01         0.000 8         0.00008        -0.109 8        50.000           0.000 4         0.00004        -0.231 4        25.469  
I02  39000938.741 7 153044675.14907      -363.048 7        43.750    39000930.777 6 324188431.79306      -768.851 6        40.312  
I03         0.000 8         0.00008        -0.109 8        49.219           0.000 7         0.00007        -0.231 7        45.469  
I05         0.000 7         0.00007        -0.109 7        47.344           0.000 6         0.00006        -0.231 6        41.719  
I06  38474740.009 7 150979830.17407       -56.476 7        44.844    38474733.239 6 319814455.16006      -119.215 6        39.844  
I07         0.000 7         0.00007        -0.109 7        44.062           0.000 6         0.00006        -0.231 6        39.688  
I09  36183777.164 8 141989841.10008       -96.189 8        49.844    36183771.798 7 300770879.97807      -203.853 7        45.156  
I10  38853314.693 6 152465439.16806       -60.294 6        41.875    38853308.849 6 322961341.58106      -127.066 6        39.062  
> 2025 01 24  0 16 30.0000000  0  8      -261.373651117846
I01         0.000 8         0.00008        -0.008 8        50.000           0.000 3         0.00003        -0.017 3        22.500  
I02  38998160.015 7 153033771.74007      -364.091 7        43.906    38998151.989 6 324165335.53406      -771.285 6        40.156  
I03         0.000 8         0.00008        -0.008 8        49.219           0.000 7         0.00007        -0.017 7        45.469  
I05         0.000 7         0.00007        -0.008 7        47.188           0.000 6         0.00006        -0.017 6        41.875  
I06  38474311.232 7 150978146.88407       -55.994 7        44.844    38474303.842 6 319810889.52206      -118.747 6        40.000  
I07         0.000 7         0.00007        -0.008 7        44.062           0.000 6         0.00006        -0.017 6        39.844  
I09  36183043.321 8 141986961.47408       -95.804 8        49.844    36183037.822 7 300764780.19207      -202.979 7        45.312  
I10  38852856.599 6 152463641.96006       -59.966 6        41.875    38852850.676 6 322957534.68106      -126.796 6        38.906  
> 2025 01 24  0 17  0.0000000  0  8      -261.784949866253
I01         0.000 8         0.00008        -0.013 8        49.844           0.000 3         0.00003        -0.027 3        23.750  
I02  38995371.593 7 153022829.25607      -365.493 7        43.906    38995363.619 6 324142156.49606      -774.162 6        40.156  
I03         0.000 8         0.00008        -0.013 8        49.219           0.000 7         0.00007        -0.027 7        45.469  
I05         0.000 7         0.00007        -0.013 7        47.344           0.000 6         0.00006        -0.027 6        41.875  
I06  38473882.630 7 150976464.54007       -56.105 7        44.844    38473875.101 6 319807325.88006      -118.862 6        39.844  
I07         0.000 7         0.00007        -0.013 7        44.062           0.000 6         0.00006        -0.027 6        39.688  
I09  36182311.932 8 141984091.11808       -95.510 8        49.844    36182306.307 7 300758700.03207      -202.432 7        45.156  
I10  38852398.753 7 152461845.28907       -59.489 7        42.031    38852392.866 6 322953728.93006      -126.851 6        38.750  
> 2025 01 24  0 17 30.0000000  0  8      -262.077642754139
I01         0.000 8         0.00008        -0.061 8        49.844           0.000 4         0.00004        -0.128 4        24.688  
I02  38992573.619 7 153011848.64907      -366.708 7        44.062    38992565.118 6 324118896.69306      -776.835 6        40.312  
I03         0.000 8         0.00008        -0.061 8        49.219           0.000 7         0.00007        -0.128 7        45.469  
I05         0.000 7         0.00007        -0.061 7        47.344           0.000 6         0.00006        -0.128 6        41.875  
I06  38473454.120 7 150974783.15207       -55.995 7        44.844    38473446.886 6 319803764.27606      -118.937 6        39.844  
I07         0.000 7         0.00007        -0.061 7        44.062           0.000 6         0.00006        -0.128 6        39.688  
I09  36181582.577 8 141981230.12708       -95.300 8        49.688    36181577.190 7 300752639.70907      -201.863 7        45.156  
I10  38851940.931 6 152460049.18806       -60.047 6        41.875    38851935.209 6 322949924.36506      -127.080 6        38.750  
> 2025 01 24  0 18  0.0000000  0  8      -262.607002746220
I01         0.000 8         0.00008        -0.059 8        50.000           0.000 3         0.00003        -0.124 3        22.656  
I02  38989765.721 7 153000829.70207      -368.023 7        44.062    38989756.902 6 324095555.69006      -779.305 6        40.312  
I03         0.000 8         0.00008        -0.059 8        49.219           0.000 7         0.00007        -0.124 7        45.312  
I05         0.000 7         0.00007        -0.059 7        47.500           0.000 7         0.00007        -0.124 7        42.031  
I06  38473025.904 7 150973102.73707       -56.239 7        44.844    38473018.250 6 319800204.70506      -118.741 6        39.844  
I07         0.000 7         0.00007        -0.059 7        44.062           0.000 6         0.00006        -0.124 6        39.688  
I09  36180856.076 8 141978378.58008       -94.996 8        49.844    36180850.505 7 300746599.39607      -201.144 7        45.000  
I10  38851483.516 6 152458253.63806       -59.896 6        41.719    38851477.573 6 322946120.99706      -126.951 6        38.750  
> 2025 01 24  0 18 30.0000000  0  8      -262.510323134730
I01         0.000 8         0.00008        -0.097 8        49.844           0.000 3         0.00003        -0.206 3        23.750  
I02  38986948.181 7 152989773.09507      -369.446 7        44.062    38986939.675 6 324072134.90306      -782.170 6        40.156  
I03         0.000 8         0.00008        -0.097 8        49.219           0.000 7         0.00007        -0.206 7        45.312  
I05         0.000 7         0.00007        -0.097 7        47.500           0.000 6         0.00006        -0.206 6        41.719  
I06  38472598.103 7 150971423.28007       -56.306 7        45.000    38472590.460 6 319796647.19006      -118.940 6        39.688  
I07         0.000 7         0.00007        -0.097 7        44.062           0.000 6         0.00006        -0.206 6        39.688  
I09  36180131.872 8 141975536.53608       -94.701 8        49.844    36180126.189 7 300740579.20107      -200.596 7        44.844  
I10  38851026.245 6 152456458.68206       -59.861 6        41.875    38851020.245 6 322942318.86706      -127.077 6        38.750  
> 2025 01 24  0 19  0.0000000  0  8      -263.018188847738
I01         0.000 8         0.00008        -0.023 8        49.844           0.000 3         0.00003        -0.049 3        23.281  
I02  38984120.769 7 152978678.26307      -370.582 7        44.219    38984112.228 6 324048633.15906      -785.104 6        40.156  
I03         0.000 8         0.00008        -0.023 8        49.219           0.000 7         0.00007        -0.049 7        45.469  
I05         0.000 7         0.00007        -0.023 7        47.500           0.000 6         0.00006        -0.049 6        41.875  
I06  38472170.325 7 150969744.78407       -55.987 7        45.000    38472162.664 6 319793091.70806      -118.713 6        39.844  
I07         0.000 7         0.00007        -0.023 7        44.062           0.000 6         0.00006        -0.049 6        39.531  
I09  36179410.109 8 141972704.07808       -94.268 8        49.844    36179404.240 7 300734579.32307      -199.664 7        44.844  
I10  38850568.858 7 152454664.31407       -59.432 7        42.031    38850562.957 6 322938517.98306      -126.661 6        38.750  
> 2025 01 24  0 19 30.0000000  0  8      -264.509755717773
I01         0.000 8         0.00008        -0.019 8        50.000           0.000 3         0.00003        -0.041 3        23.906  
I02  38981283.520 7 152967545.75907      -371.628 7        44.219    38981274.851 6 324025051.62606      -786.973 6        40.469  
I03         0.000 8         0.00008        -0.019 8        49.062           0.000 7         0.00007        -0.041 7        45.312  
I05         0.000 7         0.00007        -0.019 7        47.656           0.000 7         0.00007        -0.041 7        42.188  
I06  38471742.542 7 150968067.32107       -56.164 7        45.156    38471734.543 6 319789538.39506      -118.290 6        39.688  
I07         0.000 7         0.00007        -0.019 7        44.219           0.000 6         0.00006        -0.041 6        39.688  
I09  36178690.382 8 141969881.32308       -93.926 8        49.844    36178684.462 7 300728599.99507      -199.052 7        45.000  
I10  38850111.522 7 152452870.53507       -59.908 7        42.188    38850105.174 6 322934718.38306      -126.553 6        38.594  
> 2025 01 24  0 20  0.0000000  0  8      -263.538890065070
I01         0.000 8         0.00008        -0.060 8        50.000           0.000 3         0.00003        -0.128 3        23.750  
I02  38978437.317 7 152956375.35407      -373.103 7        44.375    38978428.814 6 324001389.78406      -790.615 6        39.688  
I03         0.000 8         0.00008        -0.060 8        49.062           0.000 7         0.00007        -0.128 7        44.531  
I05         0.000 7         0.00007        -0.060 7        47.812           0.000 6         0.00006        -0.128 6        41.875  
I06  38471315.448 7 150966390.83107       -55.918 7        45.156    38471307.493 6 319785987.18206      -118.337 6        39.062  
I07         0.000 7         0.00007        -0.060 7        44.219           0.000 6         0.00006        -0.128 6        38.906  
I09  36177973.890 8 141967068.32808       -93.621 8        49.844    36177968.008 7 300722641.34107      -198.419 7        44.219  
I10  38849654.868 7 152451077.38307       -60.029 7        42.031    38849648.814 6 322930920.05706      -126.378 6        37.812  
> 2025 01 24  0 20 30.0000000  0  8      -263.670762613914
I01         0.000 8         0.00008        -0.050 8        50.156           0.000 3         0.00003        -0.106 3        22.500  
I02  38975581.152 7 152945166.84707      -374.337 7        44.219    38975572.616 6 323977647.25706      -792.805 6        40.469  
I03         0.000 8         0.00008        -0.050 8        49.062           0.000 7         0.00007        -0.106 7        45.312  
I05         0.000 7         0.00007        -0.050 7        47.969           0.000 6         0.00006        -0.106 6        41.562  
I06  38470888.644 7 150964715.35507       -56.166 7        45.156    38470880.676 6 319782438.07806      -118.167 6        39.688  
I07         0.000 7         0.00007        -0.050 7        44.219           0.000 6         0.00006        -0.106 6        39.688  
I09  36177259.554 8 141964265.17508       -93.311 8        49.688    36177253.539 7 300716703.52907      -197.556 7        44.844  
I10  38849198.316 7 152449284.82507       -59.663 7        42.188    38849191.863 6 322927123.01206      -126.828 6        38.594  
> 2025 01 24  0 21  0.0000000  0  8      -263.984883924956
I01         0.000 8         0.00008        -0.061 8        50.156           0.000 4         0.00004        -0.128 4        24.531  
I02  38972715.237 7 152933921.83507      -375.539 7        44.219    38972707.138 6 323953827.39106      -795.649 6        40.469  
I03         0.000 8         0.00008        -0.061 8        49.062           0.000 7         0.00007        -0.128 7        45.469  
I05         0.000 7         0.00007        -0.061 7        47.969           0.000 6         0.00006        -0.128 6        41.094  
I06  38470461.995 7 150963040.86807       -55.956 7        45.156    38470453.793 6 319778891.09106      -118.429 6        39.688  
I07         0.000 7         0.00007        -0.061 7        44.375           0.000 6         0.00006        -0.128 6        39.688  
I09  36176547.711 8 141961471.94308       -93.057 8        49.688    36176541.802 7 300710786.73407      -197.112 7        44.844  
I10  38848741.610 7 152447492.88607       -59.616 7        42.031    38848735.150 6 322923327.29006      -126.696 6        38.750  
> 2025 01 24  0 21 30.0000000  0  8      -263.694965205540
I01         0.000 8         0.00008        -0.006 8        50.156           0.000 4         0.00004        -0.014 4        24.844  
I02  38969840.237 7 152922638.88007      -376.525 7        44.219    38969831.820 6 323929927.16306      -797.916 6        40.469  
I03         0.000 8         0.00008        -0.006 8        49.062           0.000 7         0.00007        -0.014 7        45.312  
I05         0.000 7         0.00007        -0.006 7        47.656           0.000 6         0.00006        -0.014 6        41.094  
I06  38470035.664 7 150961367.43507       -55.656 7        45.312    38470027.651 6 319775346.31906      -118.106 6        39.688  
I07         0.000 7         0.00007        -0.006 7        44.531           0.000 6         0.00006        -0.014 6        39.844  
I09  36175838.546 8 141958688.73308       -92.625 8        49.531    36175832.559 7 300704891.17307      -196.130 7        44.844  
I10  38848285.354 7 152445701.57207       -59.835 7        42.188    38848278.739 6 322919532.93106      -126.503 6        38.750  
> 2025 01 24  0 22  0.0000000  0  8      -264.278095620408
I01         0.000 8         0.00008        -0.060 8        50.000           0.000 3         0.00003        -0.126 3        22.031  
I02  38966955.341 7 152911319.31107      -378.139 7        44.219    38966946.907 6 323905949.37606      -800.762 6        40.156  
I03         0.000 8         0.00008        -0.060 8        49.062           0.000 7         0.00007        -0.126 7        45.469  
I05         0.000 7         0.00007        -0.060 7        47.656           0.000 6         0.00006        -0.126 6        40.781  
I06  38469609.130 7 150959695.02507       -55.760 7        45.312    38469601.175 6 319771803.71106      -118.036 6        39.688  
I07         0.000 7         0.00007        -0.060 7        44.375           0.000 6         0.00006        -0.126 6        40.000  
I09  36175131.917 8 141955915.66908       -92.421 8        49.531    36175125.779 7 300699017.09807      -195.600 7        45.000  
I10  38847829.093 7 152443910.90507       -59.695 7        42.188    38847822.342 6 322915739.92006      -126.713 6        38.594  
> 2025 01 24  0 22 30.0000000  0  8      -263.943960419987
I01         0.000 8         0.00008        -0.028 8        50.000           0.000 3         0.00003        -0.060 3        23.750  
I02  38964061.123 7 152899962.26007      -379.236 7        44.219    38964053.114 6 323881892.18906      -803.194 6        40.312  
I03         0.000 8         0.00008        -0.028 8        49.062           0.000 7         0.00007        -0.060 7        45.469  
I05         0.000 7         0.00007        -0.028 7        47.656           0.000 6         0.00006        -0.060 6        41.562  
I06  38469183.565 7 150958023.64807       -55.625 7        45.312    38469175.466 6 319768263.31106      -117.887 6        39.531  
I07         0.000 7         0.00007        -0.028 7        44.531           0.000 6         0.00006        -0.060 6        39.688  
I09  36174427.816 8 141953152.75008       -92.086 8        49.531    36174421.876 7 300693164.51107      -194.875 7        44.844  
I10  38847373.077 7 152442120.89707       -59.737 7        42.344    38847366.195 6 322911948.30006      -126.212 6        38.594  
> 2025 01 24  0 23  0.0000000  0  8      -263.692562634185
I01         0.000 8         0.00008        -0.112 8        50.000           0.000 4         0.00004        -0.237 4        25.469  
I02  38961158.085 7 152888568.23507      -380.691 7        44.062    38961149.571 6 323857756.68506      -806.501 6        40.000  
I03         0.000 8         0.00008        -0.112 8        49.219           0.000 7         0.00007        -0.237 7        45.469  
I05         0.000 7         0.00007        -0.112 7        47.656           0.000 7         0.00007        -0.237 7        42.344  
I06  38468757.660 7 150956353.30207       -55.837 7        45.312    38468749.585 6 319764725.06706      -118.298 6        39.531  
I07         0.000 7         0.00007        -0.112 7        44.531           0.000 6         0.00006        -0.237 6        39.844  
I09  36173726.380 8 141950400.13608       -91.810 8        49.688    36173720.723 7 300687333.74307      -194.261 7        45.000  
I10  38846917.181 7 152440331.54407       -59.749 7        42.344    38846910.396 6 322908158.07406      -126.473 6        38.594  
> 2025 01 24  0 23 30.0000000  0  8      -263.591353363310
I01         0.000 8         0.00008        -0.045 8        50.312           0.000 4         0.00004        -0.095 4        24.531  
I02  38958245.007 7 152877137.56707      -381.689 7        44.062    38958236.876 6 323833543.57706      -808.248 6        40.312  
I03         0.000 8         0.00008        -0.045 8        49.062           0.000 7         0.00007        -0.095 7        45.469  
I05         0.000 7         0.00007        -0.045 7        47.656           0.000 7         0.00007        -0.095 7        42.656  
I06  38468332.419 7 150954683.97107       -55.631 7        45.312    38468324.578 6 319761188.99506      -117.754 6        39.375  
I07         0.000 7         0.00007        -0.045 7        44.531           0.000 6         0.00006        -0.095 6        39.688  
I09  36173027.605 8 141947657.89808       -91.241 8        49.688    36173021.847 7 300681524.97607      -193.400 7        45.000  
I10  38846461.534 7 152438542.87107       -59.918 7        42.500    38846454.439 6 322904369.28506      -126.504 6        38.594  
> 2025 01 24  0 24  0.0000000  0  8      -263.435303504007
I01         0.000 8         0.00008        -0.071 8        50.625           0.000 4         0.00004        -0.150 4        25.156  
I02  38955322.958 7 152865669.86207      -382.933 7        44.219    38955314.536 6 323809252.00606      -811.240 6        40.781  
I03         0.000 8         0.00008        -0.071 8        49.219           0.000 7         0.00007        -0.150 7        45.469  
I05         0.000 7         0.00007        -0.071 7        47.500           0.000 7         0.00007        -0.150 7        42.188  
I06  38467907.354 7 150953015.71807       -55.655 7        45.156    38467899.395 6 319757655.19506      -118.004 6        39.531  
I07         0.000 7         0.00007        -0.071 7        44.531           0.000 6         0.00006        -0.150 6        39.688  
I09  36172331.393 8 141944926.07508       -90.888 8        49.844    36172325.716 7 300675738.26607      -192.803 7        45.156  
I10  38846006.399 7 152436754.88507       -59.869 7        42.500    38845998.888 6 322900581.95106      -126.328 6        38.438  
> 2025 01 24  0 24 30.0000000  0  8      -263.680986910467
I01         0.000 8         0.00008        -0.051 8        50.781           0.000 4         0.00004        -0.108 4        25.156  
I02  38952391.501 7 152854165.99307      -384.213 7        44.375    38952383.301 6 323784883.81906      -813.469 6        40.781  
I03         0.000 8         0.00008        -0.051 8        49.219           0.000 7         0.00007        -0.108 7        45.469  
I05         0.000 7         0.00007        -0.051 7        47.500           0.000 7         0.00007        -0.108 7        42.344  
I06  38467482.617 7 150951348.51607       -55.740 7        45.156    38467474.299 6 319754123.62106      -117.844 6        39.531  
I07         0.000 7         0.00007        -0.051 7        44.688           0.000 6         0.00006        -0.108 6        39.375  
I09  36171637.938 8 141942204.81808       -90.664 8        49.844    36171632.434 7 300669973.91407      -191.876 7        45.312  
I10  38845550.773 7 152434967.56307       -59.501 7        42.812    38845543.342 6 322896796.03106      -126.279 6        38.438  
> 2025 01 24  0 25  0.0000000  0  8      -263.615191916077
I01         0.000 8         0.00008        -0.082 8        50.781           0.000 4         0.00004        -0.174 4        24.531  
I02  38949450.698 7 152842626.06107      -385.570 7        44.219    38949442.488 6 323760439.26206      -816.389 6        40.625  
I03         0.000 8         0.00008        -0.082 8        49.219           0.000 7         0.00007        -0.174 7        45.469  
I05         0.000 7         0.00007        -0.082 7        47.656           0.000 7         0.00007        -0.174 7        42.188  
I06  38467058.248 7 150949682.38707       -55.546 7        45.156    38467049.764 6 319750594.32906      -117.760 6        39.688  
I07         0.000 7         0.00007        -0.082 7        44.531           0.000 6         0.00006        -0.174 6        39.531  
I09  36170947.235 8 141939494.18608       -90.276 8        49.688    36170941.906 7 300664232.08907      -191.226 7        45.469  
I10  38845095.511 7 152433180.96107       -59.799 7        42.656    38845088.013 6 322893011.63106      -126.240 6        38.125  
> 2025 01 24  0 25 30.0000000  0  8      -264.155878352365
I01         0.000 8         0.00008        -0.029 8        50.938           0.000 4         0.00004        -0.062 4        26.250  
I02  38946500.799 7 152831049.36907      -386.491 7        44.219    38946492.778 6 323735916.82606      -818.811 6        40.781  
I03         0.000 8         0.00008        -0.029 8        49.219           0.000 7         0.00007        -0.062 7        45.312  
I05         0.000 7         0.00007        -0.029 7        47.656           0.000 7         0.00007        -0.062 7        42.500  
I06  38466633.739 7 150948017.34607       -55.424 7        45.312    38466625.966 6 319747067.34606      -117.542 6        39.688  
I07         0.000 7         0.00007        -0.029 7        44.688           0.000 6         0.00006        -0.062 6        39.375  
I09  36170259.248 8 141936794.25108       -89.850 8        49.688    36170253.775 7 300658512.92507      -190.467 7        45.469  
I10  38844640.416 7 152431395.07807       -59.508 7        42.656    38844633.114 6 322889228.74106      -126.179 6        38.125  
> 2025 01 24  0 26  0.0000000  0  8      -264.285953151790
I01         0.000 8         0.00008        -0.043 8        50.938           0.000 3         0.00003        -0.091 3        22.500  
I02  38943541.669 7 152819437.04607      -387.762 7        44.062    38943533.331 6 323711318.93506      -821.469 6        40.625  
I03         0.000 8         0.00008        -0.043 8        49.219           0.000 7         0.00007        -0.091 7        45.312  
I05         0.000 7         0.00007        -0.043 7        47.500           0.000 7         0.00007        -0.091 7        42.812  
I06  38466209.586 7 150946353.35707       -55.593 7        45.312    38466201.517 6 319743542.57206      -117.604 6        39.844  
I07         0.000 7         0.00007        -0.043 7        44.688           0.000 6         0.00006        -0.091 6        39.375  
I09  36169574.023 8 141934105.11708       -89.423 8        49.688    36169568.586 7 300652816.63207      -189.491 7        45.312  
I10  38844185.995 7 152429609.91707       -59.309 7        42.812    38844178.315 6 322885447.38106      -126.471 6        38.281  
> 2025 01 24  0 26 30.0000000  0  8      -264.531840339116
I01         0.000 8         0.00008        -0.035 8        50.938           0.000 3         0.00003        -0.074 3        21.094  
I02  38940573.359 7 152807788.46807      -388.863 7        44.062    38940564.622 6 323686644.23006      -823.771 6        40.469  
I03         0.000 8         0.00008        -0.035 8        49.219           0.000 7         0.00007        -0.074 7        45.312  
I05         0.000 7         0.00007        -0.035 7        47.500           0.000 7         0.00007        -0.074 7        42.188  
I06  38465785.984 7 150944690.47607       -55.451 7        45.156    38465778.115 6 319740020.14406      -117.373 6        39.688  
I07         0.000 7         0.00007        -0.035 7        44.844           0.000 6         0.00006        -0.074 6        39.219  
I09  36168891.599 8 141931426.86708       -89.204 8        49.688    36168885.955 7 300647143.40107      -188.835 7        45.469  
I10  38843730.933 7 152427825.49507       -59.465 7        42.969    38843723.457 6 322881667.57406      -126.143 6        38.438  
> 2025 01 24  0 27  0.0000000  0  8      -263.925883242569
I01         0.000 8         0.00008        -0.052 8        50.781           0.000 4         0.00004        -0.111 4        25.625  
I02  38937596.015 7 152796104.54207      -390.092 7        44.062    38937587.768 6 323661894.65006      -826.473 6        40.469  
I03         0.000 8         0.00008        -0.052 8        49.219           0.000 7         0.00007        -0.111 7        45.469  
I05         0.000 7         0.00007        -0.052 7        47.500           0.000 7         0.00007        -0.111 7        42.188  
I06  38465362.510 7 150943028.67107       -55.600 7        45.312    38465354.550 6 319736500.01306      -117.392 6        39.688  
I07         0.000 7         0.00007        -0.052 7        44.688           0.000 6         0.00006        -0.111 6        39.219  
I09  36168211.987 8 141928759.57708       -88.807 8        49.531    36168206.448 7 300641493.37907      -187.981 7        45.469  
I10  38843276.542 7 152426041.79807       -59.303 7        42.969    38843268.998 6 322877889.33006      -126.361 6        38.125  
> 2025 01 24  0 27 30.0000000  0  8      -264.194542370921
I01         0.000 8         0.00008        -0.019 8        50.625           0.000 3         0.00003        -0.041 3        23.594  
I02  38934609.545 7 152784385.08407      -391.408 7        44.062    38934601.072 6 323637069.80706      -829.055 6        40.156  
I03         0.000 8         0.00008        -0.019 8        49.375           0.000 7         0.00007        -0.041 7        45.469  
I05         0.000 7         0.00007        -0.019 7        47.500           0.000 7         0.00007        -0.041 7        42.344  
I06  38464939.350 7 150941367.98307       -55.146 7        45.156    38464931.363 6 319732982.22306      -117.342 6        39.844  
I07         0.000 7         0.00007        -0.019 7        44.844           0.000 6         0.00006        -0.041 6        38.906  
I09  36167535.001 8 141926103.35608       -88.350 8        49.688    36167529.455 7 300635866.79907      -187.229 7        45.469  
I10  38842822.533 7 152424258.85207       -59.343 7        43.125    38842814.585 6 322874112.68206      -125.716 6        38.281  
> 2025 01 24  0 28  0.0000000  0  8      -264.305312222292
I01         0.000 8         0.00008        -0.042 8        50.781           0.000 3         0.00003        -0.088 3        23.906  
I02  38931613.729 7 152772629.74307      -392.412 7        44.062    38931605.324 6 323612168.97506      -831.492 6        40.312  
I03         0.000 8         0.00008        -0.042 8        49.375           0.000 7         0.00007        -0.088 7        45.156  
I05         0.000 7         0.00007        -0.042 7        47.656           0.000 7         0.00007        -0.088 7        42.188  
I06  38464516.360 7 150939708.39407       -55.349 7        45.156    38464508.532 6 319729466.78306      -117.229 6        39.844  
I07         0.000 7         0.00007        -0.042 7        44.688           0.000 6         0.00006        -0.088 6        38.750  
I09  36166861.080 8 141923458.27508       -88.057 8        49.688    36166855.467 7 300630263.83307      -186.514 7        45.625  
I10  38842368.172 7 152422476.67507       -59.419 7        42.812    38842360.385 6 322870337.65306      -125.925 6        37.969  
> 2025 01 24  0 28 30.0000000  0  8      -264.021689526127
I01         0.000 8         0.00008         0.046 8        50.625           0.000 3         0.00003         0.097 3        23.750  
I02  38928609.284 7 152760839.49307      -393.415 7        43.750    38928601.232 6 323587194.18006      -833.752 6        40.000  
I03         0.000 8         0.00008         0.046 8        49.219           0.000 7         0.00007         0.097 7        45.312  
I05         0.000 7         0.00007         0.046 7        47.500           0.000 7         0.00007         0.097 7        42.188  
I06  38464093.764 7 150938049.91007       -55.238 7        45.312    38464085.822 6 319725953.68306      -116.967 6        39.844  
I07         0.000 7         0.00007         0.046 7        44.844           0.000 6         0.00006         0.097 6        38.750  
I09  36166189.741 8 141920824.45408       -87.523 8        49.844    36166184.413 7 300624684.71707      -185.468 7        45.469  
I10  38841914.462 7 152420695.26007       -59.026 7        43.125    38841906.678 6 322866564.23006      -125.214 6        38.125  
> 2025 01 24  0 29  0.0000000  0  8      -263.741519293564
I01         0.000 8         0.00008        -0.031 8        50.625           0.000 4         0.00004        -0.065 4        26.250  
I02  38925595.581 7 152749013.24507      -394.710 7        43.906    38925587.978 6 323562143.14706      -836.391 6        40.156  
I03         0.000 8         0.00008        -0.031 8        49.375           0.000 7         0.00007        -0.065 7        45.156  
I05         0.000 7         0.00007        -0.031 7        47.656           0.000 6         0.00006        -0.065 6        41.875  
I06  38463671.440 7 150936392.55807       -55.354 7        45.469    38463663.606 6 319722442.97906      -117.010 6        39.844  
I07         0.000 7         0.00007        -0.031 7        44.688           0.000 6         0.00006        -0.065 6        38.750  
I09  36165521.531 8 141918201.93208       -87.399 8        49.844    36165515.885 7 300619129.53107      -184.787 7        45.312  
I10  38841460.786 7 152418914.63807       -59.260 7        43.125    38841453.202 6 322862792.46906      -125.677 6        38.281  
> 2025 01 24  0 29 30.0000000  0  8      -264.745347601956
I01         0.000 8         0.00008        -0.050 8        50.469           0.000 4         0.00004        -0.106 4        26.094  
I02  38922572.904 7 152737152.08707      -396.171 7        44.062    38922564.805 6 323537018.16206      -838.598 6        39.844  
I03         0.000 8         0.00008        -0.050 8        49.375           0.000 7         0.00007        -0.106 7        45.156  
I05         0.000 7         0.00007        -0.050 7        47.656           0.000 7         0.00007        -0.106 7        42.188  
I06  38463249.052 7 150934736.34107       -55.273 7        45.312    38463241.307 6 319718934.67406      -117.003 6        40.000  
I07         0.000 7         0.00007        -0.050 7        44.688           0.000 6         0.00006        -0.106 6        38.750  
I09  36164856.054 8 141915590.84408       -86.901 8        49.844    36164850.226 7 300613598.56507      -184.094 7        45.312  
I10  38841006.945 7 152417134.80107       -59.295 7        43.125    38840999.138 6 322859022.40806      -125.946 6        38.125  
> 2025 01 24  0 30  0.0000000  0  8      -263.461385864390
I01         0.000 8         0.00008        -0.026 8        50.312           0.000 3         0.00003        -0.056 3        20.781  
I02  38919542.264 7 152725256.51407      -397.030 7        44.062    38919534.046 6 323511820.27006      -841.284 6        40.000  
I03         0.000 8         0.00008        -0.026 8        49.375           0.000 7         0.00007        -0.056 7        45.312  
I05         0.000 7         0.00007        -0.026 7        47.656           0.000 6         0.00006        -0.056 6        41.875  
I06  38462827.607 7 150933081.24707       -55.278 7        45.312    38462819.871 6 319715428.75106      -116.800 6        40.000  
I07         0.000 7         0.00007        -0.026 7        44.688           0.000 6         0.00006        -0.056 6        38.594  
I09  36164193.791 8 141912991.23208       -86.373 8        49.844    36164188.089 7 300608091.92007      -183.208 7        45.469  
I10  38840554.071 7 152415355.75507       -59.342 7        43.125    38840546.214 6 322855254.00806      -125.753 6        38.438  
> 2025 01 24  0 30 30.0000000  0  8      -263.519021677536
I01         0.000 8         0.00008        -0.021 8        50.312           0.000 4         0.00004        -0.045 4        24.219  
I02  38916501.831 7 152713325.75107      -398.177 7        44.062    38916493.597 6 323486547.84306      -843.531 6        39.688  
I03         0.000 8         0.00008        -0.021 8        49.375           0.000 7         0.00007        -0.045 7        45.156  
I05         0.000 7         0.00007        -0.021 7        47.812           0.000 6         0.00006        -0.045 6        41.562  
I06  38462406.227 7 150931427.28907       -55.148 7        45.312    38462398.074 6 319711925.24306      -116.839 6        40.000  
I07         0.000 7         0.00007        -0.021 7        44.688           0.000 6         0.00006        -0.045 6        38.906  
I09  36163534.213 8 141910403.23008       -86.055 8        49.844    36163528.775 7 300602609.86407      -182.311 7        45.469  
I10  38840100.787 7 152413577.51807       -59.310 7        43.125    38840093.198 6 322851487.34306      -125.768 6        38.594  
> 2025 01 24  0 31  0.0000000  0  8      -262.966399007719
I01         0.000 8         0.00008        -0.091 8        50.156           0.000 3         0.00003        -0.193 3        22.656  
I02  38913452.980 7 152701360.90707      -399.697 7        44.062    38913444.460 6 323461203.20206      -846.654 6        39.531  
I03         0.000 8         0.00008        -0.091 8        49.375           0.000 7         0.00007        -0.193 7        45.156  
I05         0.000 7         0.00007        -0.091 7        47.969           0.000 6         0.00006        -0.193 6        41.719  
I06  38461985.036 7 150929774.47007       -55.269 7        45.156    38461977.307 6 319708424.13606      -116.960 6        40.312  
I07         0.000 7         0.00007        -0.091 7        44.688           0.000 6         0.00006        -0.193 6        38.438  
I09  36162877.804 8 141907826.89208       -85.739 8        49.844    36162872.020 7 300597152.52407      -181.629 7        45.156  
I10  38839648.322 7 152411800.09607       -59.353 7        43.125    38839640.641 6 322847722.38006      -125.622 6        38.125  
> 2025 01 24  0 31 30.0000000  0  8      -262.892578059920
I01         0.000 8         0.00008        -0.018 8        50.312           0.000 3         0.00003        -0.039 3        23.750  
I02  38910394.657 7 152689360.78207      -400.449 7        43.906    38910386.910 6 323435783.86106      -848.527 6        39.219  
I03         0.000 8         0.00008        -0.018 8        49.375           0.000 7         0.00007        -0.039 7        45.156  
I05         0.000 8         0.00008        -0.018 8        48.125           0.000 6         0.00006        -0.039 6        41.875  
I06  38461564.128 7 150928122.81907       -55.128 7        45.312    38461556.426 6 319704925.52706      -116.678 6        39.844  
I07         0.000 7         0.00007        -0.018 7        44.688           0.000 6         0.00006        -0.039 6        38.594  
I09  36162224.373 8 141905262.33108       -85.232 8        49.688    36162218.714 7 300591720.12307      -180.774 7        45.312  
I10  38839195.312 7 152410023.48307       -59.145 7        43.281    38839188.102 6 322843959.16406      -125.561 6        38.594  
> 2025 01 24  0 32  0.0000000  0  8      -262.852504847758
I01         0.000 8         0.00008        -0.051 8        50.469           0.000 3         0.00003        -0.108 3        22.969  
I02  38907327.808 7 152677325.85007      -401.667 7        43.906    38907319.784 6 323410290.77706      -851.328 6        38.906  
I03         0.000 8         0.00008        -0.051 8        49.531           0.000 7         0.00007        -0.108 7        45.000  
I05         0.000 7         0.00007        -0.051 7        47.969           0.000 7         0.00007        -0.108 7        42.031  
I06  38461143.328 7 150926472.34307       -55.013 7        45.000    38461135.949 6 319701429.39006      -116.493 6        40.156  
I07         0.000 7         0.00007        -0.051 7        44.531           0.000 6         0.00006        -0.108 6        38.594  
I09  36161574.009 8 141902709.62208       -84.928 8        49.844    36161568.279 7 300586312.84207      -179.865 7        45.469  
I10  38838742.979 7 152408247.70607       -59.346 7        43.281    38838735.392 6 322840197.72106      -125.723 6        38.594  
> 2025 01 24  0 32 30.0000000  0  8      -263.270315102686
I01         0.000 8         0.00008        -0.012 8        50.469           0.000 4         0.00004        -0.025 4        24.844  
I02  38904252.118 7 152665257.20907      -402.887 7        43.906    38904243.931 6 323384726.30206      -853.213 6        38.281  
I03         0.000 8         0.00008        -0.012 8        49.375           0.000 7         0.00007        -0.025 7        45.156  
I05         0.000 7         0.00007        -0.012 7        47.969           0.000 6         0.00006        -0.025 6        41.719  
I06  38460722.995 7 150924823.01807       -54.886 7        45.156    38460715.405 6 319697935.67206      -116.406 6        40.000  
I07         0.000 7         0.00007        -0.012 7        44.531           0.000 6         0.00006        -0.025 6        38.594  
I09  36160926.514 8 141900168.85108       -84.494 8        49.844    36160920.762 7 300580930.82807      -178.948 7        45.625  
I10  38838290.532 7 152406472.79707       -59.115 7        43.125    38838283.221 6 322836438.09406      -125.458 6        38.438  
> 2025 01 24  0 33  0.0000000  0  8      -262.737974520694
I01         0.000 8         0.00008        -0.018 8        50.469           0.000 3         0.00003        -0.038 3        22.812  
I02  38901168.102 7 152653154.30107      -403.882 7        43.750    38901160.212 6 323359089.22806      -856.048 6        37.812  
I03         0.000 8         0.00008        -0.018 8        49.531           0.000 7         0.00007        -0.038 7        45.156  
I05         0.000 8         0.00008        -0.018 8        48.125           0.000 6         0.00006        -0.038 6        41.562  
I06  38460302.823 7 150923174.86407       -54.859 7        45.000    38460295.982 6 319694444.45406      -116.171 6        40.156  
I07         0.000 7         0.00007        -0.018 7        44.531           0.000 6         0.00006        -0.038 6        38.281  
I09  36160282.265 8 141897640.18008       -84.021 8        49.844    36160276.643 7 300575574.45407      -178.243 7        45.625  
I10  38837838.438 7 152404698.73207       -59.187 7        43.281    38837831.083 6 322832680.26806      -125.389 6        38.750  
> 2025 01 24  0 33 30.0000000  0  8      -262.935325984106
I01         0.000 8         0.00008        -0.077 8        50.312           0.000 3         0.00003        -0.163 3        23.125  
I02  38898075.275 7 152641017.36807      -405.209 7        43.906    38898067.168 6 323333380.08806      -858.312 6        37.812  
I03         0.000 8         0.00008        -0.077 8        49.531           0.000 7         0.00007        -0.163 7        45.000  
I05         0.000 8         0.00008        -0.077 8        48.125           0.000 6         0.00006        -0.163 6        41.719  
I06  38459883.451 7 150921527.92207       -54.941 7        45.156    38459875.841 6 319690955.81706      -116.518 6        40.000  
I07         0.000 7         0.00007        -0.077 7        44.531           0.000 6         0.00006        -0.163 6        38.750  
I09  36159640.960 8 141895123.60508       -83.931 8        49.844    36159635.312 7 300570243.71407      -177.408 7        45.625  
I10  38837386.546 7 152402925.51707       -59.320 7        43.281    38837379.436 6 322828924.26106      -125.319 6        38.906  
> 2025 01 24  0 34  0.0000000  0  8      -262.659858492791
I01         0.000 8         0.00008        -0.010 8        50.312           0.000 3         0.00003        -0.020 3        23.906  
I02  38894974.058 7 152628846.88207      -406.298 7        43.906    38894965.675 6 323307599.86106      -860.631 6        37.500  
I03         0.000 8         0.00008        -0.010 8        49.531           0.000 7         0.00007        -0.020 7        45.000  
I05         0.000 7         0.00007        -0.010 7        47.969           0.000 6         0.00006        -0.020 6        41.562  
I06  38459464.027 7 150919882.16207       -54.742 7        45.000    38459456.659 6 319687469.68306      -116.238 6        40.000  
I07         0.000 7         0.00007        -0.010 7        44.688           0.000 6         0.00006        -0.020 6        38.750  
I09  36159002.762 8 141892619.28008       -83.231 8        49.688    36158997.243 7 300564938.90307      -176.421 7        45.781  
I10  38836934.823 7 152401153.17907       -58.910 7        43.438    38836928.206 6 322825170.11306      -125.192 6        39.062  
> 2025 01 24  0 34 30.0000000  0  8      -263.476309205387
I01         0.000 8         0.00008         0.014 8        50.625           0.000 4         0.00004         0.029 4        25.312  
I02  38891864.147 7 152616642.35907      -407.325 7        44.062    38891854.870 6 323281747.55306      -862.846 6        37.031  
I03         0.000 8         0.00008         0.014 8        49.531           0.000 7         0.00007         0.029 7        45.000  
I05         0.000 7         0.00007         0.014 7        47.812           0.000 6         0.00006         0.029 6        41.719  
I06  38459044.870 7 150918237.60107       -54.618 7        45.000    38459037.211 6 319683986.09106      -115.845 6        40.000  
I07         0.000 7         0.00007         0.014 7        44.531           0.000 6         0.00006         0.029 6        38.594  
I09  36158367.729 8 141890127.25908       -82.880 8        49.844    36158362.254 7 300559660.16407      -175.355 7        45.781  
I10  38836483.606 7 152399381.74507       -59.023 7        43.125    38836476.695 6 322821417.86806      -124.949 6        39.219  
> 2025 01 24  0 35  0.0000000  0  8      -263.493914661335
I01         0.000 8         0.00008        -0.040 8        50.469           0.000 4         0.00004        -0.085 4        24.375  
I02  38888745.448 7 152604404.15707      -408.467 7        44.219    38888736.426 6 323255823.90106      -865.230 6        36.875  
I03         0.000 8         0.00008        -0.040 8        49.531           0.000 7         0.00007        -0.085 7        45.000  
I05         0.000 7         0.00007        -0.040 7        47.344           0.000 6         0.00006        -0.085 6        41.094  
I06  38458626.325 7 150916594.24207       -54.867 7        45.000    38458618.369 6 319680505.03806      -116.065 6        39.844  
I07         0.000 7         0.00007        -0.040 7        44.531           0.000 6         0.00006        -0.085 6        38.750  
I09  36157735.574 8 141887647.63808       -82.416 8        49.844    36157730.267 7 300554407.69507      -174.839 7        45.938  
I10  38836032.862 7 152397611.19607       -59.055 7        43.281    38836025.617 6 322817667.49806      -125.321 6        39.219  
> 2025 01 24  0 35 30.0000000  0  8      -264.011765950574
I01         0.000 8         0.00008        -0.092 8        50.469           0.000 4         0.00004        -0.194 4        24.688  
I02  38885618.897 7 152592133.22607      -409.697 7        44.219    38885609.324 6 323229830.92306      -868.283 6        36.875  
I03         0.000 8         0.00008        -0.092 8        49.531           0.000 7         0.00007        -0.194 7        45.000  
I05         0.000 7         0.00007        -0.092 7        47.500           0.000 6         0.00006        -0.194 6        41.250  
I06  38458207.562 7 150914952.09107       -54.796 7        44.844    38458199.849 6 319677026.54406      -116.038 6        39.844  
I07         0.000 7         0.00007        -0.092 7        44.688           0.000 6         0.00006        -0.194 6        38.594  
I09  36157106.934 8 141885180.54208       -82.152 8        49.844    36157101.383 7 300549181.75207      -174.013 7        45.938  
I10  38835581.178 7 152395841.55507       -59.344 7        42.969    38835574.308 6 322813919.04206      -124.997 6        39.062  
> 2025 01 24  0 36  0.0000000  0  8      -263.734846941910
I01         0.000 8         0.00008        -0.016 8        50.312           0.000 3         0.00003        -0.034 3        23.594  
I02  38882483.174 7 152579828.23007      -410.708 7        44.531    38882473.194 6 323203765.79006      -869.907 6        36.562  
I03         0.000 8         0.00008        -0.016 8        49.531           0.000 7         0.00007        -0.034 7        45.000  
I05         0.000 7         0.00007        -0.016 7        47.656           0.000 6         0.00006        -0.034 6        41.250  
I06  38457789.645 7 150913311.16607       -54.614 7        44.844    38457781.885 6 319673550.65306      -115.770 6        40.000  
I07         0.000 7         0.00007        -0.016 7        44.531           0.000 6         0.00006        -0.034 6        38.438  
I09  36156481.650 8 141882726.00308       -81.648 8        50.000    36156476.135 7 300543982.40707      -172.877 7        45.781  
I10  38835130.958 7 152394072.80307       -59.022 7        43.281    38835124.341 6 322810172.52106      -124.817 6        39.219  
> 2025 01 24  0 36 30.0000000  0  8      -263.670786024933
I01         0.000 8         0.00008        -0.111 8        50.312           0.000 3         0.00003        -0.235 3        23.438  
I02  38879339.089 7 152567490.41607      -412.171 7        44.531    38879329.313 6 323177631.11606      -872.545 6        36.250  
I03         0.000 8         0.00008        -0.111 8        49.531           0.000 7         0.00007        -0.235 7        45.000  
I05         0.000 7         0.00007        -0.111 7        47.656           0.000 6         0.00006        -0.235 6        41.562  
I06  38457371.659 7 150911671.46707       -54.958 7        45.000    38457364.437 6 319670077.36006      -116.266 6        40.156  
I07         0.000 7         0.00007        -0.111 7        44.531           0.000 6         0.00006        -0.235 6        38.594  
I09  36155859.429 8 141880284.16108       -81.317 8        50.000    36155853.821 7 300538809.95307      -172.172 7        45.781  
I10  38834680.625 7 152392304.97207       -59.050 7        43.125    38834673.679 6 322806427.93606      -124.978 6        39.062  
> 2025 01 24  0 37  0.0000000  0  8      -263.623766381956
I01         0.000 8         0.00008        -0.003 8        50.469           0.000 4         0.00004        -0.007 4        25.938  
I02  38876186.795 7 152555119.45307      -412.837 7        44.688    38876176.939 6 323151426.24506      -874.642 6        36.562  
I03         0.000 8         0.00008        -0.003 8        49.531           0.000 7         0.00007        -0.007 7        45.000  
I05         0.000 7         0.00007        -0.003 7        47.500           0.000 7         0.00007        -0.007 7        42.031  
I06  38456954.175 7 150910032.97307       -54.525 7        45.000    38456946.773 6 319666606.61406      -115.546 6        40.000  
I07         0.000 7         0.00007        -0.003 7        44.688           0.000 6         0.00006        -0.007 6        38.594  
I09  36155240.460 8 141877855.08508       -80.735 8        50.000    36155234.778 7 300533664.53907      -171.099 7        45.781  
I10  38834230.259 7 152390538.08507       -58.853 7        42.969    38834223.335 6 322802685.34106      -124.712 6        39.219  
> 2025 01 24  0 37 30.0000000  0  8      -263.197919748011
I01         0.000 8         0.00008        -0.050 8        50.781           0.000 3         0.00003        -0.106 3        20.781  
I02  38873026.317 7 152542716.15507      -413.998 7        44.844    38873016.621 6 323125152.86806      -876.896 6        36.875  
I03         0.000 8         0.00008        -0.050 8        49.531           0.000 7         0.00007        -0.106 7        45.000  
I05         0.000 7         0.00007        -0.050 7        47.344           0.000 6         0.00006        -0.106 6        41.875  
I06  38456536.793 7 150908395.74407       -54.742 7        44.844    38456529.821 6 319663138.55406      -115.835 6        40.000  
I07         0.000 7         0.00007        -0.050 7        44.688           0.000 6         0.00006        -0.106 6        38.750  
I09  36154624.658 8 141875438.89608       -80.300 8        50.000    36154619.167 7 300528546.43407      -170.275 7        45.781  
I10  38833780.080 7 152388772.13207       -58.980 7        42.969    38833773.280 6 322798944.73806      -124.806 6        39.219  
> 2025 01 24  0 38  0.0000000  0  8      -263.034197672813
I01         0.000 8         0.00008        -0.054 8        50.938           0.000 4         0.00004        -0.114 4        24.375  
I02  38869857.406 7 152530279.56807      -415.119 7        45.000    38869847.484 6 323098808.98806      -879.365 6        37.188  
I03         0.000 8         0.00008        -0.054 8        49.531           0.000 7         0.00007        -0.114 7        44.844  
I05         0.000 7         0.00007        -0.054 7        47.344           0.000 6         0.00006        -0.114 6        41.875  
I06  38456120.215 7 150906759.73607       -54.563 7        45.000    38456112.334 6 319659673.08706      -115.558 6        40.000  
I07         0.000 7         0.00007        -0.054 7        44.688           0.000 6         0.00006        -0.114 6        38.906  
I09  36154012.212 8 141873035.67908       -80.016 8        50.000    36154006.775 7 300523455.79807      -169.429 7        45.938  
I10  38833330.314 7 152387007.13407       -58.887 7        43.125    38833323.696 6 322795206.15906      -124.860 6        38.906  
> 2025 01 24  0 38 30.0000000  0  8      -263.068134914685
I01         0.000 8         0.00008        -0.044 8        50.938           0.000 4         0.00004        -0.092 4        25.469  
I02  38866679.994 7 152517810.77307      -416.193 7        45.000    38866670.264 6 323072396.87606      -881.572 6        37.656  
I03         0.000 8         0.00008        -0.044 8        49.688           0.000 7         0.00007        -0.092 7        44.844  
I05         0.000 7         0.00007        -0.044 7        47.656           0.000 6         0.00006        -0.092 6        41.562  
I06  38455703.247 7 150905124.99507       -54.751 7        44.844    38455696.141 6 319656210.31806      -115.485 6        40.000  
I07         0.000 7         0.00007        -0.044 7        44.688           0.000 6         0.00006        -0.092 6        38.906  
I09  36153402.915 8 141870645.49708       -79.425 8        49.844    36153397.936 7 300518392.78207      -168.413 7        46.094  
I10  38832880.667 7 152385243.09607       -58.775 7        43.125    38832874.009 6 322791469.61606      -124.636 6        39.062  
> 2025 01 24  0 39  0.0000000  0  8      -262.172959711364
I01         0.000 8         0.00008        -0.085 8        50.781           0.000 4         0.00004        -0.181 4        25.156  
I02  38863494.563 7 152505309.79407      -417.239 7        45.156    38863485.091 6 323045916.58606      -883.963 6        38.281  
I03         0.000 8         0.00008        -0.085 8        49.688           0.000 7         0.00007        -0.181 7        44.688  
I05         0.000 7         0.00007        -0.085 7        47.656           0.000 6         0.00006        -0.181 6        41.250  
I06  38455287.023 7 150903491.50207       -54.752 7        45.000    38455279.766 6 319652750.15106      -115.617 6        40.000  
I07         0.000 7         0.00007        -0.085 7        44.688           0.000 6         0.00006        -0.181 6        39.062  
I09  36152797.127 8 141868268.45708       -79.042 8        50.000    36152792.152 7 300513357.61107      -167.651 7        45.938  
I10  38832431.780 7 152383480.04107       -58.971 7        42.969    38832424.620 6 322787735.16006      -124.844 6        38.906  
> 2025 01 24  0 39 30.0000000  0  8      -261.642419926325
I01         0.000 8         0.00008        -0.079 8        50.625           0.000 4         0.00004        -0.168 4        25.938  
I02  38860300.413 7 152492776.15907      -418.368 7        45.000    38860291.336 6 323019367.12806      -886.304 6        38.594  
I03         0.000 8         0.00008        -0.079 8        49.688           0.000 7         0.00007        -0.168 7        44.844  
I05         0.000 7         0.00007        -0.079 7        47.656           0.000 6         0.00006        -0.168 6        41.562  
I06  38454871.044 7 150901859.28607       -54.708 7        44.844    38454863.905 6 319649292.71106      -115.359 6        40.000  
I07         0.000 7         0.00007        -0.079 7        44.844           0.000 6         0.00006        -0.168 6        38.906  
I09  36152194.906 8 141865904.67308       -78.781 8        49.844    36152189.844 7 300508350.51507      -166.667 7        45.781  
I10  38831982.656 7 152381717.97207       -58.845 7        43.125    38831975.994 6 322784002.75806      -124.413 6        38.906  
> 2025 01 24  0 40  0.0000000  0  8      -262.220831560787
I01         0.000 8         0.00008        -0.085 8        50.625           0.000 3         0.00003        -0.181 3        23.750  
I02  38857098.269 7 152480210.26607      -419.524 7        45.156    38857089.360 6 322992749.33506      -888.777 6        38.750  
I03         0.000 8         0.00008        -0.085 8        49.688           0.000 7         0.00007        -0.181 7        44.844  
I05         0.000 7         0.00007        -0.085 7        47.500           0.000 6         0.00006        -0.181 6        41.719  
I06  38454455.446 7 150900228.36207       -54.525 7        45.000    38454448.443 6 319645838.00506      -115.112 6        40.156  
I07         0.000 7         0.00007        -0.085 7        44.688           0.000 6         0.00006        -0.181 6        39.062  
I09  36151595.686 8 141863554.22908       -78.166 8        49.844    36151590.792 7 300503371.66307      -165.626 7        45.781  
I10  38831534.184 7 152379956.88707       -59.191 7        42.969    38831526.858 6 322780272.45906      -124.256 6        38.906  
> 2025 01 24  0 40 30.0000000  0  8      -261.825894856175
I01         0.000 8         0.00008        -0.057 8        50.781           0.000 4         0.00004        -0.121 4        24.219  
I02  38853888.332 7 152467612.66107      -420.557 7        45.312    38853879.259 6 322966064.36106      -890.808 6        38.906  
I03         0.000 8         0.00008        -0.057 8        49.688           0.000 7         0.00007        -0.121 7        44.844  
I05         0.000 7         0.00007        -0.057 7        47.500           0.000 6         0.00006        -0.121 6        41.875  
I06  38454039.989 7 150898598.71207       -54.372 7        44.688    38454033.374 6 319642386.02506      -115.347 6        40.156  
I07         0.000 7         0.00007        -0.057 7        44.844           0.000 6         0.00006        -0.121 6        39.062  
I09  36151000.326 8 141861217.17008       -77.762 8        49.844    36150995.320 7 300498421.17107      -164.610 7        45.938  
I10  38831085.461 7 152378196.80407       -58.696 7        42.969    38831078.334 6 322776544.27506      -124.373 6        38.750  
> 2025 01 24  0 41  0.0000000  0  8      -261.952323917509
I01         0.000 8         0.00008        -0.007 8        50.781           0.000 4         0.00004        -0.014 4        25.000  
I02  38850669.740 7 152454983.48307      -421.425 7        45.312    38850661.093 6 322939312.54406      -893.023 6        39.062  
I03         0.000 8         0.00008        -0.007 8        49.688           0.000 7         0.00007        -0.014 7        44.688  
I05         0.000 7         0.00007        -0.007 7        47.500           0.000 6         0.00006        -0.014 6        41.875  
I06  38453625.119 7 150896970.35807       -54.215 7        44.844    38453618.138 6 319638936.76206      -114.854 6        40.469  
I07         0.000 7         0.00007        -0.007 7        44.844           0.000 6         0.00006        -0.014 6        39.062  
I09  36150408.276 8 141858893.64208       -77.198 8        49.844    36150402.866 7 300493499.34407      -163.551 7        45.938  
I10  38830637.369 7 152376437.72407       -58.650 7        42.969    38830629.983 6 322772818.22906      -124.025 6        38.594  
> 2025 01 24  0 41 30.0000000  0  8      -262.267845736222
I01         0.000 8         0.00008        -0.008 8        50.781           0.000 4         0.00004        -0.018 4        26.094  
I02  38847443.220 7 152442322.06107      -422.443 7        45.312    38847434.536 6 322912492.39106      -895.477 6        39.219  
I03         0.000 8         0.00008        -0.008 8        49.688           0.000 7         0.00007        -0.018 7        44.688  
I05         0.000 7         0.00007        -0.008 7        47.344           0.000 7         0.00007        -0.018 7        42.188  
I06  38453210.600 7 150895343.32407       -54.229 7        44.844    38453203.699 6 319635490.28906      -114.691 6        40.469  
I07         0.000 7         0.00007        -0.008 7        44.688           0.000 6         0.00006        -0.018 6        39.062  
I09  36149819.631 8 141856583.71808       -76.713 8        49.844    36149814.250 7 300488606.32807      -162.624 7        45.938  
I10  38830189.043 7 152374679.64907       -58.516 7        42.812    38830181.687 6 322769094.34106      -124.050 6        38.750  
> 2025 01 24  0 42  0.0000000  0  8      -262.300691706497
I01         0.000 8         0.00008        -0.088 8        50.625           0.000 3         0.00003        -0.187 3        21.875  
I02  38844208.698 7 152429629.20907      -423.700 7        45.312    38844200.222 6 322885605.68306      -897.671 6        39.531  
I03         0.000 8         0.00008        -0.088 8        49.688           0.000 7         0.00007        -0.187 7        44.688  
I05         0.000 7         0.00007        -0.088 7        47.188           0.000 6         0.00006        -0.187 6        41.719  
I06  38452796.013 7 150893717.54707       -54.194 7        44.844    38452789.155 6 319632046.49706      -115.171 6        40.469  
I07         0.000 7         0.00007        -0.088 7        44.844           0.000 6         0.00006        -0.187 6        38.906  
I09  36149234.312 8 141854287.52608       -76.410 8        49.844    36149229.098 7 300483742.39507      -161.988 7        45.938  
I10  38829741.671 7 152372922.60607       -58.753 7        42.812    38829734.209 6 322765372.62406      -124.447 6        38.594  
> 2025 01 24  0 42 30.0000000  0  8      -261.958376706610
I01         0.000 8         0.00008        -0.063 8        50.625           0.000 4         0.00004        -0.134 4        24.219  
I02  38840966.279 7 152416905.19607      -424.823 7        45.469    38840958.129 6 322858652.96206      -900.067 6        39.688  
I03         0.000 8         0.00008        -0.063 8        49.688           0.000 7         0.00007        -0.134 7        44.688  
I05         0.000 7         0.00007        -0.063 7        47.344           0.000 6         0.00006        -0.134 6        41.562  
I06  38452382.349 7 150892093.11207       -54.434 7        44.688    38452375.549 6 319628605.53506      -114.791 6        40.625  
I07         0.000 7         0.00007        -0.063 7        44.844           0.000 6         0.00006        -0.134 6        39.062  
I09  36148652.665 8 141852005.14808       -75.971 8        49.844    36148647.636 7 300478907.72607      -160.946 7        45.938  
I10  38829294.069 7 152371166.58407       -58.293 7        42.969    38829286.176 6 322761653.07606      -123.772 6        38.594  
> 2025 01 24  0 43  0.0000000  0  8      -262.006884167062
I01         0.000 8         0.00008        -0.048 8        50.625           0.000 3         0.00003        -0.102 3        22.969  
I02  38837715.703 7 152404149.58707      -425.848 7        45.469    38837707.520 6 322831633.30506      -901.783 6        40.000  
I03         0.000 8         0.00008        -0.048 8        49.688           0.000 7         0.00007        -0.102 7        44.688  
I05         0.000 7         0.00007        -0.048 7        47.188           0.000 6         0.00006        -0.102 6        41.562  
I06  38451968.808 7 150890469.98407       -53.983 7        44.688    38451961.632 6 319625167.36306      -114.651 6        40.625  
I07         0.000 7         0.00007        -0.048 7        44.688           0.000 6         0.00006        -0.102 6        38.906  
I09  36148074.664 8 141849736.66308       -75.644 8        49.688    36148069.439 7 300474102.50307      -159.838 7        45.781  
I10  38828846.939 7 152369411.61807       -58.486 7        42.969    38828839.413 6 322757935.73606      -123.969 6        38.750  
> 2025 01 24  0 43 30.0000000  0  8      -262.125247877622
I01         0.000 8         0.00008        -0.057 8        50.781           0.000 4         0.00004        -0.120 4        25.000  
I02  38834457.700 7 152391362.50407      -426.645 7        45.469    38834449.097 6 322804546.99006      -904.264 6        40.000  
I03         0.000 8         0.00008        -0.057 8        49.688           0.000 7         0.00007        -0.120 7        44.688  
I05         0.000 7         0.00007        -0.057 7        47.031           0.000 6         0.00006        -0.120 6        41.406  
I06  38451555.136 7 150888848.17507       -54.222 7        44.688    38451548.575 6 319621731.97206      -114.495 6        40.469  
I07         0.000 7         0.00007        -0.057 7        44.688           0.000 6         0.00006        -0.120 6        38.906  
I09  36147500.231 8 141847482.18808       -74.998 8        49.688    36147494.776 7 300469326.94607      -158.874 7        45.625  
I10  38828399.749 7 152367657.70607       -58.533 7        42.812    38828392.547 6 322754220.64206      -124.029 6        38.438  
> 2025 01 24  0 44  0.0000000  0  8      -262.246961752839
I01         0.000 8         0.00008        -0.031 8        50.938           0.000 4         0.00004        -0.065 4        24.219  
I02  38831191.252 7 152378544.85407      -427.654 7        45.469    38831182.476 6 322777395.92106      -906.372 6        40.000  
I03         0.000 8         0.00008        -0.031 8        49.688           0.000 7         0.00007        -0.065 7        44.531  
I05         0.000 7         0.00007        -0.031 7        47.344           0.000 6         0.00006        -0.065 6        41.094  
I06  38451142.094 7 150887227.69807       -54.385 7        44.688    38451135.812 6 319618299.40506      -114.339 6        40.469  
I07         0.000 7         0.00007        -0.031 7        44.844           0.000 6         0.00006        -0.065 6        38.594  
I09  36146929.253 8 141845241.77008       -74.440 8        49.531    36146923.695 7 300464581.15307      -157.844 7        45.312  
I10  38827953.520 7 152365904.85207       -58.215 7        43.125    38827946.107 6 322750507.78706      -123.626 6        38.750  
> 2025 01 24  0 44 30.0000000  0  8      -262.550288105101
I01         0.000 8         0.00008        -0.058 8        50.938           0.000 4         0.00004        -0.124 4        25.781  
I02  38827917.189 7 152365696.56207      -428.789 7        45.625    38827908.646 6 322750179.93706      -908.410 6        40.469  
I03         0.000 8         0.00008        -0.058 8        49.688           0.000 7         0.00007        -0.124 7        44.531  
I05         0.000 7         0.00007        -0.058 7        47.656           0.000 6         0.00006        -0.124 6        40.938  
I06  38450729.644 7 150885608.56207       -54.080 7        44.531    38450723.141 6 319614869.67306      -114.506 6        40.625  
I07         0.000 7         0.00007        -0.058 7        44.844           0.000 6         0.00006        -0.124 6        38.281  
I09  36146362.007 8 141843015.56208       -73.926 8        49.688    36146356.071 7 300459865.49707      -156.796 7        45.156  
I10  38827506.970 7 152364153.05807       -58.627 7        42.969    38827499.181 6 322746797.21506      -123.857 6        38.594  
> 2025 01 24  0 45  0.0000000  0  8      -261.536526208721
I01         0.000 8         0.00008        -0.028 8        51.094           0.000 4         0.00004        -0.059 4        25.781  
I02  38824635.275 7 152352818.05807      -429.787 7        45.625    38824627.328 6 322722899.94806      -910.210 6        40.938  
I03         0.000 8         0.00008        -0.028 8        49.688           0.000 7         0.00007        -0.059 7        44.531  
I05         0.000 7         0.00007        -0.028 7        47.812           0.000 6         0.00006        -0.059 6        41.250  
I06  38450317.306 7 150883990.77007       -53.975 7        44.531    38450311.249 6 319611442.79206      -114.205 6        40.625  
I07         0.000 7         0.00007        -0.028 7        44.844           0.000 6         0.00006        -0.059 6        38.438  
I09  36145798.320 8 141840803.60408       -73.496 8        49.688    36145792.532 7 300455179.99407      -155.717 7        45.312  
I10  38827061.341 7 152362402.34907       -58.472 7        42.969    38827053.474 6 322743088.91606      -123.699 6        38.906  
> 2025 01 24  0 45 30.0000000  0  8      -262.027070389623
I01         0.000 8         0.00008        -0.055 8        51.094           0.000 4         0.00004        -0.117 4        24.844  
I02  38821345.894 7 152339908.59007      -430.796 7        45.625    38821337.720 6 322695554.39006      -912.995 6        41.406  
I03         0.000 8         0.00008        -0.055 8        49.688           0.000 7         0.00007        -0.117 7        44.531  
I05         0.000 7         0.00007        -0.055 7        47.969           0.000 6         0.00006        -0.117 6        41.406  
I06  38449905.505 7 150882374.33907       -53.908 7        44.531    38449898.870 6 319608018.80306      -114.338 6        40.625  
I07         0.000 7         0.00007        -0.055 7        44.844           0.000 6         0.00006        -0.117 6        38.438  
I09  36145238.283 8 141838606.04908       -73.113 8        49.844    36145232.294 7 300450525.02107      -154.823 7        45.312  
I10  38826615.011 7 152360652.70707       -58.384 7        42.812    38826607.540 6 322739382.90406      -123.521 6        38.906  
> 2025 01 24  0 46  0.0000000  0  8      -261.865428915925
I01         0.000 8         0.00008         0.015 8        51.250           0.000 3         0.00003         0.032 3        22.969  
I02  38818048.601 7 152326969.08907      -431.751 7        45.625    38818040.483 6 322668145.20506      -914.867 6        41.562  
I03         0.000 8         0.00008         0.015 8        49.688           0.000 7         0.00007         0.032 7        44.531  
I05         0.000 8         0.00008         0.015 8        48.125           0.000 6         0.00006         0.032 6        41.719  
I06  38449493.947 7 150880759.26407       -53.474 7        44.531    38449487.546 6 319604597.65506      -113.638 6        40.469  
I07         0.000 7         0.00007         0.015 7        44.844           0.000 6         0.00006         0.032 6        37.969  
I09  36144682.203 8 141836422.95008       -72.550 8        49.844    36144675.925 7 300445900.66007      -153.503 7        45.000  
I10  38826169.448 7 152358904.17807       -58.388 7        42.969    38826161.864 6 322735679.25906      -123.257 6        38.594  
> 2025 01 24  0 46 30.0000000  0  8      -261.867301169918
I01         0.000 8         0.00008        -0.043 8        51.250           0.000 4         0.00004        -0.091 4        25.000  
I02  38814743.548 7 152313999.47307      -432.824 7        45.625    38814735.734 6 322640672.22106      -917.010 6        41.875  
I03         0.000 8         0.00008        -0.043 8        49.688           0.000 7         0.00007        -0.091 7        44.531  
I05         0.000 8         0.00008        -0.043 8        48.281           0.000 7         0.00007        -0.091 7        42.031  
I06  38449082.712 7 150879145.56707       -54.005 7        44.531    38449076.402 6 319601179.43806      -113.977 6        40.625  
I07         0.000 7         0.00007        -0.043 7        44.688           0.000 6         0.00006        -0.091 6        37.969  
I09  36144129.551 8 141834254.43908       -72.073 8        50.000    36144123.246 7 300441307.19907      -152.702 7        45.000  
I10  38825724.187 7 152357156.75407       -58.285 7        43.125    38825716.438 6 322731977.92506      -123.216 6        38.594  
> 2025 01 24  0 47  0.0000000  0  8      -261.516789122956
I01         0.000 8         0.00008         0.001 8        51.250           0.000 4         0.00004         0.002 4        25.781  
I02  38811430.619 7 152300999.32107      -433.885 7        45.312    38811423.025 6 322613134.56706      -919.027 6        41.875  
I03         0.000 8         0.00008         0.001 8        49.688           0.000 7         0.00007         0.002 7        44.531  
I05         0.000 8         0.00008         0.001 8        48.281           0.000 6         0.00006         0.002 6        41.562  
I06  38448671.554 7 150877533.23407       -53.698 7        44.531    38448665.702 6 319597764.11406      -113.649 6        40.469  
I07         0.000 7         0.00007         0.001 7        44.688           0.000 6         0.00006         0.002 6        37.969  
I09  36143580.812 8 141832100.56908       -71.627 8        50.000    36143574.251 7 300436744.77307      -151.668 7        44.688  
I10  38825279.264 7 152355410.46007       -57.847 7        43.125    38825271.589 6 322728278.99006      -123.155 6        38.438  
> 2025 01 24  0 47 30.0000000  0  8      -261.345921272241
I01         0.000 8         0.00008        -0.071 8        51.250           0.000 3         0.00003        -0.151 3        22.656  
I02  38808109.889 7 152287969.12007      -435.110 7        45.312    38808102.611 6 322585533.26806      -921.550 6        41.875  
I03         0.000 8         0.00008        -0.071 8        49.688           0.000 7         0.00007        -0.151 7        44.531  
I05         0.000 8         0.00008        -0.071 8        48.125           0.000 6         0.00006        -0.151 6        40.938  
I06  38448261.265 7 150875922.25807       -53.414 7        44.531    38448255.168 6 319594351.69106      -114.005 6        40.625  
I07         0.000 7         0.00007        -0.071 7        44.688           0.000 6         0.00006        -0.151 6        38.125  
I09  36143035.730 8 141829961.48408       -71.108 8        50.156    36143029.121 7 300432213.63407      -150.662 7        44.844  
I10  38824834.854 7 152353665.29507       -58.496 7        43.125    38824827.158 6 322724582.44306      -123.227 6        38.594  
> 2025 01 24  0 48  0.0000000  0  8      -261.653013207377
I01         0.000 8         0.00008         0.005 8        51.250           0.000 3         0.00003         0.011 3        23.281  
I02  38804782.087 7 152274909.42107      -435.734 7        45.156    38804775.053 6 322557869.47806      -923.053 6        41.875  
I03         0.000 8         0.00008         0.005 8        49.688           0.000 7         0.00007         0.011 7        44.375  
I05         0.000 8         0.00008         0.005 8        48.125           0.000 6         0.00006         0.011 6        40.469  
I06  38447851.272 7 150874312.68907       -53.560 7        44.375    38447844.750 6 319590942.21806      -113.702 6        40.781  
I07         0.000 7         0.00007         0.005 7        44.531           0.000 6         0.00006         0.011 6        37.969  
I09  36142494.498 8 141827837.24908       -70.585 8        50.000    36142487.899 7 300427713.96607      -149.400 7        44.688  
I10  38824390.209 7 152351921.26907       -57.951 7        43.125    38824381.987 6 322720888.31406      -123.069 6        38.438  
> 2025 01 24  0 48 30.0000000  0  8      -261.694005491534
I01         0.000 8         0.00008        -0.027 8        51.250           0.000 3         0.00003        -0.058 3        23.125  
I02  38801446.512 7 152261820.09007      -436.710 7        45.000    38801439.168 6 322530142.91706      -925.157 6        41.719  
I03         0.000 8         0.00008        -0.027 8        49.844           0.000 7         0.00007        -0.058 7        44.375  
I05         0.000 8         0.00008        -0.027 8        48.281           0.000 6         0.00006        -0.058 6        40.625  
I06  38447440.952 7 150872704.53507       -53.680 7        44.219    38447434.978 6 319587535.74806      -113.718 6        40.781  
I07         0.000 7         0.00007        -0.027 7        44.375           0.000 6         0.00006        -0.058 6        37.969  
I09  36141956.952 8 141825727.94608       -70.147 8        50.000    36141950.150 7 300423245.92607      -148.571 7        44.844  
I10  38823946.008 7 152350178.37007       -58.019 7        42.969    38823938.459 6 322717196.58406      -123.037 6        38.438  
> 2025 01 24  0 49  0.0000000  0  8      -261.645502488992
I01         0.000 8         0.00008        -0.086 8        51.250           0.000 3         0.00003        -0.183 3        20.312  
I02  38798103.445 7 152248700.81907      -437.757 7        45.000    38798095.995 6 322502352.93806      -927.563 6        41.562  
I03         0.000 8         0.00008        -0.086 8        49.688           0.000 7         0.00007        -0.183 7        44.375  
I05         0.000 8         0.00008        -0.086 8        48.125           0.000 6         0.00006        -0.183 6        40.469  
I06  38447031.738 7 150871097.78307       -53.832 7        44.219    38447025.975 6 319584132.25206      -113.541 6        40.938  
I07         0.000 7         0.00007        -0.086 7        44.375           0.000 6         0.00006        -0.183 6        37.656  
I09  36141423.418 8 141823633.66608       -69.689 8        50.156    36141416.627 7 300418809.71907      -147.647 7        45.000  
I10  38823502.343 7 152348436.61707       -58.421 7        42.969    38823494.037 6 322713507.29806      -122.971 6        38.125  
> 2025 01 24  0 49 30.0000000  0  8      -263.542571236558
I01         0.000 8         0.00008        -0.047 8        51.250           0.000 4         0.00004        -0.099 4        25.781  
I02  38794752.600 7 152235552.35007      -438.964 7        45.000    38794744.801 6 322474501.10906      -929.617 6        41.562  
I03         0.000 8         0.00008        -0.047 8        49.688           0.000 7         0.00007        -0.099 7        44.219  
I05         0.000 8         0.00008        -0.047 8        48.125           0.000 6         0.00006        -0.099 6        41.562  
I06  38446622.139 7 150869492.43407       -53.481 7        44.219    38446616.306 6 319580731.72506      -113.346 6        40.781  
I07         0.000 7         0.00007        -0.047 7        44.375           0.000 6         0.00006        -0.099 6        37.812  
I09  36140893.168 8 141821554.56208       -69.087 8        50.156    36140886.327 7 300414405.64307      -146.376 7        45.000  
I10  38823058.463 7 152346696.03207       -58.079 7        42.969    38823050.082 6 322709820.49306      -122.857 6        38.125  
> 2025 01 24  0 50  0.0000000  0  8      -261.970393828689
I01         0.000 8         0.00008        -0.051 8        51.094           0.000 3         0.00003        -0.109 3        22.812  
I02  38791394.841 7 152222374.86107      -439.802 7        44.688    38791387.076 6 322446587.81306      -931.688 6        41.406  
I03         0.000 8         0.00008        -0.051 8        49.688           0.000 7         0.00007        -0.109 7        44.375  
I05         0.000 8         0.00008        -0.051 8        48.281           0.000 6         0.00006        -0.109 6        41.875  
I06  38446213.760 7 150867888.50007       -53.572 7        44.375    38446207.966 6 319577334.20406      -113.247 6        40.938  
I07         0.000 7         0.00007        -0.051 7        44.219           0.000 6         0.00006        -0.109 6        37.812  
I09  36140367.674 8 141819490.68408       -68.546 8        50.000    36140360.903 7 300410033.83507      -145.402 7        45.000  
I10  38822615.772 7 152344956.64107       -58.034 7        42.969    38822607.546 6 322706136.17006      -122.864 6        38.125  
> 2025 01 24  0 50 30.0000000  0  8      -261.965771842409
I01         0.000 8         0.00008         0.006 8        51.094           0.000 4         0.00004         0.012 4        24.688  
I02  38788029.331 7 152209168.22407      -440.643 7        44.688    38788021.426 6 322418612.77606      -933.320 6        41.094  
I03         0.000 8         0.00008         0.006 8        49.688           0.000 7         0.00007         0.012 7        44.375  
I05         0.000 8         0.00008         0.006 8        48.281           0.000 6         0.00006         0.012 6        41.562  
I06  38445805.507 7 150866286.00607       -53.569 7        44.375    38445799.856 6 319573939.71306      -113.273 6        40.781  
I07         0.000 7         0.00007         0.006 7        44.062           0.000 6         0.00006         0.012 6        37.812  
I09  36139845.647 8 141817442.15908       -68.051 8        50.000    36139838.928 7 300405694.53907      -144.046 7        45.000  
I10  38822172.553 7 152343218.41207       -57.522 7        43.125    38822164.472 6 322702454.35006      -122.545 6        38.281  
> 2025 01 24  0 51  0.0000000  0  8      -261.878017392992
I01         0.000 8         0.00008        -0.005 8        50.938           0.000 3         0.00003        -0.010 3        23.281  
I02  38784656.591 7 152195932.57407      -441.726 7        44.531    38784648.888 6 322390576.27906      -935.720 6        41.094  
I03         0.000 8         0.00008        -0.005 8        49.688           0.000 7         0.00007        -0.010 7        44.219  
I05         0.000 8         0.00008        -0.005 8        48.281           0.000 6         0.00006        -0.010 6        41.250  
I06  38445397.317 7 150864684.89807       -52.905 7        44.375    38445391.560 6 319570548.18406      -113.036 6        41.094  
I07         0.000 7         0.00007        -0.005 7        44.062           0.000 6         0.00006        -0.010 6        37.812  
I09  36139327.419 8 141815409.06608       -67.462 8        50.000    36139321.127 7 300401387.93107      -142.962 7        45.156  
I10  38821730.242 7 152341481.37007       -58.036 7        43.125    38821721.975 6 322698775.06206      -122.600 6        37.969  
> 2025 01 24  0 51 30.0000000  0  8      -261.579267053062
I01         0.000 8         0.00008         0.055 8        50.938           0.000 4         0.00004         0.116 4        24.062  
I02  38781276.546 7 152182668.59907      -442.671 7        44.375    38781268.592 6 322362479.79706      -937.378 6        40.938  
I03         0.000 8         0.00008         0.055 8        49.688           0.000 7         0.00007         0.116 7        44.219  
I05         0.000 8         0.00008         0.055 8        48.438           0.000 6         0.00006         0.116 6        41.250  
I06  38444989.702 7 150863085.26907       -52.701 7        44.375    38444984.208 6 319567159.74806      -112.792 6        40.938  
I07         0.000 7         0.00007         0.055 7        43.906           0.000 6         0.00006         0.116 6        38.281  
I09  36138813.366 8 141813391.49008       -66.934 8        50.000    36138807.325 7 300397114.20107      -141.711 7        45.312  
I10  38821287.880 7 152339745.51507       -57.688 7        42.969    38821279.531 6 322695098.29606      -122.171 6        38.125  
> 2025 01 24  0 52  0.0000000  0  8      -261.750679825066
I01         0.000 8         0.00008         0.040 8        50.938           0.000 3         0.00003         0.084 3        22.656  
I02  38777888.884 7 152169375.24707      -443.359 7        44.062    38777880.842 6 322334321.07706      -939.354 6        40.781  
I03         0.000 8         0.00008         0.040 8        49.688           0.000 7         0.00007         0.084 7        44.219  
I05         0.000 8         0.00008         0.040 8        48.750           0.000 6         0.00006         0.084 6        40.781  
I06  38444582.469 7 150861487.07107       -53.149 7        44.688    38444577.082 6 319563774.37306      -112.692 6        41.094  
I07         0.000 7         0.00007         0.040 7        43.906           0.000 6         0.00006         0.084 6        38.281  
I09  36138303.277 8 141811389.55608       -66.506 8        50.000    36138297.072 7 300392873.60307      -140.669 7        45.469  
I10  38820845.760 7 152338010.87607       -57.487 7        43.125    38820837.638 6 322691424.09106      -122.211 6        38.125  
> 2025 01 24  0 52 30.0000000  0  8      -262.025151413002
I01         0.000 8         0.00008        -0.069 8        51.094           0.000 4         0.00004        -0.146 4        26.094  
I02  38774494.319 7 152156054.17607      -444.546 7        44.219    38774485.718 6 322306103.66606      -941.887 6        40.156  
I03         0.000 8         0.00008        -0.069 8        49.688           0.000 7         0.00007        -0.146 7        44.062  
I05         0.000 8         0.00008        -0.069 8        48.594           0.000 6         0.00006        -0.146 6        40.625  
I06  38444175.573 7 150859890.34907       -53.338 7        44.219    38444170.124 6 319560392.11206      -112.731 6        41.094  
I07         0.000 7         0.00007        -0.069 7        43.906           0.000 6         0.00006        -0.146 6        38.125  
I09  36137797.065 8 141809403.32608       -66.035 8        50.156    36137790.870 7 300388666.27807      -139.796 7        45.469  
I10  38820404.267 7 152336277.46107       -58.089 7        43.125    38820396.001 6 322687752.46106      -122.404 6        37.969  
> 2025 01 24  0 53  0.0000000  0  8      -262.056446468508
I01         0.000 8         0.00008         0.077 8        51.094           0.000 3         0.00003         0.163 3        22.344  
I02  38771092.636 7 152142704.61107      -445.137 7        44.219    38771084.074 6 322277825.87406      -943.372 6        39.844  
I03         0.000 8         0.00008         0.077 8        49.688           0.000 7         0.00007         0.163 7        44.062  
I05         0.000 8         0.00008         0.077 8        48.594           0.000 7         0.00007         0.163 7        42.031  
I06  38443768.985 7 150858295.02807       -52.737 7        44.375    38443763.417 6 319557012.84906      -112.240 6        40.938  
I07         0.000 7         0.00007         0.077 7        43.906           0.000 6         0.00006         0.163 6        38.750  
I09  36137294.947 8 141807432.94508       -65.345 8        50.000    36137288.745 7 300384492.50107      -138.431 7        45.469  
I10  38819962.848 7 152334545.24707       -57.345 7        43.281    38819954.767 6 322684083.46106      -122.253 6        38.281  
> 2025 01 24  0 53 30.0000000  0  8      -262.288836088142
I01         0.000 8         0.00008         0.022 8        51.094           0.000 3         0.00003         0.046 3        22.812  
I02  38767683.189 7 152129326.93707      -446.196 7        43.906    38767674.391 6 322249488.55306      -945.694 6        39.062  
I03         0.000 8         0.00008         0.022 8        49.688           0.000 7         0.00007         0.046 7        44.062  
I05         0.000 8         0.00008         0.022 8        48.281           0.000 7         0.00007         0.046 7        42.031  
I06  38443362.762 7 150856701.19307       -53.084 7        44.375    38443357.352 6 319553636.69406      -112.408 6        40.938  
I07         0.000 7         0.00007         0.022 7        43.594           0.000 6         0.00006         0.046 6        38.750  
I09  36136797.006 8 141805478.49908       -64.843 8        50.000    36136790.903 7 300380352.50307      -137.402 7        45.469  
I10  38819521.722 7 152332814.29007       -57.382 7        42.969    38819513.769 6 322680417.05706      -122.002 6        38.125  
> 2025 01 24  0 54  0.0000000  0  8      -262.643731112153
I01         0.000 8         0.00008        -0.021 8        51.406           0.000 3         0.00003        -0.045 3        23.750  
I02  38764266.750 7 152115921.31507      -447.277 7        43.750    38764257.863 6 322221092.01606      -947.324 6        38.906  
I03         0.000 8         0.00008        -0.021 8        49.688           0.000 7         0.00007        -0.045 7        44.062  
I05         0.000 7         0.00007        -0.021 7        47.969           0.000 7         0.00007        -0.045 7        42.344  
I06  38442957.068 7 150855108.82907       -53.064 7        44.375    38442951.591 6 319550263.68306      -112.205 6        41.094  
I07         0.000 7         0.00007        -0.021 7        43.594           0.000 6         0.00006        -0.045 6        38.906  
I09  36136302.951 8 141803540.07608       -64.466 8        50.000    36136296.956 7 300376246.45007      -136.361 7        45.469  
I10  38819081.219 7 152331084.57407       -57.623 7        42.969    38819073.077 6 322676753.32806      -122.404 6        38.281  
> 2025 01 24  0 54 30.0000000  0  8      -263.088573939593
I01         0.000 8         0.00008        -0.045 8        51.406           0.000 3         0.00003        -0.095 3        21.406  
I02  38760843.242 7 152102487.39307      -448.199 7        43.750    38760834.350 6 322192635.57306      -949.631 6        38.594  
I03         0.000 8         0.00008        -0.045 8        49.688           0.000 7         0.00007        -0.095 7        44.062  
I05         0.000 7         0.00007        -0.045 7        47.656           0.000 6         0.00006        -0.095 6        41.875  
I06  38442551.604 7 150853517.98207       -53.242 7        44.375    38442546.201 6 319546893.85006      -112.382 6        41.250  
I07         0.000 7         0.00007        -0.045 7        43.594           0.000 6         0.00006        -0.095 6        39.062  
I09  36135813.115 8 141801617.77908       -63.965 8        50.000    36135806.938 7 300372174.54907      -135.328 7        45.625  
I10  38818640.648 7 152329356.09707       -57.531 7        43.125    38818632.539 6 322673092.22606      -121.937 6        38.281  
> 2025 01 24  0 55  0.0000000  0  8      -262.704182668831
I01         0.000 8         0.00008        -0.083 8        51.562           0.000 4         0.00004        -0.176 4        24.375  
I02  38757413.153 7 152089025.84307      -449.350 7        43.750    38757403.894 6 322164120.58106      -951.745 6        38.281  
I03         0.000 8         0.00008        -0.083 8        49.688           0.000 7         0.00007        -0.176 7        43.906  
I05         0.000 7         0.00007        -0.083 7        47.500           0.000 6         0.00006        -0.176 6        41.875  
I06  38442146.793 7 150851928.57107       -53.113 7        44.219    38442141.288 6 319543527.12306      -112.153 6        41.250  
I07         0.000 7         0.00007        -0.083 7        43.594           0.000 6         0.00006        -0.176 6        39.219  
I09  36135327.384 8 141799711.67008       -63.362 8        49.844    36135321.671 7 300368136.95407      -134.299 7        45.781  
I10  38818201.113 7 152327628.90307       -57.731 7        42.812    38818192.765 6 322669433.82106      -122.265 6        38.281  
> 2025 01 24  0 55 30.0000000  0  8      -262.792615099617
I01         0.000 8         0.00008        -0.031 8        51.562           0.000 3         0.00003        -0.065 3        23.906  
I02  38753975.905 7 152075537.22207      -450.258 7        43.750    38753966.225 6 322135548.26106      -953.588 6        37.656  
I03         0.000 8         0.00008        -0.031 8        49.688           0.000 7         0.00007        -0.065 7        44.062  
I05         0.000 7         0.00007        -0.031 7        47.344           0.000 6         0.00006        -0.065 6        41.875  
I06  38441741.973 7 150850340.66807       -52.849 7        44.375    38441736.934 6 319540163.55106      -112.081 6        41.406  
I07         0.000 7         0.00007        -0.031 7        43.438           0.000 6         0.00006        -0.065 6        39.375  
I09  36134845.886 8 141797821.88408       -62.665 8        49.844    36134840.182 7 300364133.91407      -132.899 7        46.094  
I10  38817761.057 7 152325902.97207       -57.562 7        42.812    38817752.882 6 322665778.11006      -121.766 6        38.281  
> 2025 01 24  0 56  0.0000000  0  8      -262.964309909784
I01         0.000 8         0.00008        -0.039 8        51.562           0.000 3         0.00003        -0.083 3        23.906  
I02  38750531.583 7 152062020.93007      -451.035 7        43.906    38750521.643 6 322106917.31506      -955.332 6        37.188  
I03         0.000 8         0.00008        -0.039 8        49.688           0.000 7         0.00007        -0.083 7        44.062  
I05         0.000 7         0.00007        -0.039 7        47.031           0.000 7         0.00007        -0.083 7        42.188  
I06  38441337.559 7 150848754.27607       -53.012 7        44.219    38441332.287 6 319536803.19306      -111.970 6        41.250  
I07         0.000 7         0.00007        -0.039 7        43.438           0.000 6         0.00006        -0.083 6        39.688  
I09  36134368.417 8 141795948.50608       -62.277 8        49.844    36134362.960 7 300360165.65007      -131.791 7        46.250  
I10  38817321.348 7 152324178.33507       -57.546 7        42.969    38817313.845 6 322662125.12206      -121.537 6        38.594  
> 2025 01 24  0 56 30.0000000  0  8      -262.463691538091
I01         0.000 8         0.00008        -0.022 8        51.719           0.000 4         0.00004        -0.046 4        25.156  
I02  38747080.447 7 152048477.32607      -451.817 7        44.062    38747070.836 6 322078228.51906      -957.493 6        37.500  
I03         0.000 8         0.00008        -0.022 8        49.531           0.000 7         0.00007        -0.046 7        44.062  
I05         0.000 7         0.00007        -0.022 7        46.875           0.000 7         0.00007        -0.046 7        42.656  
I06  38440934.167 7 150847169.38007       -52.756 7        44.375    38440928.489 6 319533446.00006      -111.765 6        41.406  
I07         0.000 7         0.00007        -0.022 7        43.438           0.000 6         0.00006        -0.046 6        39.375  
I09  36133895.168 8 141794091.66308       -61.665 8        49.844    36133889.767 7 300356232.40407      -130.693 7        46.250  
I10  38816882.687 7 152322454.98307       -57.277 7        42.812    38816874.547 6 322658474.88406      -121.935 6        38.594  
> 2025 01 24  0 57  0.0000000  0  8      -262.980039042148
I01         0.000 8         0.00008        -0.054 8        51.875           0.000 4         0.00004        -0.115 4        26.562  
I02  38743622.212 7 152034906.61307      -452.940 7        43.906    38743612.263 6 322049482.31306      -959.045 6        37.344  
I03         0.000 8         0.00008        -0.054 8        49.531           0.000 7         0.00007        -0.115 7        43.906  
I05         0.000 7         0.00007        -0.054 7        46.875           0.000 7         0.00007        -0.115 7        42.188  
I06  38440530.364 7 150845586.00507       -52.786 7        44.375    38440525.175 6 319530092.03606      -111.690 6        41.250  
I07         0.000 7         0.00007        -0.054 7        43.438           0.000 6         0.00006        -0.115 6        39.688  
I09  36133426.171 8 141792251.40408       -61.079 8        49.844    36133420.866 7 300352334.28207      -129.543 7        46.250  
I10  38816443.885 7 152320732.93007       -57.692 7        42.969    38816435.448 6 322654827.38706      -121.691 6        38.438  
> 2025 01 24  0 57 30.0000000  0  8      -262.770182155489
I01         0.000 8         0.00008        -0.066 8        52.031           0.000 3         0.00003        -0.139 3        22.656  
I02  38740157.285 7 152021308.74807      -453.864 7        43.906    38740147.077 6 322020678.58806      -961.285 6        37.656  
I03         0.000 8         0.00008        -0.066 8        49.531           0.000 7         0.00007        -0.139 7        44.062  
I05         0.000 7         0.00007        -0.066 7        46.719           0.000 6         0.00006        -0.139 6        41.875  
I06  38440127.098 7 150844004.16307       -52.883 7        44.531    38440122.166 6 319526741.30506      -111.984 6        41.406  
I07         0.000 7         0.00007        -0.066 7        43.438           0.000 6         0.00006        -0.139 6        40.000  
I09  36132961.497 8 141790427.86908       -60.465 8        50.000    36132956.393 7 300348471.60707      -128.331 7        46.562  
I10  38816005.317 7 152319012.19307       -57.222 7        43.125    38815997.469 6 322651182.69106      -121.921 6        38.438  
> 2025 01 24  0 58  0.0000000  0  8      -262.498783695606
I01         0.000 8         0.00008        -0.014 8        52.031           0.000 4         0.00004        -0.030 4        24.688  
I02  38736685.314 7 152007684.44607      -454.497 7        44.219    38736675.806 6 321991818.87506      -962.678 6        37.188  
I03         0.000 8         0.00008        -0.014 8        49.531           0.000 7         0.00007        -0.030 7        43.906  
I05         0.000 7         0.00007        -0.014 7        46.562           0.000 6         0.00006        -0.030 6        41.094  
I06  38439724.806 7 150842423.86507       -52.702 7        44.531    38439719.325 6 319523393.84906      -111.461 6        41.406  
I07         0.000 7         0.00007        -0.014 7        43.438           0.000 6         0.00006        -0.030 6        40.156  
I09  36132501.136 8 141788621.16108       -59.915 8        50.000    36132495.898 7 300344644.56407      -127.017 7        46.406  
I10  38815567.454 7 152317292.75907       -57.338 7        43.125    38815559.118 6 322647540.74806      -121.565 6        38.594  
> 2025 01 24  0 58 30.0000000  0  8      -262.936766665781
I01         0.000 8         0.00008        -0.088 8        51.719           0.000 3         0.00003        -0.187 3        22.500  
I02  38733206.835 7 151994033.42107      -455.714 7        44.531    38733196.515 6 321962902.53906      -965.401 6        37.031  
I03         0.000 8         0.00008        -0.088 8        49.688           0.000 7         0.00007        -0.187 7        44.062  
I05         0.000 7         0.00007        -0.088 7        46.562           0.000 6         0.00006        -0.187 6        40.625  
I06  38439322.447 7 150840845.08307       -52.707 7        44.531    38439317.023 6 319520049.61706      -111.883 6        41.406  
I07         0.000 7         0.00007        -0.088 7        43.438           0.000 6         0.00006        -0.187 6        40.156  
I09  36132044.950 8 141786831.39308       -59.455 8        50.000    36132039.903 7 300340853.41207      -125.920 7        46.406  
I10  38815129.523 7 152315574.66207       -57.374 7        43.281    38815121.476 6 322643901.65906      -121.286 6        38.594  
> 2025 01 24  0 59  0.0000000  0  8      -263.109696177314
I01         0.000 8         0.00008        -0.010 8        51.562           0.000 3         0.00003        -0.021 3        23.906  
I02  38729722.098 7 151980355.91107      -456.429 7        44.531    38729710.888 6 321933930.10906      -966.671 6        36.875  
I03         0.000 8         0.00008        -0.010 8        49.531           0.000 7         0.00007        -0.021 7        44.062  
I05         0.000 7         0.00007        -0.010 7        46.562           0.000 6         0.00006        -0.021 6        40.469  
I06  38438920.513 7 150839267.84807       -52.207 7        44.688    38438915.055 6 319516708.62806      -111.517 6        41.406  
I07         0.000 7         0.00007        -0.010 7        43.438           0.000 6         0.00006        -0.021 6        40.312  
I09  36131593.267 8 141785058.59708       -58.898 8        50.000    36131588.202 7 300337098.20007      -124.700 7        46.406  
I10  38814692.015 7 152313857.90407       -57.121 7        43.438    38814683.767 6 322640265.39806      -121.122 6        38.750  
> 2025 01 24  0 59 30.0000000  0  8      -262.507746263741
I01         0.000 8         0.00008        -0.078 8        51.719           0.000 4         0.00004        -0.166 4        24.688  
I02  38726229.740 7 151966651.81007      -457.393 7        44.844    38726219.050 6 321904901.35206      -968.835 6        36.875  
I03         0.000 8         0.00008        -0.078 8        49.688           0.000 7         0.00007        -0.166 7        44.062  
I05         0.000 7         0.00007        -0.078 7        46.719           0.000 6         0.00006        -0.166 6        41.562  
I06  38438518.987 7 150837692.19107       -52.684 7        44.844    38438513.671 6 319513371.02906      -111.437 6        41.406  
I07         0.000 7         0.00007        -0.078 7        43.438           0.000 6         0.00006        -0.166 6        40.469  
I09  36131146.087 8 141783302.92108       -58.313 8        50.000    36131140.891 7 300333379.26507      -123.574 7        46.562  
I10  38814255.564 7 152312142.50407       -57.264 7        43.438    38814247.230 6 322636632.00906      -121.238 6        38.750  
> 2025 01 24  1  0  0.0000000  0  8      -263.387177637573
I01         0.000 8         0.00008        -0.056 8        51.562           0.000 4         0.00004        -0.118 4        25.312  
I02  38722730.814 7 151952921.73107      -458.230 7        44.844    38722719.975 6 321875817.53806      -970.292 6        36.406  
I03         0.000 8         0.00008        -0.056 8        49.688           0.000 7         0.00007        -0.118 7        44.062  
I05         0.000 7         0.00007        -0.056 7        46.562           0.000 7         0.00007        -0.118 7        42.188  
I06  38438117.742 7 150836118.09007       -52.621 7        44.688    38438112.425 6 319510036.71006      -111.169 6        41.562  
I07         0.000 7         0.00007        -0.056 7        43.438           0.000 6         0.00006        -0.118 6        40.469  
I09  36130703.028 8 141781564.44808       -57.769 8        50.000    36130697.871 7 300329696.77507      -122.238 7        46.562  
I10  38813818.592 7 152310428.44707       -57.195 7        43.438    38813809.947 6 322633001.51906      -121.121 6        38.750  
> 2025 01 24  1  0 30.0000000  0  8      -262.826464205339
I01         0.000 8         0.00008        -0.087 8        51.406           0.000 3         0.00003        -0.185 3        23.594  
I02  38719225.308 7 151939165.61507      -459.038 7        44.844    38719214.961 6 321846678.61706      -972.233 6        36.406  
I03         0.000 8         0.00008        -0.087 8        49.531           0.000 7         0.00007        -0.185 7        44.062  
I05         0.000 7         0.00007        -0.087 7        46.094           0.000 7         0.00007        -0.185 7        42.500  
I06  38437717.304 7 150834545.55407       -52.690 7        44.688    38437711.657 6 319506705.68706      -111.208 6        41.719  
I07         0.000 7         0.00007        -0.087 7        43.594           0.000 6         0.00006        -0.185 6        40.625  
I09  36130264.474 8 141779843.27808       -57.172 8        50.000    36130259.392 7 300326050.92107      -121.075 7        46.562  
I10  38813382.413 7 152308715.75107       -57.339 7        43.750    38813374.023 6 322629373.83706      -121.270 6        38.594  
> 2025 01 24  1  1  0.0000000  0  8      -262.677168819543
I01         0.000 8         0.00008        -0.036 8        51.406           0.000 3         0.00003        -0.077 3        21.094  
I02  38715713.517 7 151925383.55307      -459.887 7        45.156    38715703.025 6 321817484.72206      -973.968 6        36.250  
I03         0.000 8         0.00008        -0.036 8        49.688           0.000 7         0.00007        -0.077 7        44.219  
I05         0.000 7         0.00007        -0.036 7        46.250           0.000 7         0.00007        -0.077 7        42.656  
I06  38437316.883 7 150832974.54407       -52.209 7        44.844    38437311.281 6 319503377.94006      -110.909 6        41.406  
I07         0.000 7         0.00007        -0.036 7        43.438           0.000 6         0.00006        -0.077 6        40.781  
I09  36129830.312 8 141778139.51508       -56.480 8        50.000    36129825.094 7 300322441.96007      -119.763 7        46.562  
I10  38812946.266 7 152307004.42807       -57.266 7        43.594    38812938.207 6 322625749.13906      -121.022 6        38.906  
> 2025 01 24  1  1 30.0000000  0  8      -262.304772555275
I01         0.000 8         0.00008        -0.105 8        51.250           0.000 3         0.00003        -0.223 3        23.438  
I02  38712195.330 7 151911575.87107      -460.821 7        45.156    38712184.579 6 321788236.56706      -976.164 6        36.719  
I03         0.000 8         0.00008        -0.105 8        49.688           0.000 7         0.00007        -0.223 7        44.219  
I05         0.000 7         0.00007        -0.105 7        46.250           0.000 6         0.00006        -0.223 6        41.875  
I06  38436917.179 7 150831405.14407       -52.749 7        44.688    38436911.383 6 319500053.55706      -111.030 6        41.406  
I07         0.000 7         0.00007        -0.105 7        43.438           0.000 6         0.00006        -0.223 6        40.625  
I09  36129400.702 8 141776453.27008       -55.956 8        50.156    36129395.364 7 300318870.09507      -118.711 7        46.562  
I10  38812510.873 7 152305294.49607       -57.206 7        43.438    38812502.808 6 322622127.34906      -120.922 6        39.062  
> 2025 01 24  1  2  0.0000000  0  8      -262.704443719089
I01         0.000 8         0.00008        -0.033 8        51.250           0.000 4         0.00004        -0.070 4        24.062  
I02  38708670.188 7 151897742.93507      -461.570 7        45.312    38708659.616 6 321758934.90806      -977.808 6        36.562  
I03         0.000 8         0.00008        -0.033 8        49.531           0.000 7         0.00007        -0.070 7        44.062  
I05         0.000 7         0.00007        -0.033 7        46.406           0.000 6         0.00006        -0.070 6        41.719  
I06  38436517.492 7 150829837.34707       -52.116 7        44.844    38436511.811 6 319496732.58806      -110.767 6        41.406  
I07         0.000 7         0.00007        -0.033 7        43.281           0.000 6         0.00006        -0.070 6        40.781  
I09  36128975.388 8 141774784.60508       -55.281 8        50.000    36128970.214 7 300315335.47607      -117.213 7        46.719  
I10  38812075.644 7 152303585.94207       -57.064 7        43.750    38812066.963 6 322618508.51106      -120.766 6        39.062  
> 2025 01 24  1  2 30.0000000  0  8      -262.858527838758
I01         0.000 8         0.00008         0.004 8        51.406           0.000 4         0.00004         0.008 4        24.531  
I02  38705138.741 7 151883884.60607      -462.321 7        45.312    38705127.761 6 321729579.45806      -979.628 6        36.406  
I03         0.000 8         0.00008         0.004 8        49.531           0.000 7         0.00007         0.008 7        44.219  
I05         0.000 7         0.00007         0.004 7        46.562           0.000 6         0.00006         0.008 6        41.719  
I06  38436118.466 7 150828271.11807       -51.924 7        44.844    38436112.707 6 319493414.96006      -110.308 6        41.406  
I07         0.000 7         0.00007         0.004 7        43.438           0.000 6         0.00006         0.008 6        40.938  
I09  36128554.832 8 141773133.67608       -54.784 8        50.156    36128549.620 7 300311838.39507      -115.928 7        46.719  
I10  38811640.439 7 152301878.78307       -56.802 7        43.594    38811631.936 6 322614892.64306      -120.516 6        39.219  
> 2025 01 24  1  3  0.0000000  0  8      -262.912166291866
I01         0.000 8         0.00008        -0.014 8        51.250           0.000 3         0.00003        -0.029 3        22.812  
I02  38701600.826 7 151870000.60707      -463.138 7        45.312    38701589.807 6 321700169.64306      -981.048 6        36.406  
I03         0.000 8         0.00008        -0.014 8        49.531           0.000 7         0.00007        -0.029 7        44.375  
I05         0.000 7         0.00007        -0.014 7        46.719           0.000 7         0.00007        -0.029 7        42.344  
I06  38435719.946 7 150826706.49707       -52.058 7        45.000    38435713.692 6 319490100.67806      -110.561 6        41.250  
I07         0.000 7         0.00007        -0.014 7        43.438           0.000 6         0.00006        -0.029 6        40.781  
I09  36128138.620 8 141771500.53508       -54.180 8        50.000    36128133.316 7 300308379.02807      -114.679 7        46.875  
I10  38811205.993 7 152300173.04707       -56.907 7        43.750    38811197.470 6 322611279.73606      -120.335 6        39.062  
> 2025 01 24  1  3 30.0000000  0  8      -264.128268233495
I01         0.000 8         0.00008        -0.086 8        51.406           0.000 4         0.00004        -0.182 4        25.625  
I02  38698055.928 7 151856091.00807      -464.294 7        45.312    38698044.839 6 321670705.60706      -983.294 6        36.406  
I03         0.000 8         0.00008        -0.086 8        49.531           0.000 7         0.00007        -0.182 7        44.219  
I05         0.000 7         0.00007        -0.086 7        46.562           0.000 7         0.00007        -0.182 7        42.656  
I06  38435321.340 7 150825143.48007       -52.405 7        44.844    38435315.179 6 319486789.86106      -110.522 6        41.250  
I07         0.000 7         0.00007        -0.086 7        43.438           0.000 6         0.00006        -0.182 6        40.625  
I09  36127727.017 8 141769885.34208       -53.616 8        50.156    36127721.430 7 300304957.66007      -113.594 7        46.562  
I10  38810771.499 7 152298468.70907       -56.728 7        43.906    38810763.102 6 322607669.84806      -120.619 6        38.906  
> 2025 01 24  1  4  0.0000000  0  8      -264.067173554131
I01         0.000 8         0.00008         0.041 8        51.406           0.000 3         0.00003         0.087 3        22.188  
I02  38694505.367 7 151842157.03807      -464.859 7        45.312    38694494.151 6 321641189.94706      -984.483 6        36.562  
I03         0.000 8         0.00008         0.041 8        49.531           0.000 7         0.00007         0.087 7        44.219  
I05         0.000 7         0.00007         0.041 7        46.406           0.000 7         0.00007         0.087 7        42.969  
I06  38434923.719 7 150823582.10207       -51.902 7        45.000    38434917.511 6 319483482.47806      -109.957 6        41.406  
I07         0.000 7         0.00007         0.041 7        43.438           0.000 6         0.00006         0.087 6        40.625  
I09  36127319.975 8 141768288.12408       -52.821 8        50.000    36127314.524 7 300301574.38207      -112.013 7        46.406  
I10  38810338.153 7 152296765.80307       -56.231 7        43.906    38810329.024 6 322604062.99606      -120.407 6        39.375  
> 2025 01 24  1  4 30.0000000  0  8      -264.028032371416
I01         0.000 8         0.00008        -0.016 8        51.406           0.000 4         0.00004        -0.034 4        25.000  
I02  38690948.269 7 151828198.34107      -465.787 7        45.312    38690937.314 6 321611621.89106      -986.465 6        36.562  
I03         0.000 8         0.00008        -0.016 8        49.531           0.000 7         0.00007        -0.034 7        44.219  
I05         0.000 7         0.00007        -0.016 7        46.406           0.000 7         0.00007        -0.034 7        42.344  
I06  38434526.173 7 150822022.34507       -52.109 7        44.844    38434520.038 6 319480178.53206      -109.865 6        41.250  
I07         0.000 7         0.00007        -0.016 7        43.438           0.000 6         0.00006        -0.034 6        40.625  
I09  36126917.498 8 141766709.01908       -52.332 8        50.000    36126912.102 7 300298229.47307      -110.905 7        46.406  
I10  38809904.770 7 152295064.33507       -56.589 7        43.906    38809895.470 6 322600459.17606      -119.937 6        39.062  
> 2025 01 24  1  5  0.0000000  0  8      -264.795167915446
I01         0.000 8         0.00008         0.011 8        51.562           0.000 4         0.00004         0.023 4        25.938  
I02  38687384.668 7 151814214.80007      -466.451 7        45.312    38687374.254 6 321582001.23106      -988.111 6        37.188  
I03         0.000 8         0.00008         0.011 8        49.531           0.000 7         0.00007         0.023 7        44.219  
I05         0.000 7         0.00007         0.011 7        46.719           0.000 7         0.00007         0.023 7        42.031  
I06  38434129.087 7 150820464.19807       -51.592 7        45.000    38434122.567 6 319476878.01206      -109.927 6        41.094  
I07         0.000 7         0.00007         0.011 7        43.438           0.000 6         0.00006         0.023 6        40.781  
I09  36126519.448 8 141765148.13308       -51.645 8        50.000    36126514.390 7 300294923.15707      -109.612 7        46.562  
I10  38809471.522 7 152293364.32007       -56.582 7        43.750    38809462.219 6 322596858.43506      -120.226 6        39.062  
> 2025 01 24  1  5 30.0000000  0  8      -264.343938859639
I01         0.000 8         0.00008        -0.059 8        51.406           0.000 3         0.00003        -0.126 3        23.125  
I02  38683814.951 7 151800206.99507      -467.385 7        45.156    38683804.530 6 321552329.15506      -990.128 6        37.500  
I03         0.000 8         0.00008        -0.059 8        49.375           0.000 7         0.00007        -0.126 7        44.219  
I05         0.000 7         0.00007        -0.059 7        46.719           0.000 6         0.00006        -0.126 6        41.562  
I06  38433732.431 7 150818907.71507       -51.826 7        44.844    38433725.911 6 319473581.00506      -109.916 6        41.094  
I07         0.000 7         0.00007        -0.059 7        43.438           0.000 6         0.00006        -0.126 6        40.781  
I09  36126126.683 8 141763605.55608       -51.247 8        50.000    36126121.221 7 300291655.63007      -108.377 7        46.406  
I10  38809038.924 7 152291665.75407       -56.926 7        44.062    38809029.588 6 322593260.78006      -119.888 6        38.906  
> 2025 01 24  1  6  0.0000000  0  8      -263.592173749286
I01         0.000 8         0.00008        -0.064 8        51.406           0.000 3         0.00003        -0.135 3        23.438  
I02  38680239.502 7 151786175.15807      -468.304 7        45.156    38680229.424 6 321522606.18606      -992.031 6        38.125  
I03         0.000 8         0.00008        -0.064 8        49.375           0.000 7         0.00007        -0.135 7        44.375  
I05         0.000 7         0.00007        -0.064 7        46.406           0.000 7         0.00007        -0.135 7        42.344  
I06  38433336.344 7 150817352.88107       -51.760 7        45.000    38433329.894 6 319470287.49406      -109.864 6        41.250  
I07         0.000 7         0.00007        -0.064 7        43.594           0.000 6         0.00006        -0.135 6        40.625  
I09  36125738.260 8 141762081.39808       -50.632 8        50.156    36125732.896 7 300288427.10407      -107.157 7        46.406  
I10  38808606.451 7 152289968.65407       -56.583 7        43.906    38808597.223 6 322589666.20006      -120.005 6        38.906  
> 2025 01 24  1  6 30.0000000  0  8      -263.439859724460
I01         0.000 8         0.00008        -0.060 8        51.406           0.000 3         0.00003        -0.127 3        20.469  
I02  38676657.151 7 151772119.09507      -468.984 7        45.000    38676647.609 6 321492831.90006      -993.610 6        38.281  
I03         0.000 8         0.00008        -0.060 8        49.531           0.000 7         0.00007        -0.127 7        44.219  
I05         0.000 7         0.00007        -0.060 7        46.250           0.000 7         0.00007        -0.127 7        42.969  
I06  38432940.669 7 150815799.66607       -51.856 7        45.000    38432934.124 6 319466997.43906      -109.665 6        41.250  
I07         0.000 7         0.00007        -0.060 7        43.438           0.000 6         0.00006        -0.127 6        40.312  
I09  36125354.472 8 141760575.75508       -49.990 8        50.156    36125349.278 7 300285237.80207      -105.713 7        46.562  
I10  38808174.644 7 152288273.00707       -56.763 7        44.062    38808164.977 6 322586074.75106      -119.629 6        38.906  
> 2025 01 24  1  7  0.0000000  0  8      -264.514997480957
I01         0.000 8         0.00008        -0.070 8        51.406           0.000 4         0.00004        -0.147 4        24.844  
I02  38673068.674 7 151758038.69007      -469.760 7        44.844    38673059.336 6 321463006.07006      -995.368 6        38.750  
I03         0.000 8         0.00008        -0.070 8        49.531           0.000 7         0.00007        -0.147 7        44.219  
I05         0.000 7         0.00007        -0.070 7        46.406           0.000 7         0.00007        -0.147 7        42.656  
I06  38432544.905 7 150814248.10207       -51.995 7        45.000    38432538.254 6 319463710.84006      -109.603 6        41.250  
I07         0.000 7         0.00007        -0.070 7        43.594           0.000 6         0.00006        -0.147 6        40.469  
I09  36124975.353 8 141759088.70708       -49.283 8        50.000    36124970.049 7 300282087.90207      -104.512 7        46.562  
I10  38807742.685 7 152286578.84307       -56.745 7        44.062    38807732.700 6 322582486.42706      -119.356 6        38.906  
> 2025 01 24  1  7 30.0000000  0  8      -263.042665238935
I01         0.000 8         0.00008        -0.039 8        51.250           0.000 4         0.00004        -0.083 4        25.781  
I02  38669474.803 7 151743934.10207      -470.587 7        44.531    38669465.875 6 321433129.00506      -996.623 6        39.062  
I03         0.000 8         0.00008        -0.039 8        49.531           0.000 7         0.00007        -0.083 7        44.219  
I05         0.000 7         0.00007        -0.039 7        46.250           0.000 7         0.00007        -0.083 7        42.812  
I06  38432150.532 7 150812698.22307       -51.609 7        44.844    38432143.627 6 319460427.83606      -109.557 6        41.094  
I07         0.000 7         0.00007        -0.039 7        43.594           0.000 6         0.00006        -0.083 6        40.312  
I09  36124601.429 8 141757620.33608       -48.733 8        49.844    36124596.350 7 300278977.56507      -103.017 7        46.562  
I10  38807311.848 7 152284886.16807       -56.457 7        44.062    38807301.899 6 322578901.25506      -119.709 6        38.906  
> 2025 01 24  1  8  0.0000000  0  8      -263.060649977622
I01         0.000 8         0.00008         0.001 8        51.094           0.000 4         0.00004         0.001 4        24.531  
I02  38665875.022 7 151729806.24507      -471.314 7        44.531    38665865.509 6 321403202.65306      -998.423 6        39.219  
I03         0.000 8         0.00008         0.001 8        49.531           0.000 7         0.00007         0.001 7        44.219  
I05         0.000 7         0.00007         0.001 7        46.719           0.000 7         0.00007         0.001 7        42.500  
I06  38431755.769 7 150811150.00207       -51.348 7        45.000    38431749.283 6 319457148.34806      -109.233 6        41.094  
I07         0.000 7         0.00007         0.001 7        43.594           0.000 6         0.00006         0.001 6        40.312  
I09  36124232.007 8 141756170.82908       -47.936 8        49.844    36124226.970 7 300275907.19807      -101.485 7        46.562  
I10  38806880.993 7 152283195.00507       -56.442 7        44.062    38806871.118 6 322575319.27106      -119.380 6        38.750  
> 2025 01 24  1  8 30.0000000  0  8      -263.036590890323
I01         0.000 8         0.00008        -0.024 8        50.938           0.000 3         0.00003        -0.050 3        22.500  
I02  38662268.478 7 151715654.26907      -472.183 7        44.375    38662259.209 6 321373225.21306      -999.934 6        39.531  
I03         0.000 8         0.00008        -0.024 8        49.531           0.000 7         0.00007        -0.050 7        44.219  
I05         0.000 7         0.00007        -0.024 7        46.875           0.000 7         0.00007        -0.050 7        42.031  
I06  38431361.809 7 150809603.43607       -51.760 7        44.844    38431355.102 6 319453872.38006      -109.292 6        41.094  
I07         0.000 7         0.00007        -0.024 7        43.594           0.000 6         0.00006        -0.050 6        40.156  
I09  36123867.786 8 141754740.22508       -47.343 8        49.688    36123862.644 7 300272876.85507      -100.393 7        46.562  
I10  38806450.907 7 152281505.37707       -56.033 7        44.219    38806440.347 6 322571740.52906      -119.328 6        38.750  
> 2025 01 24  1  9  0.0000000  0  8      -267.087115063749
I01         0.000 8         0.00008        -0.099 8        50.938           0.000 4         0.00004        -0.209 4        24.219  
I02  38658655.252 7 151701479.49507      -473.181 7        44.219    38658646.063 6 321343199.47206     -1002.129 6        39.688  
I03         0.000 8         0.00008        -0.099 8        49.688           0.000 7         0.00007        -0.209 7        44.219  
I05         0.000 7         0.00007        -0.099 7        46.875           0.000 7         0.00007        -0.209 7        42.031  
I06  38430966.862 7 150808058.60907       -51.665 7        45.000    38430959.736 6 319450600.06706      -109.228 6        41.094  
I07         0.000 7         0.00007        -0.099 7        43.594           0.000 6         0.00006        -0.209 6        40.000  
I09  36123507.258 8 141753328.64908       -46.895 8        49.844    36123501.707 7 300269886.81507       -99.234 7        46.562  
I10  38806019.491 7 152279817.23507       -56.358 7        44.375    38806008.916 6 322568164.95506      -119.391 6        38.438  
> 2025 01 24  1  9 30.0000000  0  8      -262.827767794622
I01         0.000 8         0.00008        -0.049 8        50.938           0.000 3         0.00003        -0.103 3        22.031  
I02  38655038.280 7 151687281.39807      -473.659 7        44.062    38655029.159 6 321313124.34906     -1003.314 6        39.688  
I03         0.000 8         0.00008        -0.049 8        49.688           0.000 7         0.00007        -0.103 7        44.375  
I05         0.000 7         0.00007        -0.049 7        46.719           0.000 7         0.00007        -0.103 7        42.344  
I06  38430574.961 7 150806515.46707       -51.651 7        45.000    38430568.242 6 319447331.33906      -108.881 6        41.250  
I07         0.000 7         0.00007        -0.049 7        43.750           0.000 6         0.00006        -0.103 6        40.156  
I09  36123153.140 8 141751936.20808       -46.132 8        50.156    36123147.999 7 300266937.32907       -97.848 7        46.719  
I10  38805591.052 7 152278130.62107       -56.323 7        44.531    38805580.512 6 322564592.61106      -119.052 6        38.594  
> 2025 01 24  1 10  0.0000000  0  8      -266.557911601791
I01         0.000 8         0.00008        -0.018 8        50.938           0.000 4         0.00004        -0.039 4        24.688  
I02  38651412.938 7 151673059.75107      -474.313 7        43.750    38651404.280 6 321282999.34106     -1005.111 6        40.156  
I03         0.000 8         0.00008        -0.018 8        49.688           0.000 7         0.00007        -0.039 7        44.219  
I05         0.000 7         0.00007        -0.018 7        46.719           0.000 7         0.00007        -0.039 7        42.812  
I06  38430181.237 7 150804974.02207       -51.198 7        44.844    38430174.208 6 319444066.21106      -108.757 6        41.250  
I07         0.000 7         0.00007        -0.018 7        43.750           0.000 6         0.00006        -0.039 6        40.312  
I09  36122803.116 8 141750562.95308       -45.583 8        50.469    36122796.767 7 300264028.47307       -96.309 7        46.562  
I10  38805160.545 7 152276445.54307       -56.005 7        44.375    38805149.822 6 322561023.54906      -119.373 6        38.594  
> 2025 01 24  1 10 30.0000000  0  8      -263.047380415733
I01         0.000 8         0.00008        -0.081 8        50.938           0.000 4         0.00004        -0.172 4        25.000  
I02  38647784.268 7 151658815.41707      -475.423 7        43.594    38647775.649 6 321252826.26306     -1006.934 6        40.625  
I03         0.000 8         0.00008        -0.081 8        49.688           0.000 7         0.00007        -0.172 7        44.219  
I05         0.000 7         0.00007        -0.081 7        46.719           0.000 7         0.00007        -0.172 7        42.656  
I06  38429789.875 7 150803434.28607       -51.316 7        44.844    38429782.770 6 319440804.71506      -108.873 6        41.094  
I07         0.000 7         0.00007        -0.081 7        43.750           0.000 6         0.00006        -0.172 6        40.156  
I09  36122458.283 8 141749209.04708       -45.034 8        50.469    36122452.737 7 300261160.61207       -95.153 7        46.406  
I10  38804733.038 7 152274761.99707       -56.150 7        44.531    38804722.087 6 322557457.72106      -119.010 6        38.125  
> 2025 01 24  1 11  0.0000000  0  8      -263.106454617916
I01         0.000 8         0.00008         0.012 8        51.094           0.000 4         0.00004         0.026 4        24.688  
I02  38644148.608 7 151644548.37007      -475.699 7        43.594    38644140.324 6 321222605.09706     -1008.020 6        40.625  
I03         0.000 8         0.00008         0.012 8        49.688           0.000 7         0.00007         0.026 7        44.375  
I05         0.000 7         0.00007         0.012 7        46.875           0.000 7         0.00007         0.026 7        42.500  
I06  38429397.921 7 150801896.24007       -50.913 7        44.844    38429391.080 6 319437546.77606      -108.605 6        41.094  
I07         0.000 7         0.00007         0.012 7        43.750           0.000 6         0.00006         0.026 6        40.156  
I09  36122118.237 8 141747874.55008       -44.258 8        50.312    36122112.503 7 300258333.86707       -93.553 7        46.094  
I10  38804304.430 7 152273079.99407       -56.087 7        44.375    38804293.355 6 322553895.18306      -118.665 6        38.281  
> 2025 01 24  1 11 30.0000000  0  8      -263.228251730239
I01         0.000 8         0.00008        -0.060 8        51.094           0.000 4         0.00004        -0.127 4        25.312  
I02  38640507.185 7 151630258.68307      -476.725 7        43.594    38640499.012 6 321192335.95806     -1009.875 6        41.094  
I03         0.000 8         0.00008        -0.060 8        49.688           0.000 7         0.00007        -0.127 7        44.375  
I05         0.000 7         0.00007        -0.060 7        46.875           0.000 7         0.00007        -0.127 7        42.188  
I06  38429006.417 7 150800359.90607       -51.415 7        44.844    38428999.546 6 319434292.48206      -108.540 6        40.938  
I07         0.000 7         0.00007        -0.060 7        43.750           0.000 6         0.00006        -0.127 6        40.469  
I09  36121783.290 8 141746559.52708       -43.610 8        50.156    36121777.318 7 300255548.37807       -92.217 7        45.938  
I10  38803876.412 7 152271399.55707       -56.170 7        44.375    38803865.181 6 322550335.96806      -118.566 6        38.438  
> 2025 01 24  1 12  0.0000000  0  8      -263.658619284822
I01         0.000 8         0.00008        -0.033 8        51.250           0.000 4         0.00004        -0.071 4        25.156  
I02  38636859.897 7 151615945.88207      -477.378 7        43.438    38636851.813 6 321162017.87206     -1011.299 6        41.094  
I03         0.000 8         0.00008        -0.033 8        49.688           0.000 7         0.00007        -0.071 7        44.375  
I05         0.000 7         0.00007        -0.033 7        47.031           0.000 7         0.00007        -0.071 7        42.031  
I06  38428615.587 7 150798825.35807       -51.091 7        44.844    38428608.287 6 319431041.96806      -108.240 6        40.781  
I07         0.000 7         0.00007        -0.033 7        43.750           0.000 6         0.00006        -0.071 6        40.625  
I09  36121453.310 8 141745264.15008       -42.992 8        50.312    36121447.069 7 300252804.50007       -90.798 7        45.625  
I10  38803448.510 7 152269720.70607       -56.144 7        44.219    38803437.244 6 322546780.09306      -118.550 6        38.438  
> 2025 01 24  1 12 30.0000000  0  8      -263.794287015821
I01         0.000 8         0.00008        -0.003 8        51.250           0.000 3         0.00003        -0.007 3        22.812  
I02  38633207.071 7 151601610.91707      -478.203 7        43.438    38633198.933 6 321131652.85606     -1012.917 6        41.562  
I03         0.000 8         0.00008        -0.003 8        49.688           0.000 7         0.00007        -0.007 7        44.375  
I05         0.000 7         0.00007        -0.003 7        47.188           0.000 6         0.00006        -0.007 6        41.719  
I06  38428224.862 7 150797292.56007       -51.036 7        44.844    38428217.513 6 319427795.16106      -107.961 6        40.781  
I07         0.000 7         0.00007        -0.003 7        43.906           0.000 6         0.00006        -0.007 6        40.625  
I09  36121128.328 8 141743988.50508       -42.297 8        50.156    36121122.119 7 300250102.41907       -89.392 7        45.781  
I10  38803021.210 7 152268043.43507       -55.730 7        44.219    38803009.898 6 322543227.55006      -118.200 6        38.438  
> 2025 01 24  1 13  0.0000000  0  8      -264.058572269339
I01         0.000 8         0.00008         0.012 8        51.094           0.000 4         0.00004         0.024 4        25.000  
I02  38629548.234 7 151587253.53907      -478.861 7        43.438    38629540.795 7 321101240.31407     -1014.403 7        42.188  
I03         0.000 8         0.00008         0.012 8        49.688           0.000 7         0.00007         0.024 7        44.375  
I05         0.000 7         0.00007         0.012 7        47.031           0.000 6         0.00006         0.024 6        41.562  
I06  38427834.820 7 150795761.46407       -50.888 7        45.000    38427826.771 6 319424551.96806      -107.987 6        40.469  
I07         0.000 7         0.00007         0.012 7        43.906           0.000 6         0.00006         0.024 6        40.781  
I09  36120808.304 8 141742732.70908       -41.565 8        50.312    36120801.904 7 300247442.38307       -88.036 7        45.781  
I10  38802594.424 7 152266367.74507       -55.464 7        44.375    38802583.062 6 322539678.39006      -118.418 6        38.281  
> 2025 01 24  1 13 30.0000000  0  8      -263.944072256065
I01         0.000 8         0.00008        -0.072 8        51.094           0.000 4         0.00004        -0.153 4        24.219  
I02  38625884.145 7 151572874.79407      -479.706 7        43.281    38625876.630 7 321070782.55307     -1016.327 7        42.031  
I03         0.000 8         0.00008        -0.072 8        49.688           0.000 7         0.00007        -0.153 7        44.375  
I05         0.000 7         0.00007        -0.072 7        47.031           0.000 6         0.00006        -0.153 6        41.562  
I06  38427445.065 7 150794232.12607       -51.162 7        45.000    38427437.558 6 319421312.48806      -108.154 6        40.625  
I07         0.000 7         0.00007        -0.072 7        44.062           0.000 6         0.00006        -0.153 6        41.094  
I09  36120493.509 8 141741496.81208       -40.945 8        50.312    36120486.883 7 300244824.51407       -86.694 7        45.469  
I10  38802167.979 7 152264693.64507       -56.016 7        44.219    38802156.207 6 322536132.56206      -118.077 6        38.438  
> 2025 01 24  1 14  0.0000000  0  8      -263.678658300038
I01         0.000 8         0.00008        -0.081 8        50.938           0.000 3         0.00003        -0.171 3        22.812  
I02  38622214.325 7 151558474.21607      -480.364 7        43.438    38622207.162 6 321040278.52506     -1017.813 6        41.875  
I03         0.000 8         0.00008        -0.081 8        49.688           0.000 7         0.00007        -0.171 7        44.375  
I05         0.000 7         0.00007        -0.081 7        47.031           0.000 6         0.00006        -0.171 6        41.875  
I06  38427055.742 7 150792704.57707       -51.065 7        45.156    38427048.485 6 319418076.80406      -108.244 6        40.625  
I07         0.000 7         0.00007        -0.081 7        44.062           0.000 6         0.00006        -0.171 6        41.094  
I09  36120183.828 8 141740280.98708       -40.278 8        50.469    36120177.147 7 300242249.14707       -85.395 7        45.625  
I10  38801741.682 7 152263021.13707       -55.812 7        44.219    38801730.299 6 322532590.17206      -118.519 6        38.125  
> 2025 01 24  1 14 30.0000000  0  8      -263.565715144379
I01         0.000 8         0.00008        -0.018 8        51.094           0.000 4         0.00004        -0.038 4        25.781  
I02  38618538.882 7 151544051.77207      -481.106 7        43.281    38618532.105 7 321009728.19607     -1019.137 7        42.344  
I03         0.000 8         0.00008        -0.018 8        49.688           0.000 7         0.00007        -0.038 7        44.375  
I05         0.000 7         0.00007        -0.018 7        46.875           0.000 6         0.00006        -0.038 6        41.562  
I06  38426667.181 7 150791178.72407       -50.828 7        45.156    38426659.309 6 319414844.71206      -107.453 6        40.469  
I07         0.000 7         0.00007        -0.018 7        44.062           0.000 6         0.00006        -0.038 6        41.094  
I09  36119879.167 8 141739085.28108       -39.536 8        50.469    36119872.383 7 300239716.39607       -83.699 7        45.469  
I10  38801316.131 7 152261350.24007       -55.704 7        44.219    38801304.894 6 322529051.17806      -118.003 6        38.281  
> 2025 01 24  1 15  0.0000000  0  8      -263.719289108245
I01         0.000 8         0.00008        -0.030 8        50.938           0.000 4         0.00004        -0.064 4        25.156  
I02  38614858.083 7 151529607.56507      -481.728 7        43.125    38614851.479 7 320979131.78707     -1020.699 7        42.500  
I03         0.000 8         0.00008        -0.030 8        49.688           0.000 7         0.00007        -0.064 7        44.375  
I05         0.000 7         0.00007        -0.030 7        46.875           0.000 6         0.00006        -0.064 6        41.406  
I06  38426278.696 7 150789654.67507       -50.777 7        45.156    38426271.111 6 319411616.45606      -107.613 6        40.625  
I07         0.000 7         0.00007        -0.030 7        44.219           0.000 6         0.00006        -0.064 6        40.938  
I09  36119579.589 8 141737909.78908       -38.832 8        50.469    36119572.749 7 300237226.47107       -82.518 7        45.625  
I10  38800890.948 7 152259680.96107       -55.720 7        44.062    38800878.887 6 322525515.62906      -117.826 6        38.125  
> 2025 01 24  1 15 30.0000000  0  8      -263.347626463796
I01         0.000 8         0.00008         0.004 8        50.938           0.000 3         0.00003         0.008 3        22.969  
I02  38611171.851 7 151515142.22507      -482.411 7        43.125    38611165.556 7 320948490.61107     -1022.204 7        42.656  
I03         0.000 8         0.00008         0.004 8        49.688           0.000 7         0.00007         0.008 7        44.375  
I05         0.000 7         0.00007         0.004 7        46.562           0.000 6         0.00006         0.008 6        40.625  
I06  38425890.950 7 150788132.37607       -50.654 7        45.000    38425883.137 6 319408391.89106      -107.213 6        40.625  
I07         0.000 7         0.00007         0.004 7        44.219           0.000 6         0.00006         0.008 6        41.250  
I09  36119285.336 8 141736754.63508       -38.136 8        50.625    36119278.532 7 300234779.63807       -80.754 7        45.781  
I10  38800465.968 7 152258013.31107       -55.605 7        44.062    38800454.176 6 322521983.54406      -117.513 6        38.438  
> 2025 01 24  1 16  0.0000000  0  8      -263.538052913002
I01         0.000 8         0.00008        -0.055 8        50.938           0.000 3         0.00003        -0.116 3        21.719  
I02  38607480.208 7 151500654.99307      -483.442 7        43.125    38607474.090 7 320917803.05107     -1023.997 7        42.969  
I03         0.000 8         0.00008        -0.055 8        49.688           0.000 7         0.00007        -0.116 7        44.375  
I05         0.000 7         0.00007        -0.055 7        46.562           0.000 6         0.00006        -0.116 6        41.250  
I06  38425503.394 7 150786611.89407       -50.618 7        45.156    38425495.667 6 319405171.17806      -107.248 6        40.469  
I07         0.000 7         0.00007        -0.055 7        44.375           0.000 6         0.00006        -0.116 6        41.094  
I09  36118996.134 8 141735619.90908       -37.584 8        50.625    36118989.153 7 300232376.07407       -79.535 7        45.625  
I10  38800041.487 7 152256347.30307       -55.560 7        44.062    38800029.799 6 322518454.92706      -117.645 6        38.281  
> 2025 01 24  1 16 30.0000000  0  8      -262.984717036557
I01         0.000 8         0.00008        -0.004 8        50.781           0.000 3         0.00003        -0.009 3        22.969  
I02  38603783.090 7 151486147.11307      -483.793 7        42.969    38603777.372 7 320887071.77007     -1025.140 7        42.969  
I03         0.000 8         0.00008        -0.004 8        49.688           0.000 7         0.00007        -0.009 7        44.219  
I05         0.000 7         0.00007        -0.004 7        46.406           0.000 6         0.00006        -0.009 6        41.250  
I06  38425116.737 7 150785093.22107       -50.648 7        45.156    38425108.803 6 319401954.31106      -107.003 6        40.312  
I07         0.000 7         0.00007        -0.004 7        44.219           0.000 6         0.00006        -0.009 6        41.250  
I09  36118712.176 8 141734505.72308       -36.846 8        50.469    36118705.170 7 300230016.03107       -77.839 7        45.312  
I10  38799617.520 7 152254682.96107       -55.454 7        44.062    38799606.138 6 322514929.81006      -117.293 6        38.594  
> 2025 01 24  1 17  0.0000000  0  8      -263.048299180179
I01         0.000 8         0.00008        -0.008 8        50.938           0.000 4         0.00004        -0.017 4        25.781  
I02  38600081.180 7 151471618.78607      -484.746 7        43.125    38600075.197 7 320856297.17407     -1026.437 7        42.969  
I03         0.000 8         0.00008        -0.008 8        49.688           0.000 7         0.00007        -0.017 7        44.219  
I05         0.000 7         0.00007        -0.008 7        46.094           0.000 6         0.00006        -0.017 6        41.406  
I06  38424729.988 7 150783576.34907       -50.363 7        45.156    38424721.950 6 319398741.23206      -107.032 6        40.312  
I07         0.000 7         0.00007        -0.008 7        44.375           0.000 6         0.00006        -0.017 6        41.094  
I09  36118433.366 8 141733412.17908       -36.155 8        50.312    36118426.426 7 300227699.69807       -76.521 7        45.156  
I10  38799194.097 7 152253020.27507       -55.357 7        43.906    38799182.519 6 322511408.21606      -117.191 6        38.594  
> 2025 01 24  1 17 30.0000000  0  8      -262.866563465988
I01         0.000 8         0.00008        -0.030 8        50.938           0.000 4         0.00004        -0.063 4        24.844  
I02  38596373.771 7 151457069.34607      -485.324 7        42.969    38596367.778 7 320825477.85707     -1028.069 7        42.812  
I03         0.000 8         0.00008        -0.030 8        49.688           0.000 7         0.00007        -0.063 7        44.375  
I05         0.000 7         0.00007        -0.030 7        45.781           0.000 7         0.00007        -0.063 7        42.188  
I06  38424343.834 7 150782061.24107       -50.484 7        45.156    38424336.002 6 319395531.92706      -107.158 6        40.312  
I07         0.000 7         0.00007        -0.030 7        44.531           0.000 6         0.00006        -0.063 6        41.250  
I09  36118159.949 8 141732339.36308       -35.382 8        50.312    36118153.067 7 300225427.28107       -75.171 7        45.312  
I10  38798770.788 7 152251359.24207       -55.302 7        44.062    38798759.224 6 322507890.11806      -117.292 6        38.438  
> 2025 01 24  1 18  0.0000000  0  8      -262.698071156469
I01         0.000 8         0.00008        -0.123 8        50.938           0.000 4         0.00004        -0.261 4        24.688  
I02  38592660.943 7 151442499.06607      -486.294 7        43.125    38592655.044 7 320794614.39507     -1029.847 7        42.812  
I03         0.000 8         0.00008        -0.123 8        49.688           0.000 7         0.00007        -0.261 7        44.219  
I05         0.000 7         0.00007        -0.123 7        45.625           0.000 7         0.00007        -0.261 7        42.500  
I06  38423958.070 7 150780547.97107       -50.824 7        45.469    38423950.130 6 319392326.49606      -107.115 6        40.312  
I07         0.000 7         0.00007        -0.123 7        44.531           0.000 6         0.00006        -0.261 6        41.250  
I09  36117891.821 8 141731287.40208       -34.856 8        50.312    36117885.237 7 300223199.04207       -73.761 7        45.469  
I10  38798348.150 7 152249699.87307       -55.561 7        43.906    38798336.515 6 322504375.58806      -117.390 6        38.906  
> 2025 01 24  1 18 30.0000000  0  8      -263.215070456721
I01         0.000 8         0.00008        -0.034 8        51.094           0.000 3         0.00003        -0.072 3        22.031  
I02  38588942.673 7 151427908.47507      -486.731 7        42.969    38588936.602 7 320763707.93107     -1030.715 7        42.500  
I03         0.000 8         0.00008        -0.034 8        49.688           0.000 7         0.00007        -0.072 7        44.219  
I05         0.000 7         0.00007        -0.034 7        45.625           0.000 6         0.00006        -0.072 6        41.719  
I06  38423572.887 7 150779036.53707       -50.534 7        45.312    38423565.055 6 319389124.95806      -106.628 6        40.469  
I07         0.000 7         0.00007        -0.034 7        44.375           0.000 6         0.00006        -0.072 6        41.094  
I09  36117629.012 8 141730256.36408       -34.057 8        50.312    36117622.347 7 300221015.12507       -72.085 7        45.469  
I10  38797925.679 7 152248042.17907       -55.285 7        44.062    38797914.093 6 322500864.60806      -117.032 6        38.906  
> 2025 01 24  1 19  0.0000000  0  8      -262.545935817736
I01         0.000 8         0.00008         0.007 8        50.938           0.000 4         0.00004         0.015 4        24.844  
I02  38585219.474 7 151413297.57407      -487.343 7        43.125    38585213.573 7 320732758.45307     -1032.459 7        42.500  
I03         0.000 8         0.00008         0.007 8        49.531           0.000 7         0.00007         0.015 7        44.219  
I05         0.000 7         0.00007         0.007 7        45.625           0.000 6         0.00006         0.015 6        41.250  
I06  38423188.436 7 150777526.94007       -50.217 7        45.156    38423180.294 6 319385927.34206      -106.437 6        40.312  
I07         0.000 7         0.00007         0.007 7        44.531           0.000 6         0.00006         0.015 6        41.094  
I09  36117371.639 8 141729246.40008       -33.312 8        50.312    36117365.415 7 300218875.84907       -70.507 7        45.469  
I10  38797503.517 7 152246386.15607       -54.927 7        44.062    38797492.518 6 322497357.19406      -116.756 6        38.906  
> 2025 01 24  1 19 30.0000000  0  8      -262.133402687939
I01         0.000 8         0.00008        -0.057 8        51.094           0.000 3         0.00003        -0.121 3        22.812  
I02  38581491.008 7 151398666.51807      -488.376 7        42.812    38581485.146 6 320701766.27606     -1033.795 6        41.875  
I03         0.000 8         0.00008        -0.057 8        49.688           0.000 7         0.00007        -0.121 7        44.219  
I05         0.000 7         0.00007        -0.057 7        45.625           0.000 6         0.00006        -0.121 6        41.094  
I06  38422804.293 7 150776019.14107       -50.236 7        45.312    38422796.245 6 319382733.51606      -106.599 6        40.312  
I07         0.000 7         0.00007        -0.057 7        44.531           0.000 6         0.00006        -0.121 6        40.938  
I09  36117119.608 8 141728257.60808       -32.559 8        50.312    36117113.558 7 300216781.42407       -69.234 7        45.625  
I10  38797082.192 7 152244731.85007       -55.125 7        44.219    38797071.073 6 322493853.40106      -116.998 6        39.062  
> 2025 01 24  1 20  0.0000000  0  8      -261.771690975390
I01         0.000 8         0.00008        -0.047 8        51.094           0.000 3         0.00003        -0.099 3        23.438  
I02  38577757.842 7 151384015.42707      -488.898 7        42.812    38577751.849 6 320670731.66006     -1035.294 6        41.562  
I03         0.000 8         0.00008        -0.047 8        49.688           0.000 7         0.00007        -0.099 7        44.219  
I05         0.000 7         0.00007        -0.047 7        45.625           0.000 6         0.00006        -0.099 6        41.406  
I06  38422420.673 7 150774513.20607       -50.166 7        45.156    38422412.554 6 319379543.64406      -106.369 6        40.312  
I07         0.000 7         0.00007        -0.047 7        44.531           0.000 6         0.00006        -0.099 6        41.094  
I09  36116873.016 8 141727290.05608       -31.889 8        50.312    36116867.152 7 300214731.99207       -67.662 7        45.469  
I10  38796661.524 7 152243079.26407       -55.189 7        44.062    38796649.692 6 322490353.20806      -116.587 6        39.062  
> 2025 01 24  1 20 30.0000000  0  8      -262.167034943506
I01         0.000 8         0.00008        -0.014 8        51.094           0.000 4         0.00004        -0.029 4        25.312  
I02  38574019.169 7 151369344.49007      -489.293 7        42.969    38574012.983 6 320639655.00906     -1036.783 6        41.094  
I03         0.000 8         0.00008        -0.014 8        49.531           0.000 7         0.00007        -0.029 7        44.219  
I05         0.000 7         0.00007        -0.014 7        45.781           0.000 6         0.00006        -0.029 6        41.406  
I06  38422037.339 7 150773009.14007       -49.867 7        45.156    38422029.060 6 319376357.70606      -106.356 6        40.156  
I07         0.000 7         0.00007        -0.014 7        44.531           0.000 6         0.00006        -0.029 6        40.938  
I09  36116632.115 8 141726343.86508       -31.137 8        50.312    36116625.957 7 300212727.81907       -66.030 7        45.312  
I10  38796240.598 7 152241428.37407       -55.139 7        44.062    38796229.363 6 322486856.66106      -116.375 6        39.062  
> 2025 01 24  1 21  0.0000000  0  8      -262.643627455641
I01         0.000 8         0.00008         0.009 8        50.938           0.000 3         0.00003         0.019 3        23.281  
I02  38570275.637 7 151354654.01607      -489.996 7        42.969    38570269.262 6 320608537.00606     -1037.917 6        40.938  
I03         0.000 8         0.00008         0.009 8        49.688           0.000 7         0.00007         0.019 7        44.531  
I05         0.000 7         0.00007         0.009 7        45.625           0.000 7         0.00007         0.019 7        42.188  
I06  38421654.530 7 150771506.90307       -49.868 7        45.312    38421646.050 6 319373175.67506      -105.792 6        40.156  
I07         0.000 7         0.00007         0.009 7        44.688           0.000 6         0.00006         0.019 6        40.938  
I09  36116396.540 8 141725419.12208       -30.471 8        50.312    36116390.452 7 300210769.08007       -64.486 7        45.312  
I10  38795820.581 7 152239779.20407       -54.857 7        44.219    38795809.213 6 322483363.76706      -116.322 6        38.750  
> 2025 01 24  1 21 30.0000000  0  8      -262.770136837025
I01         0.000 8         0.00008        -0.010 8        50.938           0.000 3         0.00003        -0.022 3        23.125  
I02  38566527.913 7 151339943.75807      -490.706 7        43.438    38566520.551 6 320577377.06006     -1039.416 6        40.625  
I03         0.000 8         0.00008        -0.010 8        49.531           0.000 7         0.00007        -0.022 7        44.375  
I05         0.000 7         0.00007        -0.010 7        45.938           0.000 6         0.00006        -0.022 6        41.562  
I06  38421272.236 7 150770006.52707       -49.848 7        45.312    38421263.979 6 319369997.58306      -105.853 6        40.156  
I07         0.000 7         0.00007        -0.010 7        44.531           0.000 6         0.00006        -0.022 6        40.781  
I09  36116165.951 8 141724515.93308       -29.762 8        50.312    36116160.420 7 300208855.99207       -63.121 7        45.625  
I10  38795400.975 7 152238131.76507       -54.751 7        44.219    38795389.381 6 322479874.51406      -116.231 6        39.062  
> 2025 01 24  1 22  0.0000000  0  8      -262.352694013318
I01         0.000 8         0.00008        -0.017 8        51.094           0.000 4         0.00004        -0.036 4        24.062  
I02  38562774.368 7 151325214.58507      -491.431 7        43.594    38562767.417 6 320546177.04106     -1040.819 6        40.312  
I03         0.000 8         0.00008        -0.017 8        49.531           0.000 7         0.00007        -0.036 7        44.375  
I05         0.000 7         0.00007        -0.017 7        46.250           0.000 6         0.00006        -0.036 6        41.094  
I06  38420890.357 7 150768508.03107       -49.785 7        45.156    38420882.177 6 319366823.48106      -105.729 6        40.312  
I07         0.000 7         0.00007        -0.017 7        44.375           0.000 6         0.00006        -0.036 6        40.781  
I09  36115941.642 8 141723634.38708       -28.946 8        50.312    36115935.661 7 300206988.75007       -61.454 7        45.625  
I10  38794981.647 7 152236486.05907       -54.852 7        44.219    38794970.342 6 322476388.97606      -116.095 6        38.906  
> 2025 01 24  1 22 30.0000000  0  8      -262.599024708357
I01         0.000 8         0.00008        -0.068 8        51.250           0.000 4         0.00004        -0.144 4        26.250  
I02  38559016.201 7 151310466.21207      -492.228 7        43.750    38559008.733 6 320514936.37106     -1042.257 6        40.000  
I03         0.000 8         0.00008        -0.068 8        49.531           0.000 7         0.00007        -0.144 7        44.531  
I05         0.000 7         0.00007        -0.068 7        46.250           0.000 6         0.00006        -0.144 6        40.625  
I06  38420509.181 7 150767011.40607       -49.935 7        45.156    38420500.771 6 319363653.33306      -105.766 6        40.312  
I07         0.000 7         0.00007        -0.068 7        44.531           0.000 6         0.00006        -0.144 6        40.469  
I09  36115722.629 8 141722774.60608       -28.363 8        50.156    36115716.601 7 300205167.62007       -60.093 7        45.625  
I10  38794562.970 7 152234842.11407       -54.810 7        44.375    38794551.442 6 322472907.14706      -116.135 6        38.750  
> 2025 01 24  1 23  0.0000000  0  8      -263.287810400098
I01         0.000 8         0.00008        -0.027 8        51.250           0.000 4         0.00004        -0.057 4        24.375  
I02  38555253.002 7 151295698.33407      -492.680 7        44.062    38555245.090 6 320483654.38606     -1043.518 6        39.844  
I03         0.000 8         0.00008        -0.027 8        49.531           0.000 7         0.00007        -0.057 7        44.531  
I05         0.000 7         0.00007        -0.027 7        46.406           0.000 6         0.00006        -0.057 6        40.938  
I06  38420128.157 7 150765516.68707       -49.769 7        45.156    38420120.233 6 319360487.25006      -105.327 6        40.312  
I07         0.000 7         0.00007        -0.027 7        44.375           0.000 6         0.00006        -0.057 6        40.625  
I09  36115509.173 8 141721936.66108       -27.622 8        50.156    36115503.073 7 300203392.74907       -58.429 7        45.469  
I10  38794144.671 7 152233199.93007       -54.690 7        44.219    38794132.876 6 322469429.03606      -115.875 6        38.750  
> 2025 01 24  1 23 30.0000000  0  8      -263.746071432000
I01         0.000 8         0.00008        -0.034 8        51.250           0.000 4         0.00004        -0.071 4        24.375  
I02  38551484.793 7 151280911.14807      -493.104 7        43.906    38551476.901 6 320452331.52706     -1044.553 6        39.688  
I03         0.000 8         0.00008        -0.034 8        49.531           0.000 7         0.00007        -0.071 7        44.531  
I05         0.000 7         0.00007        -0.034 7        46.562           0.000 6         0.00006        -0.071 6        41.406  
I06  38419747.862 7 150764023.85507       -49.877 7        45.312    38419739.868 6 319357325.16106      -105.599 6        40.625  
I07         0.000 7         0.00007        -0.034 7        44.375           0.000 6         0.00006        -0.071 6        40.781  
I09  36115301.376 8 141721120.69508       -26.929 8        50.156    36115295.212 7 300201664.43307       -56.890 7        45.781  
I10  38793726.560 7 152231559.49307       -54.675 7        44.219    38793714.768 6 322465954.64706      -115.738 6        38.594  
> 2025 01 24  1 24  0.0000000  0  8      -263.915597634993
I01         0.000 8         0.00008         0.004 8        51.406           0.000 3         0.00003         0.009 3        22.188  
I02  38547712.295 7 151266106.62307      -493.565 7        44.219    38547703.592 6 320420971.90906     -1045.699 6        39.219  
I03         0.000 8         0.00008         0.004 8        49.531           0.000 7         0.00007         0.009 7        44.531  
I05         0.000 7         0.00007         0.004 7        46.875           0.000 6         0.00006         0.009 6        41.875  
I06  38419368.017 7 150762532.92107       -49.890 7        45.000    38419359.977 6 319354167.07506      -105.040 6        40.469  
I07         0.000 7         0.00007         0.004 7        44.375           0.000 6         0.00006         0.009 6        40.625  
I09  36115099.076 8 141720326.78508       -26.066 8        50.156    36115092.610 7 300199982.84207       -55.213 7        45.469  
I10  38793309.188 7 152229920.80507       -54.621 7        44.219    38793297.651 6 322462483.99906      -115.479 6        38.750  
> 2025 01 24  1 24 30.0000000  0  8      -264.441716850529
I01         0.000 8         0.00008        -0.025 8        51.406           0.000 3         0.00003        -0.053 3        22.969  
I02  38543935.195 7 151251282.32607      -494.407 7        44.375    38543925.841 6 320389570.43806     -1047.066 6        38.594  
I03         0.000 8         0.00008        -0.025 8        49.688           0.000 7         0.00007        -0.053 7        44.375  
I05         0.000 7         0.00007        -0.025 7        46.875           0.000 6         0.00006        -0.053 6        41.719  
I06  38418988.525 7 150761043.90107       -49.557 7        45.156    38418980.586 6 319351013.06206      -105.181 6        40.625  
I07         0.000 7         0.00007        -0.025 7        44.375           0.000 6         0.00006        -0.053 6        40.469  
I09  36114902.518 8 141719555.09808       -25.413 8        50.312    36114895.909 7 300198348.33507       -53.810 7        45.312  
I10  38792892.170 7 152228283.90707       -54.636 7        44.219    38792880.469 6 322459017.16306      -115.584 6        38.594  
> 2025 01 24  1 25  0.0000000  0  8      -265.720274227680
I01         0.000 8         0.00008        -0.035 8        51.250           0.000 3         0.00003        -0.075 3        23.125  
I02  38540153.235 7 151236440.81907      -495.062 7        44.531    38540143.239 6 320358132.50106     -1048.826 6        38.125  
I03         0.000 8         0.00008        -0.035 8        49.688           0.000 7         0.00007        -0.075 7        44.375  
I05         0.000 7         0.00007        -0.035 7        46.719           0.000 6         0.00006        -0.075 6        41.562  
I06  38418609.637 7 150759556.79707       -49.442 7        45.000    38418601.241 6 319347863.11606      -105.027 6        40.469  
I07         0.000 7         0.00007        -0.035 7        44.375           0.000 6         0.00006        -0.075 6        40.625  
I09  36114711.603 8 141718805.65508       -24.604 8        50.312    36114704.688 7 300196760.92807       -52.077 7        45.156  
I10  38792475.584 7 152226648.83007       -54.641 7        44.062    38792463.207 6 322455554.12306      -115.531 6        38.438  
> 2025 01 24  1 25 30.0000000  0  8      -266.246875363515
I01         0.000 8         0.00008        -0.019 8        51.406           0.000 3         0.00003        -0.041 3        22.500  
I02  38536366.284 7 151221580.16107      -495.665 7        44.531    38536356.052 6 320326654.02406     -1049.996 6        37.969  
I03         0.000 8         0.00008        -0.019 8        49.688           0.000 7         0.00007        -0.041 7        44.375  
I05         0.000 7         0.00007        -0.019 7        46.719           0.000 6         0.00006        -0.041 6        40.781  
I06  38418231.231 7 150758071.60907       -49.242 7        45.312    38418222.935 6 319344717.22306      -104.991 6        40.625  
I07         0.000 7         0.00007        -0.019 7        44.375           0.000 6         0.00006        -0.041 6        40.625  
I09  36114526.439 8 141718078.56008       -23.913 8        50.469    36114519.387 7 300195220.86607       -50.648 7        45.312  
I10  38792059.503 7 152225015.54907       -54.458 7        44.062    38792047.428 6 322452094.89306      -115.156 6        38.438  
> 2025 01 24  1 26  0.0000000  0  8      -268.309452140098
I01         0.000 8         0.00008         0.038 8        51.406           0.000 3         0.00003         0.080 3        23.438  
I02  38532574.533 7 151206700.98107      -496.044 7        44.688    38532563.679 6 320295136.26706     -1050.748 6        37.656  
I03         0.000 8         0.00008         0.038 8        49.688           0.000 7         0.00007         0.080 7        44.531  
I05         0.000 7         0.00007         0.038 7        46.562           0.000 6         0.00006         0.080 6        40.781  
I06  38417852.651 7 150756588.35307       -49.372 7        45.156    38417844.352 6 319341575.43406      -104.268 6        40.312  
I07         0.000 7         0.00007         0.038 7        44.375           0.000 6         0.00006         0.080 6        40.781  
I09  36114346.805 8 141717373.97308       -23.034 8        50.469    36114339.336 7 300193728.48407       -48.997 7        45.156  
I10  38791643.520 7 152223384.09507       -54.265 7        44.219    38791631.293 6 322448639.49206      -114.882 6        38.594  
> 2025 01 24  1 26 30.0000000  0  8      -266.194096417264
I01         0.000 8         0.00008        -0.027 8        51.406           0.000 4         0.00004        -0.056 4        25.469  
I02  38528779.101 7 151191804.43707      -496.870 7        44.844    38528768.294 6 320263581.77106     -1052.495 6        37.656  
I03         0.000 8         0.00008        -0.027 8        49.688           0.000 7         0.00007        -0.056 7        44.219  
I05         0.000 7         0.00007        -0.027 7        46.719           0.000 6         0.00006        -0.056 6        40.938  
I06  38417475.901 7 150755107.01307       -49.441 7        45.156    38417467.809 6 319338437.69606      -104.537 6        40.781  
I07         0.000 7         0.00007        -0.027 7        44.375           0.000 6         0.00006        -0.056 6        40.781  
I09  36114173.366 8 141716691.96208       -22.323 8        50.469    36114166.326 7 300192283.92907       -47.370 7        45.156  
I10  38791229.108 7 152221754.44407       -54.346 7        44.062    38791216.604 6 322445187.94206      -114.904 6        38.750  
> 2025 01 24  1 27  0.0000000  0  8      -266.303953648961
I01         0.000 8         0.00008         0.012 8        51.406           0.000 4         0.00004         0.025 4        26.250  
I02  38524978.432 7 151176890.34207      -497.380 7        45.000    38524967.792 6 320231990.06806     -1053.364 6        37.500  
I03         0.000 8         0.00008         0.012 8        49.688           0.000 7         0.00007         0.025 7        44.375  
I05         0.000 7         0.00007         0.012 7        46.562           0.000 6         0.00006         0.025 6        41.562  
I06  38417098.869 7 150753627.65207       -49.263 7        45.156    38417090.687 6 319335304.16006      -104.266 6        40.781  
I07         0.000 7         0.00007         0.012 7        44.375           0.000 6         0.00006         0.025 6        40.781  
I09  36114005.372 8 141716032.58608       -21.623 8        50.312    36113998.195 7 300190887.33907       -45.739 7        45.312  
I10  38790814.277 7 152220126.61307       -54.010 7        44.062    38790801.962 6 322441740.26006      -114.885 6        38.750  
> 2025 01 24  1 27 30.0000000  0  8      -266.051527533529
I01         0.000 8         0.00008        -0.083 8        51.406           0.000 4         0.00004        -0.177 4        25.938  
I02  38521173.535 7 151161958.18007      -498.306 7        45.000    38521162.617 6 320200360.14106     -1055.237 6        37.500  
I03         0.000 8         0.00008        -0.083 8        49.688           0.000 7         0.00007        -0.177 7        44.375  
I05         0.000 7         0.00007        -0.083 7        46.406           0.000 6         0.00006        -0.177 6        41.719  
I06  38416722.411 7 150752150.20607       -49.384 7        45.156    38416714.310 6 319332174.69606      -104.464 6        40.625  
I07         0.000 7         0.00007        -0.083 7        44.375           0.000 6         0.00006        -0.177 6        40.781  
I09  36113843.248 8 141715396.00508       -20.950 8        50.312    36113836.261 7 300189539.02707       -44.303 7        45.469  
I10  38790400.290 7 152218500.61607       -54.146 7        44.062    38790387.670 6 322438296.45206      -115.119 6        38.750  
> 2025 01 24  1 28  0.0000000  0  8      -266.406663906009
I01         0.000 8         0.00008        -0.008 8        51.250           0.000 4         0.00004        -0.016 4        24.375  
I02  38517364.265 7 151147008.60607      -498.576 7        45.156    38517352.847 6 320168693.34006     -1056.073 6        37.656  
I03         0.000 8         0.00008        -0.008 8        49.688           0.000 7         0.00007        -0.016 7        44.375  
I05         0.000 7         0.00007        -0.008 7        46.406           0.000 6         0.00006        -0.016 6        41.562  
I06  38416346.500 7 150750674.74607       -48.952 7        45.156    38416338.385 6 319329049.42706      -104.341 6        40.781  
I07         0.000 7         0.00007        -0.008 7        44.375           0.000 6         0.00006        -0.016 6        40.625  
I09  36113686.895 8 141714782.31108       -20.108 8        50.156    36113680.235 7 300188239.19907       -42.553 7        45.469  
I10  38789986.097 7 152216876.46207       -54.028 7        44.062    38789973.419 6 322434856.55406      -114.650 6        38.750  
> 2025 01 24  1 28 30.0000000  0  8      -266.079521697491
I01         0.000 8         0.00008        -0.105 8        51.250           0.000 4         0.00004        -0.223 4        24.375  
I02  38513550.123 7 151132041.70707      -499.442 7        45.000    38513538.845 6 320136989.82606     -1057.831 6        37.656  
I03         0.000 8         0.00008        -0.105 8        49.688           0.000 7         0.00007        -0.223 7        44.375  
I05         0.000 7         0.00007        -0.105 7        46.719           0.000 6         0.00006        -0.223 6        41.250  
I06  38415971.158 7 150749201.21007       -49.562 7        45.469    38415963.000 6 319325928.25006      -104.097 6        40.469  
I07         0.000 7         0.00007        -0.105 7        44.375           0.000 6         0.00006        -0.223 6        40.625  
I09  36113536.301 8 141714191.59608       -19.400 8        50.156    36113529.945 7 300186988.05707       -41.228 7        45.781  
I10  38789573.096 7 152215254.14907       -54.060 7        44.219    38789560.227 6 322431420.56306      -114.714 6        38.594  
> 2025 01 24  1 29  0.0000000  0  8      -265.690941603325
I01         0.000 8         0.00008        -0.027 8        51.406           0.000 4         0.00004        -0.058 4        24.688  
I02  38509731.742 7 151117057.43507      -499.675 7        44.844    38509720.980 6 320105249.48606     -1058.504 6        37.969  
I03         0.000 8         0.00008        -0.027 8        49.688           0.000 7         0.00007        -0.058 7        44.531  
I05         0.000 7         0.00007        -0.027 7        47.031           0.000 6         0.00006        -0.058 6        41.250  
I06  38415596.096 7 150747729.70107       -49.085 7        45.312    38415587.823 6 319322811.33606      -103.901 6        40.781  
I07         0.000 7         0.00007        -0.027 7        44.375           0.000 6         0.00006        -0.058 6        40.625  
I09  36113391.910 8 141713623.97108       -18.666 8        50.312    36113385.370 7 300185785.83107       -39.402 7        45.938  
I10  38789160.233 7 152213633.70807       -54.052 7        44.062    38789147.504 6 322427988.50806      -114.108 6        38.750  
> 2025 01 24  1 29 30.0000000  0  8      -265.995125564338
I01         0.000 8         0.00008        -0.109 8        51.406           0.000 3         0.00003        -0.231 3        23.125  
I02  38505909.126 7 151102056.10907      -500.558 7        44.688    38505898.151 6 320073473.04406     -1060.330 6        38.125  
I03         0.000 8         0.00008        -0.109 8        49.844           0.000 7         0.00007        -0.231 7        44.531  
I05         0.000 7         0.00007        -0.109 7        46.875           0.000 6         0.00006        -0.231 6        41.250  
I06  38415221.383 7 150746260.15707       -49.176 7        45.312    38415213.413 6 319319698.62606      -103.893 6        40.625  
I07         0.000 7         0.00007        -0.109 7        44.375           0.000 6         0.00006        -0.231 6        40.469  
I09  36113253.086 8 141713079.55408       -17.862 8        50.312    36113246.835 7 300184632.76107       -37.869 7        45.938  
I10  38788747.804 7 152212015.12907       -54.167 7        44.219    38788734.873 6 322424560.39306      -114.556 6        39.062  
> 2025 01 24  1 30  0.0000000  0  8      -264.497722221029
I01         0.000 8         0.00008        -0.028 8        51.406           0.000 4         0.00004        -0.059 4        25.625  
I02  38502082.168 7 151087037.95707      -500.781 7        44.688    38502071.614 6 320041660.96106     -1060.919 6        38.750  
I03         0.000 8         0.00008        -0.028 8        49.844           0.000 7         0.00007        -0.059 7        44.375  
I05         0.000 7         0.00007        -0.028 7        46.719           0.000 6         0.00006        -0.059 6        40.938  
I06  38414847.818 7 150744792.57907       -48.970 7        45.469    38414839.757 6 319316590.05906      -103.600 6        40.781  
I07         0.000 7         0.00007        -0.028 7        44.219           0.000 6         0.00006        -0.059 6        40.469  
I09  36113120.312 8 141712558.40808       -16.926 8        50.469    36113114.584 7 300183528.98407       -36.067 7        46.094  
I10  38788335.921 7 152210398.42507       -54.044 7        44.062    38788323.471 6 322421136.27306      -114.043 6        38.906  
> 2025 01 24  1 30 30.0000000  0  8      -264.001889181527
I01         0.000 8         0.00008        -0.037 8        51.250           0.000 3         0.00003        -0.079 3        22.812  
I02  38498250.402 7 151072003.12007      -501.387 7        44.375    38498240.931 6 320009813.54506     -1062.234 6        39.375  
I03         0.000 8         0.00008        -0.037 8        49.844           0.000 7         0.00007        -0.079 7        44.531  
I05         0.000 7         0.00007        -0.037 7        46.406           0.000 6         0.00006        -0.079 6        40.781  
I06  38414474.425 7 150743326.97207       -48.885 7        45.469    38414466.093 6 319313485.68506      -103.540 6        40.781  
I07         0.000 7         0.00007        -0.037 7        44.375           0.000 6         0.00006        -0.079 6        40.625  
I09  36112993.541 8 141712060.62608       -16.263 8        50.312    36112987.706 7 300182474.72107       -34.383 7        46.406  
I10  38787924.767 7 152208783.60207       -53.836 7        44.062    38787911.994 6 322417716.12006      -114.018 6        39.062  
> 2025 01 24  1 31  0.0000000  0  8      -263.329746670842
I01         0.000 8         0.00008        -0.039 8        51.094           0.000 3         0.00003        -0.082 3        23.750  
I02  38494415.336 7 151056951.54107      -501.917 7        44.375    38494406.043 6 319977930.68306     -1063.441 6        39.844  
I03         0.000 8         0.00008        -0.039 8        49.688           0.000 7         0.00007        -0.082 7        44.531  
I05         0.000 7         0.00007        -0.039 7        46.250           0.000 6         0.00006        -0.082 6        40.938  
I06  38414101.311 7 150741863.41807       -48.778 7        45.312    38414093.106 6 319310385.66006      -103.382 6        40.625  
I07         0.000 7         0.00007        -0.039 7        44.375           0.000 6         0.00006        -0.082 6        40.625  
I09  36112872.567 8 141711586.34508       -15.437 8        50.312    36112866.989 7 300181470.23607       -32.809 7        46.406  
I10  38787513.726 7 152207170.70507       -53.763 7        44.062    38787501.089 6 322414300.02406      -114.051 6        38.906  
> 2025 01 24  1 31 30.0000000  0  8      -263.134176833815
I01         0.000 8         0.00008        -0.040 8        51.250           0.000 3         0.00003        -0.085 3        22.969  
I02  38490575.660 7 151041883.45107      -502.606 7        44.375    38490566.433 6 319946012.84306     -1064.562 6        40.000  
I03         0.000 8         0.00008        -0.040 8        49.688           0.000 7         0.00007        -0.085 7        44.531  
I05         0.000 7         0.00007        -0.040 7        45.781           0.000 6         0.00006        -0.085 6        41.406  
I06  38413728.786 7 150740401.82207       -48.641 7        45.312    38413720.624 6 319307289.79506      -103.115 6        40.469  
I07         0.000 7         0.00007        -0.040 7        44.375           0.000 6         0.00006        -0.085 6        40.625  
I09  36112757.865 8 141711135.66808       -14.714 8        50.156    36112752.061 7 300180515.74607       -31.048 7        46.250  
I10  38787103.384 7 152205559.67807       -53.810 7        44.062    38787091.071 6 322410887.92106      -113.679 6        39.219  
> 2025 01 24  1 32  0.0000000  0  8      -265.138032061542
I01         0.000 8         0.00008        -0.072 8        51.250           0.000 3         0.00003        -0.153 3        22.656  
I02  38486731.752 7 151026799.86807      -503.273 7        44.531    38486722.100 6 319914062.17706     -1065.851 6        40.469  
I03         0.000 8         0.00008        -0.072 8        49.688           0.000 7         0.00007        -0.153 7        44.688  
I05         0.000 7         0.00007        -0.072 7        45.625           0.000 6         0.00006        -0.153 6        41.719  
I06  38413356.461 7 150738942.25807       -48.665 7        45.156    38413348.425 6 319304198.21706      -103.041 6        40.469  
I07         0.000 7         0.00007        -0.072 7        44.219           0.000 6         0.00006        -0.153 6        40.781  
I09  36112648.551 8 141710708.68208       -13.909 8        50.156    36112642.497 7 300179611.44307       -29.573 7        46.094  
I10  38786692.801 7 152203950.55507       -53.727 7        44.062    38786680.035 6 322407479.83706      -113.812 6        39.062  
> 2025 01 24  1 32 30.0000000  0  8      -263.192047070913
I01         0.000 8         0.00008        -0.031 8        51.250           0.000 3         0.00003        -0.066 3        22.500  
I02  38482884.361 7 151011700.08907      -503.676 7        44.531    38482875.304 6 319882077.22606     -1066.628 6        40.938  
I03         0.000 8         0.00008        -0.031 8        49.688           0.000 7         0.00007        -0.066 7        44.688  
I05         0.000 7         0.00007        -0.031 7        45.938           0.000 7         0.00007        -0.066 7        42.031  
I06  38412985.549 7 150737484.71407       -48.610 7        45.156    38412977.452 6 319301110.94806      -102.755 6        40.312  
I07         0.000 7         0.00007        -0.031 7        44.375           0.000 6         0.00006        -0.066 6        40.625  
I09  36112546.266 8 141710305.46108       -13.003 8        50.156    36112540.062 7 300178757.49307       -27.706 7        46.094  
I10  38786284.158 7 152202343.34707       -53.682 7        44.062    38786271.492 6 322404075.84506      -113.410 6        39.062  
> 2025 01 24  1 33  0.0000000  0  8      -263.334922289199
I01         0.000 8         0.00008         0.006 8        51.094           0.000 3         0.00003         0.013 3        23.594  
I02  38479032.488 7 150996584.02907      -504.068 7        44.531    38479023.468 6 319850057.79206     -1067.733 6        41.250  
I03         0.000 8         0.00008         0.006 8        49.688           0.000 7         0.00007         0.013 7        44.531  
I05         0.000 7         0.00007         0.006 7        46.406           0.000 6         0.00006         0.013 6        41.719  
I06  38412614.678 7 150736029.19307       -48.448 7        45.312    38412606.759 6 319298027.94806      -102.534 6        40.469  
I07         0.000 7         0.00007         0.006 7        44.219           0.000 6         0.00006         0.013 6        40.781  
I09  36112449.532 8 141709926.18708       -12.196 8        50.156    36112443.270 7 300177954.27107       -25.866 7        45.938  
I10  38785874.984 7 152200738.09107       -53.377 7        44.219    38785862.267 6 322400675.95606      -113.257 6        39.062  
> 2025 01 24  1 33 30.0000000  0  8      -262.984381755102
I01         0.000 8         0.00008         0.005 8        51.094           0.000 3         0.00003         0.011 3        23.281  
I02  38475177.145 7 150981452.72207      -504.610 7        44.844    38475167.496 6 319818006.07206     -1068.830 6        41.406  
I03         0.000 8         0.00008         0.005 8        49.688           0.000 7         0.00007         0.011 7        44.688  
I05         0.000 7         0.00007         0.005 7        46.406           0.000 6         0.00006         0.011 6        41.719  
I06  38412244.503 7 150734575.73807       -48.336 7        45.312    38412236.064 6 319294949.34106      -102.296 6        40.312  
I07         0.000 7         0.00007         0.005 7        44.219           0.000 6         0.00006         0.011 6        40.781  
I09  36112359.118 8 141709570.89408       -11.421 8        50.156    36112352.851 7 300177201.84107       -24.234 7        45.938  
I10  38785466.656 7 152199134.76307       -53.425 7        44.062    38785454.241 6 322397280.15506      -112.948 6        39.375  
> 2025 01 24  1 34  0.0000000  0  8      -262.848714123513
I01         0.000 8         0.00008        -0.060 8        50.938           0.000 4         0.00004        -0.127 4        24.375  
I02  38471317.340 7 150966305.87607      -505.175 7        44.844    38471308.024 6 319785921.42806     -1070.159 6        41.562  
I03         0.000 8         0.00008        -0.060 8        49.688           0.000 7         0.00007        -0.127 7        44.688  
I05         0.000 7         0.00007        -0.060 7        46.406           0.000 6         0.00006        -0.127 6        41.875  
I06  38411874.511 7 150733124.31407       -48.721 7        45.312    38411866.628 6 319291875.03006      -102.662 6        40.625  
I07         0.000 7         0.00007        -0.060 7        44.219           0.000 6         0.00006        -0.127 6        40.781  
I09  36112274.910 8 141709239.70908       -10.708 8        50.156    36112268.675 7 300176500.48507       -22.729 7        46.094  
I10  38785058.723 7 152197533.37107       -53.295 7        44.062    38785045.877 6 322393888.45906      -112.962 6        39.062  
> 2025 01 24  1 34 30.0000000  0  8      -262.601490780859
I01         0.000 8         0.00008        -0.031 8        51.094           0.000 3         0.00003        -0.066 3        22.656  
I02  38467453.465 7 150951142.87407      -505.806 7        45.156    38467444.286 6 319753802.57206     -1070.955 6        41.562  
I03         0.000 8         0.00008        -0.031 8        49.688           0.000 7         0.00007        -0.066 7        44.688  
I05         0.000 7         0.00007        -0.031 7        46.406           0.000 7         0.00007        -0.066 7        42.031  
I06  38411505.298 7 150731674.92707       -48.296 7        45.312    38411497.342 6 319288805.05206      -102.211 6        40.469  
I07         0.000 7         0.00007        -0.031 7        44.219           0.000 6         0.00006        -0.066 6        40.312  
I09  36112196.575 8 141708932.69008        -9.753 8        50.156    36112190.420 7 300175850.31907       -20.922 7        46.250  
I10  38784651.286 7 152195933.92507       -53.390 7        43.906    38784638.314 6 322390500.90506      -113.012 6        39.062  
> 2025 01 24  1 35  0.0000000  0  8      -262.898414797252
I01         0.000 8         0.00008        -0.004 8        51.250           0.000 3         0.00003        -0.008 3        21.562  
I02  38463585.387 7 150935964.77007      -506.210 7        45.000    38463576.562 6 319721651.73606     -1072.445 6        41.562  
I03         0.000 8         0.00008        -0.004 8        49.688           0.000 7         0.00007        -0.008 7        44.688  
I05         0.000 7         0.00007        -0.004 7        46.562           0.000 7         0.00007        -0.008 7        42.344  
I06  38411136.387 7 150730227.62007       -48.133 7        45.156    38411128.525 6 319285739.46806      -102.147 6        40.469  
I07         0.000 7         0.00007        -0.004 7        44.062           0.000 6         0.00006        -0.008 6        40.469  
I09  36112124.612 8 141708649.98608        -8.984 8        50.156    36112118.403 7 300175251.66207       -18.984 7        46.094  
I10  38784244.292 7 152194336.44807       -52.990 7        43.906    38784231.080 6 322387117.49906      -112.700 6        38.906  
> 2025 01 24  1 35 30.0000000  0  8      -262.372312959800
I01         0.000 8         0.00008        -0.002 8        51.250           0.000 3         0.00003        -0.004 3        21.562  
I02  38459714.286 7 150920771.98407      -506.758 7        44.844    38459705.221 6 319689469.79506     -1073.183 6        41.875  
I03         0.000 8         0.00008        -0.002 8        49.688           0.000 7         0.00007        -0.004 7        44.844  
I05         0.000 7         0.00007        -0.002 7        46.719           0.000 7         0.00007        -0.004 7        42.656  
I06  38410768.412 7 150728782.36407       -48.091 7        45.156    38410759.945 6 319282678.25906      -101.853 6        40.469  
I07         0.000 7         0.00007        -0.002 7        44.062           0.000 6         0.00006        -0.004 6        40.312  
I09  36112058.754 8 141708391.65608        -8.158 8        50.156    36112052.716 7 300174704.64807       -17.364 7        46.094  
I10  38783837.877 7 152192740.93307       -53.033 7        43.906    38783825.060 6 322383738.23206      -112.503 6        39.375  
> 2025 01 24  1 36  0.0000000  0  8      -262.151835982495
I01         0.000 8         0.00008        -0.004 8        51.094           0.000 3         0.00003        -0.009 3        22.656  
I02  38455838.563 7 150905564.18207      -507.254 7        44.688    38455829.985 7 319657256.06407     -1074.099 7        42.031  
I03         0.000 8         0.00008        -0.004 8        49.531           0.000 7         0.00007        -0.009 7        44.688  
I05         0.000 7         0.00007        -0.004 7        46.719           0.000 7         0.00007        -0.009 7        42.500  
I06  38410400.693 7 150727339.17607       -48.114 7        45.156    38410392.420 6 319279621.40106      -101.694 6        40.312  
I07         0.000 7         0.00007        -0.004 7        44.062           0.000 6         0.00006        -0.009 6        40.000  
I09  36111999.430 8 141708157.87208        -7.370 8        50.156    36111993.356 7 300174209.62607       -15.625 7        46.250  
I10  38783432.086 7 152191147.38007       -52.961 7        44.062    38783418.934 6 322380363.16506      -112.347 6        38.906  
> 2025 01 24  1 36 30.0000000  0  8      -261.739005977616
I01         0.000 8         0.00008        -0.025 8        51.094           0.000 3         0.00003        -0.053 3        22.656  
I02  38451959.904 7 150890341.27607      -507.739 7        44.844    38451950.799 7 319625010.34407     -1075.417 7        42.031  
I03         0.000 8         0.00008        -0.025 8        49.531           0.000 7         0.00007        -0.053 7        44.688  
I05         0.000 7         0.00007        -0.025 7        46.562           0.000 6         0.00006        -0.053 6        41.875  
I06  38410033.636 7 150725898.04607       -47.814 7        45.000    38410025.354 6 319276568.92606      -101.710 6        40.312  
I07         0.000 7         0.00007        -0.025 7        44.219           0.000 6         0.00006        -0.053 6        40.000  
I09  36111946.001 8 141707948.68908        -6.599 8        50.156    36111940.167 7 300173766.69207       -13.945 7        46.250  
I10  38783026.482 7 152189555.79507       -53.113 7        44.219    38783013.498 6 322376992.29106      -112.328 6        39.062  
> 2025 01 24  1 37  0.0000000  0  8      -262.129776188761
I01         0.000 8         0.00008        -0.056 8        51.094           0.000 4         0.00004        -0.119 4        25.000  
I02  38448076.664 7 150875103.72307      -508.130 7        44.844    38448067.780 6 319592733.61406     -1076.418 6        41.875  
I03         0.000 8         0.00008        -0.056 8        49.531           0.000 7         0.00007        -0.119 7        44.688  
I05         0.000 7         0.00007        -0.056 7        46.406           0.000 7         0.00007        -0.119 7        42.031  
I06  38409666.669 7 150724459.02307       -48.107 7        45.156    38409658.589 6 319273520.93806      -101.757 6        40.469  
I07         0.000 7         0.00007        -0.056 7        44.062           0.000 6         0.00006        -0.119 6        40.000  
I09  36111899.219 8 141707764.19108        -5.773 8        50.312    36111893.125 7 300173376.06807       -12.256 7        46.094  
I10  38782621.617 7 152187966.19907       -53.117 7        44.062    38782608.519 6 322373625.62806      -112.315 6        39.219  
> 2025 01 24  1 37 30.0000000  0  8      -262.278650427847
I01         0.000 8         0.00008        -0.011 8        51.094           0.000 4         0.00004        -0.022 4        25.625  
I02  38444189.984 7 150859851.59207      -508.403 7        45.000    38444180.855 6 319560425.98606     -1077.028 6        41.562  
I03         0.000 8         0.00008        -0.011 8        49.531           0.000 7         0.00007        -0.022 7        44.688  
I05         0.000 7         0.00007        -0.011 7        46.562           0.000 7         0.00007        -0.022 7        42.188  
I06  38409300.735 7 150723022.10707       -47.903 7        44.844    38409292.514 6 319270477.40106      -101.458 6        40.312  
I07         0.000 7         0.00007        -0.011 7        44.062           0.000 6         0.00006        -0.022 6        39.844  
I09  36111858.534 8 141707604.51808        -4.958 8        50.312    36111852.048 7 300173038.03107       -10.528 7        45.938  
I10  38782217.198 7 152186378.59907       -52.870 7        44.062    38782204.399 6 322370263.20406      -112.231 6        39.219  
> 2025 01 24  1 38  0.0000000  0  8      -262.263656502752
I01         0.000 8         0.00008        -0.162 8        51.094           0.000 4         0.00004        -0.344 4        25.781  
I02  38440300.020 7 150844584.90807      -509.464 7        45.000    38440290.721 6 319528087.54706     -1079.084 6        41.719  
I03         0.000 8         0.00008        -0.162 8        49.531           0.000 7         0.00007        -0.344 7        44.688  
I05         0.000 7         0.00007        -0.162 7        46.562           0.000 6         0.00006        -0.344 6        41.719  
I06  38408935.250 7 150721587.28307       -48.019 7        45.000    38408926.998 6 319267438.30906      -101.935 6        40.469  
I07         0.000 7         0.00007        -0.162 7        44.062           0.000 6         0.00006        -0.344 6        39.844  
I09  36111824.372 8 141707469.73408        -4.241 8        50.156    36111817.681 7 300172752.71307        -8.875 7        45.938  
I10  38781813.288 7 152184793.01007       -53.303 7        44.219    38781800.292 6 322366905.03606      -112.515 6        39.219  
> 2025 01 24  1 38 30.0000000  0  8      -262.625031433379
I01         0.000 8         0.00008         0.000 8        51.094           0.000 3         0.00003         0.000 3        23.750  
I02  38436406.166 7 150829304.72207      -509.478 7        44.844    38436396.914 6 319495720.51106     -1079.314 6        41.562  
I03         0.000 8         0.00008         0.000 8        49.531           0.000 7         0.00007         0.000 7        44.688  
I05         0.000 7         0.00007         0.000 7        46.562           0.000 6         0.00006         0.000 6        41.406  
I06  38408570.005 7 150720154.56707       -47.718 7        44.844    38408561.756 6 319264403.68806      -101.079 6        40.312  
I07         0.000 7         0.00007         0.000 7        44.062           0.000 6         0.00006         0.000 6        39.844  
I09  36111796.486 8 141707359.95008        -3.209 8        50.156    36111789.582 7 300172520.35407        -6.854 7        45.781  
I10  38781410.050 7 152183209.44607       -52.723 7        44.219    38781397.069 6 322363551.14406      -111.541 6        39.375  
> 2025 01 24  1 39  0.0000000  0  8      -262.728421594756
I01         0.000 8         0.00008        -0.003 8        51.094           0.000 3         0.00003        -0.007 3        23.750  
I02  38432509.001 7 150814010.19207      -509.849 7        44.844    38432499.380 6 319463323.08206     -1080.520 6        41.562  
I03         0.000 8         0.00008        -0.003 8        49.375           0.000 7         0.00007        -0.007 7        44.688  
I05         0.000 7         0.00007        -0.003 7        46.719           0.000 6         0.00006        -0.007 6        41.250  
I06  38408205.656 7 150718723.93507       -47.618 7        44.844    38408197.611 6 319261373.48806      -101.017 6        40.469  
I07         0.000 7         0.00007        -0.003 7        44.062           0.000 6         0.00006        -0.007 6        39.688  
I09  36111774.989 8 141707275.30408        -2.406 8        50.156    36111767.800 7 300172341.26407        -5.091 7        45.625  
I10  38781007.051 7 152181627.92007       -52.639 7        44.062    38780993.926 6 322360201.55506      -111.411 6        39.375  
> 2025 01 24  1 39 30.0000000  0  8      -262.675526441501
I01         0.000 8         0.00008        -0.030 8        50.781           0.000 3         0.00003        -0.063 3        22.656  
I02  38428608.033 7 150798701.45607      -510.363 7        45.000    38428598.539 6 319430895.54806     -1081.250 6        41.562  
I03         0.000 8         0.00008        -0.030 8        49.531           0.000 7         0.00007        -0.063 7        44.688  
I05         0.000 7         0.00007        -0.030 7        46.875           0.000 6         0.00006        -0.063 6        41.250  
I06  38407841.527 7 150717295.42907       -47.680 7        44.844    38407833.299 6 319258347.79706      -100.858 6        40.312  
I07         0.000 7         0.00007        -0.030 7        44.062           0.000 6         0.00006        -0.063 6        39.844  
I09  36111760.114 8 141707215.84408        -1.622 8        50.156    36111752.895 7 300172215.52107        -3.347 7        45.781  
I10  38780604.790 7 152180048.43107       -52.755 7        44.219    38780591.835 6 322356856.25306      -111.469 6        39.531  
> 2025 01 24  1 40  0.0000000  0  8      -263.081508981175
I01         0.000 8         0.00008        -0.027 8        50.938           0.000 4         0.00004        -0.057 4        26.250  
I02  38424703.447 7 150783379.32207      -510.902 7        45.156    38424693.627 6 319398439.65906     -1082.447 6        41.406  
I03         0.000 8         0.00008        -0.027 8        49.375           0.000 7         0.00007        -0.057 7        44.844  
I05         0.000 7         0.00007        -0.027 7        47.031           0.000 6         0.00006        -0.057 6        40.625  
I06  38407478.220 7 150715869.08907       -47.551 7        44.688    38407469.949 6 319255326.69806      -100.605 6        40.312  
I07         0.000 7         0.00007        -0.027 7        44.062           0.000 6         0.00006        -0.057 6        39.844  
I09  36111751.252 8 141707181.69508        -0.749 8        50.312    36111744.133 7 300172143.38807        -1.662 7        45.938  
I10  38780203.020 7 152178470.95607       -52.541 7        44.219    38780190.192 6 322353515.24206      -111.313 6        39.688  
> 2025 01 24  1 40 30.0000000  0  8      -263.645503298720
I01         0.000 8         0.00008        -0.045 8        50.938           0.000 3         0.00003        -0.095 3        23.438  
I02  38420795.882 7 150768043.48407      -511.652 7        45.156    38420785.529 6 319365954.74306     -1083.660 6        41.406  
I03         0.000 8         0.00008        -0.045 8        49.531           0.000 7         0.00007        -0.095 7        44.688  
I05         0.000 7         0.00007        -0.045 7        46.875           0.000 6         0.00006        -0.095 6        40.938  
I06  38407115.354 7 150714444.85807       -47.391 7        44.844    38407106.860 6 319252310.07406      -100.549 6        40.469  
I07         0.000 7         0.00007        -0.045 7        43.906           0.000 6         0.00006        -0.095 6        39.844  
I09  36111749.182 8 141707172.96808         0.105 8        50.469    36111741.648 7 300172125.11907         0.297 7        45.781  
I10  38779801.613 7 152176895.51707       -52.482 7        44.219    38779788.654 6 322350178.57206      -111.108 6        39.688  
> 2025 01 24  1 41  0.0000000  0  8      -263.716156415056
I01         0.000 8         0.00008        -0.039 8        50.938           0.000 4         0.00004        -0.083 4        27.031  
I02  38416884.067 7 150752694.06607      -511.803 7        45.312    38416874.094 6 319333441.05006     -1084.379 6        41.094  
I03         0.000 8         0.00008        -0.039 8        49.531           0.000 7         0.00007        -0.083 7        44.688  
I05         0.000 7         0.00007        -0.039 7        46.719           0.000 6         0.00006        -0.083 6        41.406  
I06  38406752.992 7 150713022.76307       -47.421 7        44.844    38406744.614 6 319249297.99106      -100.424 6        40.469  
I07         0.000 7         0.00007        -0.039 7        43.906           0.000 6         0.00006        -0.083 6        39.844  
I09  36111753.693 8 141707189.76108         0.875 8        50.625    36111746.158 7 300172160.89707         1.995 7        45.781  
I10  38779400.873 7 152175322.16607       -52.345 7        44.219    38779387.921 6 322346846.27106      -111.235 6        39.688  
> 2025 01 24  1 41 30.0000000  0  8      -264.008249861564
I01         0.000 8         0.00008        -0.007 8        50.938           0.000 4         0.00004        -0.014 4        25.312  
I02  38412969.503 7 150737331.63607      -512.279 7        45.469    38412959.123 6 319300899.80706     -1084.911 6        40.938  
I03         0.000 8         0.00008        -0.007 8        49.531           0.000 7         0.00007        -0.014 7        44.688  
I05         0.000 7         0.00007        -0.007 7        46.406           0.000 6         0.00006        -0.014 6        41.406  
I06  38406391.406 7 150711602.83607       -47.381 7        45.000    38406382.629 6 319246290.49206      -100.191 6        40.469  
I07         0.000 7         0.00007        -0.007 7        44.062           0.000 6         0.00006        -0.014 6        39.844  
I09  36111764.518 8 141707232.18708         1.852 8        50.625    36111757.049 7 300172250.97407         3.914 7        45.938  
I10  38779000.488 7 152173750.88207       -52.175 7        44.219    38778987.544 6 322343518.33206      -110.904 6        40.000  
> 2025 01 24  1 42  0.0000000  0  8      -263.841756277110
I01         0.000 8         0.00008        -0.057 8        50.781           0.000 4         0.00004        -0.122 4        25.625  
I02  38409051.775 7 150721956.34607      -512.856 7        45.312    38409040.774 6 319268331.34606     -1086.678 6        40.625  
I03         0.000 8         0.00008        -0.057 8        49.531           0.000 7         0.00007        -0.122 7        44.688  
I05         0.000 7         0.00007        -0.057 7        46.094           0.000 6         0.00006        -0.122 6        41.875  
I06  38406030.177 7 150710185.05307       -47.375 7        44.844    38406021.715 6 319243287.56706      -100.059 6        40.469  
I07         0.000 7         0.00007        -0.057 7        44.062           0.000 6         0.00006        -0.122 6        39.688  
I09  36111781.907 8 141707300.27208         2.683 8        50.469    36111774.575 7 300172395.41007         5.606 7        45.938  
I10  38778600.869 7 152172181.66207       -52.191 7        44.375    38778587.921 6 322340194.77106      -110.798 6        39.844  
> 2025 01 24  1 42 30.0000000  0  8      -264.114396033581
I01         0.000 8         0.00008        -0.028 8        50.781           0.000 4         0.00004        -0.058 4        24.688  
I02  38405130.481 7 150706568.15507      -513.115 7        45.312    38405119.330 6 319235735.54006     -1087.333 6        40.312  
I03         0.000 8         0.00008        -0.028 8        49.531           0.000 7         0.00007        -0.058 7        44.688  
I05         0.000 7         0.00007        -0.028 7        45.781           0.000 6         0.00006        -0.058 6        41.875  
I06  38405669.335 7 150708769.42907       -47.173 7        44.844    38405660.955 6 319240289.20606       -99.936 6        40.469  
I07         0.000 7         0.00007        -0.028 7        43.906           0.000 6         0.00006        -0.058 6        39.688  
I09  36111805.962 8 141707394.17208         3.501 8        50.312    36111798.569 7 300172594.53107         7.629 7        45.938  
I10  38778201.584 7 152170614.50807       -52.194 7        44.375    38778188.712 6 322336875.61706      -110.441 6        40.000  
> 2025 01 24  1 43  0.0000000  0  8      -264.357328667057
I01         0.000 8         0.00008        -0.062 8        50.781           0.000 4         0.00004        -0.130 4        25.156  
I02  38401205.521 7 150691167.18107      -513.586 7        45.000    38401194.479 6 319203112.65606     -1088.091 6        40.000  
I03         0.000 8         0.00008        -0.062 8        49.531           0.000 7         0.00007        -0.130 7        44.688  
I05         0.000 7         0.00007        -0.062 7        45.625           0.000 7         0.00007        -0.130 7        42.031  
I06  38405309.324 7 150707355.98807       -47.222 7        44.688    38405300.892 6 319237295.45806       -99.820 6        40.625  
I07         0.000 7         0.00007        -0.062 7        43.906           0.000 6         0.00006        -0.130 6        39.688  
I09  36111836.664 8 141707513.96608         4.335 8        50.312    36111829.288 7 300172848.51407         9.118 7        45.938  
I10  38777802.972 7 152169049.44907       -52.288 7        44.375    38777790.033 6 322333560.89106      -110.431 6        39.844  
> 2025 01 24  1 43 30.0000000  0  8      -264.995299098747
I01         0.000 8         0.00008        -0.073 8        50.625           0.000 3         0.00003        -0.154 3        23.906  
I02  38397277.560 7 150675753.47607      -514.067 7        44.844    38397266.331 6 319170462.81306     -1088.975 6        40.000  
I03         0.000 8         0.00008        -0.073 8        49.531           0.000 7         0.00007        -0.154 7        44.531  
I05         0.000 7         0.00007        -0.073 7        45.781           0.000 6         0.00006        -0.154 6        41.562  
I06  38404949.674 7 150705944.74007       -47.155 7        44.844    38404941.404 6 319234306.38606       -99.943 6        40.625  
I07         0.000 7         0.00007        -0.073 7        44.062           0.000 6         0.00006        -0.154 6        39.688  
I09  36111873.674 8 141707659.77808         5.219 8        50.469    36111866.015 7 300173157.59407        11.017 7        45.781  
I10  38777404.878 7 152167486.48707       -52.217 7        44.219    38777391.706 6 322330250.60406      -110.338 6        40.000  
> 2025 01 24  1 44  0.0000000  0  8      -264.604054329845
I01         0.000 8         0.00008        -0.057 8        50.312           0.000 3         0.00003        -0.122 3        23.438  
I02  38393346.587 7 150660327.17207      -514.548 7        44.688    38393335.072 6 319137786.30106     -1089.928 6        39.688  
I03         0.000 8         0.00008        -0.057 8        49.688           0.000 7         0.00007        -0.122 7        44.688  
I05         0.000 7         0.00007        -0.057 7        45.938           0.000 6         0.00006        -0.122 6        41.250  
I06  38404590.813 7 150704535.66207       -46.905 7        44.688    38404582.542 6 319231321.88506       -99.563 6        40.469  
I07         0.000 7         0.00007        -0.057 7        43.906           0.000 6         0.00006        -0.122 6        39.688  
I09  36111917.790 8 141707831.68908         6.148 8        50.469    36111910.513 7 300173521.97707        12.936 7        46.094  
I10  38777007.001 7 152165925.63507       -52.164 7        44.062    38776994.346 6 322326944.75306      -110.197 6        40.000  
> 2025 01 24  1 44 30.0000000  0  8      -264.292288466783
I01         0.000 8         0.00008        -0.051 8        50.312           0.000 4         0.00004        -0.109 4        24.062  
I02  38389412.465 7 150644889.09907      -514.881 7        44.688    38389401.137 6 319105084.85006     -1090.570 6        39.219  
I03         0.000 8         0.00008        -0.051 8        49.688           0.000 7         0.00007        -0.109 7        44.688  
I05         0.000 7         0.00007        -0.051 7        46.094           0.000 6         0.00006        -0.109 6        41.250  
I06  38404232.424 7 150703128.77607       -47.013 7        44.688    38404223.992 6 319228342.06806       -99.489 6        40.625  
I07         0.000 7         0.00007        -0.051 7        44.062           0.000 6         0.00006        -0.109 6        39.375  
I09  36111968.355 8 141708029.79308         7.016 8        50.469    36111960.949 7 300173941.84907        14.789 7        45.938  
I10  38776610.129 7 152164366.90007       -51.985 7        44.219    38776597.267 6 322323643.39206      -109.966 6        40.156  
> 2025 01 24  1 45  0.0000000  0  8      -264.483415898313
I01         0.000 8         0.00008        -0.023 8        50.469           0.000 3         0.00003        -0.049 3        23.750  
I02  38385475.398 7 150629438.20907      -515.162 7        44.688    38385464.002 6 319072356.25106     -1091.344 6        39.219  
I03         0.000 8         0.00008        -0.023 8        49.688           0.000 7         0.00007        -0.049 7        44.531  
I05         0.000 7         0.00007        -0.023 7        45.938           0.000 6         0.00006        -0.049 6        41.250  
I06  38403874.457 7 150701724.07707       -46.839 7        44.688    38403865.767 6 319225366.88806       -99.134 6        40.469  
I07         0.000 7         0.00007        -0.023 7        44.219           0.000 6         0.00006        -0.049 6        39.531  
I09  36112025.256 8 141708254.23008         7.846 8        50.469    36112018.227 7 300174417.49807        16.747 7        46.094  
I10  38776214.059 7 152162810.27507       -51.733 7        44.375    38776200.664 6 322320346.51706      -109.993 6        40.156  
> 2025 01 24  1 45 30.0000000  0  8      -264.317637580134
I01         0.000 8         0.00008        -0.026 8        50.312           0.000 3         0.00003        -0.055 3        22.500  
I02  38381535.055 7 150613975.68107      -515.497 7        44.531    38381523.770 6 319039603.01406     -1092.217 6        38.906  
I03         0.000 8         0.00008        -0.026 8        49.688           0.000 7         0.00007        -0.055 7        44.688  
I05         0.000 7         0.00007        -0.026 7        45.938           0.000 6         0.00006        -0.055 6        41.406  
I06  38403517.283 7 150700321.58707       -46.787 7        44.844    38403509.258 6 319222396.38506       -98.944 6        40.625  
I07         0.000 7         0.00007        -0.026 7        44.062           0.000 6         0.00006        -0.055 6        39.219  
I09  36112089.498 8 141708505.05008         8.812 8        50.469    36112082.037 7 300174949.03207        18.459 7        45.938  
I10  38775817.599 7 152161255.76607       -51.934 7        44.375    38775804.562 6 322317054.13006      -109.464 6        40.156  
> 2025 01 24  1 46  0.0000000  0  8      -264.553688076114
I01         0.000 8         0.00008        -0.026 8        50.312           0.000 3         0.00003        -0.056 3        22.812  
I02  38377591.838 7 150598501.26007      -516.026 7        44.375    38377580.712 6 319006824.58606     -1092.895 6        38.906  
I03         0.000 8         0.00008        -0.026 8        49.688           0.000 7         0.00007        -0.056 7        44.688  
I05         0.000 7         0.00007        -0.026 7        45.938           0.000 6         0.00006        -0.056 6        41.562  
I06  38403160.393 7 150698921.32307       -46.769 7        44.688    38403151.884 6 319219430.59906       -98.853 6        40.625  
I07         0.000 7         0.00007        -0.026 7        44.062           0.000 6         0.00006        -0.056 6        39.375  
I09  36112160.165 8 141708782.36408         9.679 8        50.312    36112152.610 7 300175536.69507        20.487 7        45.938  
I10  38775421.919 7 152159703.37307       -51.671 7        44.219    38775408.982 6 322313766.25806      -109.522 6        40.156  
> 2025 01 24  1 46 30.0000000  0  8      -263.636543197192
I01         0.000 8         0.00008        -0.062 8        50.469           0.000 4         0.00004        -0.131 4        24.688  
I02  38373646.112 7 150583015.21707      -516.614 7        44.219    38373635.167 6 318974021.54206     -1094.343 6        39.219  
I03         0.000 8         0.00008        -0.062 8        49.688           0.000 7         0.00007        -0.131 7        44.688  
I05         0.000 7         0.00007        -0.062 7        45.781           0.000 6         0.00006        -0.131 6        41.719  
I06  38402804.431 7 150697523.28407       -46.450 7        44.688    38402795.534 6 319216469.53706       -98.687 6        40.781  
I07         0.000 7         0.00007        -0.062 7        43.906           0.000 6         0.00006        -0.131 6        39.219  
I09  36112237.638 8 141709086.27008        10.476 8        50.312    36112230.246 7 300176180.68107        22.319 7        45.938  
I10  38775027.424 7 152158153.12307       -51.759 7        44.375    38775014.316 6 322310482.92206      -109.467 6        40.156  
> 2025 01 24  1 47  0.0000000  0  8      -263.724390914791
I01         0.000 8         0.00008        -0.027 8        50.625           0.000 3         0.00003        -0.058 3        22.031  
I02  38369696.622 7 150567517.78807      -516.685 7        44.219    38369685.917 6 318941194.38106     -1094.606 6        39.219  
I03         0.000 8         0.00008        -0.027 8        49.688           0.000 7         0.00007        -0.058 7        44.688  
I05         0.000 7         0.00007        -0.027 7        45.781           0.000 6         0.00006        -0.058 6        41.719  
I06  38402448.813 7 150696127.49507       -46.533 7        44.844    38402440.289 6 319213513.22706       -98.407 6        40.625  
I07         0.000 7         0.00007        -0.027 7        44.062           0.000 6         0.00006        -0.058 6        39.375  
I09  36112321.990 8 141709416.89108        11.381 8        50.469    36112314.479 7 300176881.26607        24.259 7        45.938  
I10  38774632.967 7 152156605.03707       -51.630 7        44.219    38774619.627 6 322307204.15006      -109.334 6        40.156  
> 2025 01 24  1 47 30.0000000  0  8      -263.213822887993
I01         0.000 8         0.00008        -0.087 8        50.625           0.000 3         0.00003        -0.183 3        23.906  
I02  38365744.909 7 150552008.78507      -517.227 7        44.375    38365734.372 6 318908342.70206     -1095.681 6        39.219  
I03         0.000 8         0.00008        -0.087 8        49.844           0.000 7         0.00007        -0.183 7        44.844  
I05         0.000 7         0.00007        -0.087 7        45.781           0.000 6         0.00006        -0.183 6        41.719  
I06  38402093.795 7 150694733.92107       -46.562 7        44.844    38402085.180 6 319210561.63306       -98.725 6        40.625  
I07         0.000 7         0.00007        -0.087 7        44.062           0.000 6         0.00006        -0.183 6        39.219  
I09  36112412.951 8 141709774.31208        12.221 8        50.469    36112405.565 7 300177638.62807        25.966 7        45.938  
I10  38774238.950 7 152155059.11207       -51.662 7        44.375    38774226.056 6 322303929.92306      -109.337 6        40.312  
> 2025 01 24  1 48  0.0000000  0  8      -263.112975229757
I01         0.000 8         0.00008        -0.023 8        50.781           0.000 4         0.00004        -0.049 4        25.469  
I02  38361790.136 7 150536489.00307      -517.498 7        44.531    38361779.532 6 318875468.19906     -1096.385 6        39.531  
I03         0.000 8         0.00008        -0.023 8        49.844           0.000 7         0.00007        -0.049 7        44.688  
I05         0.000 7         0.00007        -0.023 7        45.469           0.000 6         0.00006        -0.049 6        41.719  
I06  38401739.321 7 150693342.59707       -46.399 7        44.844    38401730.614 6 319207614.79006       -98.209 6        40.625  
I07         0.000 7         0.00007        -0.023 7        44.062           0.000 6         0.00006        -0.049 6        39.219  
I09  36112511.006 8 141710158.61508        13.311 8        50.312    36112503.484 7 300178452.92707        28.195 7        45.781  
I10  38773845.965 7 152153515.35207       -51.475 7        44.375    38773832.535 6 322300660.29606      -108.850 6        40.156  
> 2025 01 24  1 48 30.0000000  0  8      -263.478251462552
I01         0.000 8         0.00008        -0.059 8        50.781           0.000 3         0.00003        -0.124 3        23.906  
I02  38357832.484 7 150520958.18207      -517.919 7        44.688    38357821.895 6 318842570.32306     -1097.177 6        39.531  
I03         0.000 8         0.00008        -0.059 8        49.844           0.000 7         0.00007        -0.124 7        44.688  
I05         0.000 7         0.00007        -0.059 7        45.469           0.000 6         0.00006        -0.124 6        41.719  
I06  38401385.403 7 150691953.50407       -46.270 7        44.688    38401376.723 6 319204672.67606       -98.088 6        40.781  
I07         0.000 7         0.00007        -0.059 7        44.219           0.000 6         0.00006        -0.124 6        39.531  
I09  36112615.959 8 141710569.92808        14.080 8        50.156    36112608.441 7 300179324.44807        29.965 7        45.938  
I10  38773453.185 7 152151973.77407       -51.484 7        44.375    38773439.677 6 322297395.26806      -109.237 6        40.000  
> 2025 01 24  1 49  0.0000000  0  8      -263.810814865921
I01         0.000 8         0.00008        -0.072 8        50.625           0.000 4         0.00004        -0.154 4        26.094  
I02  38353872.124 7 150505415.97407      -518.438 7        44.688    38353861.063 6 318809648.31206     -1098.002 6        39.375  
I03         0.000 8         0.00008        -0.072 8        49.844           0.000 7         0.00007        -0.154 7        44.531  
I05         0.000 7         0.00007        -0.072 7        45.625           0.000 6         0.00006        -0.154 6        41.094  
I06  38401032.197 7 150690566.69307       -46.363 7        45.000    38401023.480 6 319201735.41806       -98.119 6        40.781  
I07         0.000 7         0.00007        -0.072 7        44.219           0.000 6         0.00006        -0.154 6        39.531  
I09  36112727.733 8 141711008.34508        15.036 8        50.312    36112719.908 7 300180253.39107        31.728 7        45.781  
I10  38773061.086 7 152150434.35807       -51.338 7        44.531    38773047.377 6 322294134.84406      -108.718 6        40.000  
> 2025 01 24  1 49 30.0000000  0  8      -263.890285001950
I01         0.000 8         0.00008        -0.044 8        50.469           0.000 4         0.00004        -0.094 4        25.000  
I02  38349908.939 7 150489863.29707      -518.609 7        44.531    38349898.296 6 318776704.15406     -1098.462 6        39.688  
I03         0.000 8         0.00008        -0.044 8        49.844           0.000 7         0.00007        -0.094 7        44.688  
I05         0.000 7         0.00007        -0.044 7        45.625           0.000 6         0.00006        -0.094 6        40.938  
I06  38400679.456 7 150689182.15607       -46.230 7        44.844    38400670.947 6 319198802.95606       -97.746 6        40.938  
I07         0.000 7         0.00007        -0.044 7        44.219           0.000 6         0.00006        -0.094 6        39.531  
I09  36112846.423 8 141711473.95408        15.927 8        50.312    36112838.286 7 300181239.94107        33.760 7        45.625  
I10  38772669.496 7 152148897.13207       -51.354 7        44.375    38772655.714 6 322290879.06306      -108.503 6        40.156  
> 2025 01 24  1 50  0.0000000  0  8      -264.046877980739
I01         0.000 8         0.00008         0.040 8        50.469           0.000 3         0.00003         0.085 3        22.969  
I02  38345942.635 7 150474299.85407      -518.606 7        44.531    38345932.400 6 318743737.17106     -1098.858 6        40.000  
I03         0.000 8         0.00008         0.040 8        49.844           0.000 7         0.00007         0.085 7        44.531  
I05         0.000 7         0.00007         0.040 7        45.938           0.000 6         0.00006         0.085 6        40.781  
I06  38400327.430 7 150687799.86907       -45.788 7        45.000    38400318.444 6 319195875.26106       -97.507 6        40.781  
I07         0.000 7         0.00007         0.040 7        44.219           0.000 6         0.00006         0.085 6        39.531  
I09  36112972.142 8 141711966.86308        17.053 8        50.312    36112964.018 7 300182284.29907        35.918 7        45.469  
I10  38772278.896 7 152147362.07707       -51.326 7        44.531    38772264.558 6 322287627.92706      -108.018 6        40.156  
> 2025 01 24  1 50 30.0000000  0  8      -263.567878976773
I01         0.000 8         0.00008        -0.052 8        50.156           0.000 3         0.00003        -0.111 3        22.031  
I02  38341974.677 7 150458726.17607      -519.355 7        44.531    38341964.265 6 318710748.53206     -1099.866 6        40.312  
I03         0.000 8         0.00008        -0.052 8        49.844           0.000 7         0.00007        -0.111 7        44.531  
I05         0.000 7         0.00007        -0.052 7        46.250           0.000 6         0.00006        -0.111 6        41.094  
I06  38399975.769 7 150686419.88107       -46.087 7        44.844    38399967.016 6 319192952.42506       -97.409 6        40.781  
I07         0.000 7         0.00007        -0.052 7        44.375           0.000 6         0.00006        -0.111 6        39.688  
I09  36113104.867 8 141712487.14108        17.650 8        50.469    36113096.504 7 300183386.64707        37.513 7        45.312  
I10  38771888.059 7 152145829.23207       -51.039 7        44.375    38771874.326 6 322284381.46206      -108.441 6        40.312  
> 2025 01 24  1 51  0.0000000  0  8      -263.346189162056
I01         0.000 8         0.00008        -0.007 8        50.312           0.000 4         0.00004        -0.014 4        26.094  
I02  38338003.713 7 150443142.31607      -519.493 7        44.844    38337993.411 6 318677738.31206     -1100.905 6        40.469  
I03         0.000 8         0.00008        -0.007 8        49.844           0.000 7         0.00007        -0.014 7        44.375  
I05         0.000 7         0.00007        -0.007 7        46.562           0.000 6         0.00006        -0.014 6        41.562  
I06  38399624.640 7 150685042.15907       -46.027 7        44.844    38399615.988 6 319190034.42806       -96.793 6        40.781  
I07         0.000 7         0.00007        -0.007 7        44.375           0.000 6         0.00006        -0.014 6        39.531  
I09  36113244.480 8 141713034.89408        18.723 8        50.312    36113236.113 7 300184547.18607        39.665 7        45.312  
I10  38771498.310 7 152144298.65207       -50.790 7        44.375    38771484.112 6 322281139.68306      -108.179 6        40.312  
> 2025 01 24  1 51 30.0000000  0  8      -263.460310287124
I01         0.000 8         0.00008        -0.042 8        50.312           0.000 3         0.00003        -0.089 3        22.344  
I02  38334029.838 7 150427548.12907      -520.089 7        45.156    38334019.604 6 318644706.19906     -1101.660 6        40.625  
I03         0.000 8         0.00008        -0.042 8        49.844           0.000 7         0.00007        -0.089 7        44.375  
I05         0.000 7         0.00007        -0.042 7        46.562           0.000 6         0.00006        -0.089 6        41.562  
I06  38399274.395 7 150683666.76807       -45.705 7        44.844    38399265.574 6 319187121.36006       -97.267 6        40.781  
I07         0.000 7         0.00007        -0.042 7        44.375           0.000 6         0.00006        -0.089 6        39.688  
I09  36113391.176 8 141713610.22708        19.629 8        50.469    36113382.640 7 300185766.15007        41.567 7        45.312  
I10  38771108.936 7 152142770.28907       -51.028 7        44.531    38771094.714 6 322277902.63006      -107.759 6        40.469  
> 2025 01 24  1 52  0.0000000  0  8      -263.352263178266
I01         0.000 8         0.00008         0.011 8        50.469           0.000 3         0.00003         0.023 3        23.750  
I02  38330053.929 7 150411943.86507      -520.204 7        45.312    38330043.350 6 318611652.76706     -1102.084 6        40.625  
I03         0.000 8         0.00008         0.011 8        49.844           0.000 7         0.00007         0.023 7        44.375  
I05         0.000 7         0.00007         0.011 7        46.562           0.000 6         0.00006         0.023 6        41.719  
I06  38398924.647 7 150682293.62207       -45.650 7        45.000    38398915.698 6 319184213.05806       -96.573 6        40.781  
I07         0.000 7         0.00007         0.011 7        44.375           0.000 6         0.00006         0.023 6        39.688  
I09  36113545.072 8 141714213.27208        20.654 8        50.312    36113536.543 7 300187043.80707        43.565 7        45.469  
I10  38770720.131 7 152141244.14107       -50.742 7        44.531    38770705.905 6 322274670.27906      -107.715 6        40.156  
> 2025 01 24  1 52 30.0000000  0  8      -263.114093655774
I01         0.000 8         0.00008        -0.057 8        50.625           0.000 4         0.00004        -0.122 4        25.625  
I02  38326075.253 7 150396329.76007      -520.588 7        45.312    38326064.910 6 318578578.50606     -1103.064 6        40.625  
I03         0.000 8         0.00008        -0.057 8        49.844           0.000 7         0.00007        -0.122 7        44.531  
I05         0.000 7         0.00007        -0.057 7        46.562           0.000 6         0.00006        -0.122 6        41.562  
I06  38398575.510 7 150680922.80507       -45.789 7        45.000    38398566.465 6 319181309.67306       -96.867 6        40.625  
I07         0.000 7         0.00007        -0.057 7        44.219           0.000 6         0.00006        -0.122 6        39.531  
I09  36113705.744 8 141714844.08508        21.391 8        50.312    36113697.530 7 300188380.29707        45.434 7        45.469  
I10  38770331.841 7 152139720.21107       -50.840 7        44.375    38770317.799 6 322271442.67606      -107.676 6        40.156  
> 2025 01 24  1 53  0.0000000  0  8      -262.705765282915
I01         0.000 8         0.00008        -0.044 8        50.469           0.000 3         0.00003        -0.093 3        23.594  
I02  38322094.015 7 150380705.95707      -521.083 7        45.156    38322083.243 6 318545483.70106     -1103.599 6        40.469  
I03         0.000 8         0.00008        -0.044 8        49.688           0.000 7         0.00007        -0.093 7        44.531  
I05         0.000 7         0.00007        -0.044 7        46.562           0.000 6         0.00006        -0.093 6        41.250  
I06  38398226.864 7 150679554.28907       -45.705 7        44.844    38398217.981 6 319178411.17406       -96.591 6        40.781  
I07         0.000 7         0.00007        -0.044 7        44.375           0.000 6         0.00006        -0.093 6        39.531  
I09  36113873.771 8 141715502.75908        22.357 8        50.312    36113865.939 7 300189775.79007        47.448 7        45.625  
I10  38769944.323 7 152138198.51007       -50.671 7        44.375    38769930.134 6 322268219.79206      -107.270 6        40.312  
> 2025 01 24  1 53 30.0000000  0  8      -262.746568641764
I01         0.000 8         0.00008        -0.038 8        50.469           0.000 3         0.00003        -0.081 3        23.594  
I02  38318110.584 7 150365073.37307      -521.407 7        45.156    38318099.713 6 318512370.26406     -1103.866 6        40.625  
I03         0.000 8         0.00008        -0.038 8        49.688           0.000 7         0.00007        -0.081 7        44.688  
I05         0.000 7         0.00007        -0.038 7        46.406           0.000 6         0.00006        -0.081 6        40.781  
I06  38397878.921 7 150678188.10807       -45.405 7        44.844    38397869.627 6 319175517.62806       -96.735 6        40.625  
I07         0.000 7         0.00007        -0.038 7        44.375           0.000 6         0.00006        -0.081 6        39.531  
I09  36114048.846 8 141716189.41308        23.291 8        50.156    36114041.014 7 300191230.54807        49.479 7        45.625  
I10  38769557.266 7 152136679.05907       -50.713 7        44.375    38769542.753 6 322265001.66106      -107.262 6        40.156  
> 2025 01 24  1 54  0.0000000  0  8      -266.526768966433
I01         0.000 8         0.00008        -0.048 8        50.625           0.000 3         0.00003        -0.102 3        22.031  
I02  38314123.386 7 150349431.19607      -521.763 7        44.844    38314112.690 6 318479236.52706     -1104.826 6        40.781  
I03         0.000 8         0.00008        -0.048 8        49.531           0.000 7         0.00007        -0.102 7        44.688  
I05         0.000 7         0.00007        -0.048 7        46.406           0.000 6         0.00006        -0.102 6        41.094  
I06  38397530.032 7 150676824.26807       -45.410 7        44.688    38397520.947 6 319172629.01606       -96.308 6        40.781  
I07         0.000 7         0.00007        -0.048 7        44.375           0.000 6         0.00006        -0.102 6        39.531  
I09  36114230.487 8 141716904.15408        24.240 8        50.156    36114221.816 7 300192744.80907        51.386 7        45.781  
I10  38769169.415 7 152135161.89107       -50.633 7        44.375    38769155.349 6 322261788.32906      -107.078 6        40.156  
> 2025 01 24  1 54 30.0000000  0  8      -261.847891739009
I01         0.000 8         0.00008        -0.036 8        50.781           0.000 3         0.00003        -0.076 3        23.594  
I02  38310136.221 7 150333779.58407      -521.818 7        44.844    38310125.820 6 318446082.81006     -1105.447 6        40.781  
I03         0.000 8         0.00008        -0.036 8        49.531           0.000 7         0.00007        -0.076 7        44.844  
I05         0.000 7         0.00007        -0.036 7        46.250           0.000 6         0.00006        -0.076 6        41.094  
I06  38397184.569 7 150675462.76207       -45.539 7        44.688    38397175.331 6 319169745.40706       -95.945 6        40.625  
I07         0.000 7         0.00007        -0.036 7        44.375           0.000 6         0.00006        -0.076 6        39.375  
I09  36114420.643 8 141717647.03508        25.230 8        50.469    36114412.881 7 300194318.70007        53.344 7        45.938  
I10  38768784.946 7 152133647.00507       -50.448 7        44.531    38768770.439 6 322258579.79706      -107.097 6        40.000  
> 2025 01 24  1 55  0.0000000  0  8      -260.878523490619
I01         0.000 8         0.00008        -0.063 8        50.781           0.000 4         0.00004        -0.134 4        24.688  
I02  38306145.528 7 150318119.28007      -522.352 7        44.844    38306135.691 6 318412910.67706     -1106.270 6        41.406  
I03         0.000 8         0.00008        -0.063 8        49.531           0.000 7         0.00007        -0.134 7        44.688  
I05         0.000 7         0.00007        -0.063 7        46.406           0.000 6         0.00006        -0.134 6        41.562  
I06  38396838.462 7 150674103.62707       -45.368 7        44.844    38396829.252 6 319166866.80606       -95.929 6        40.781  
I07         0.000 7         0.00007        -0.063 7        44.219           0.000 6         0.00006        -0.134 6        39.219  
I09  36114617.113 8 141718418.18908        26.074 8        50.469    36114609.618 7 300195952.47407        55.265 7        46.094  
I10  38768399.635 7 152132134.39207       -50.402 7        44.531    38768385.020 6 322255376.10506      -106.871 6        39.688  
> 2025 01 24  1 55 30.0000000  0  8      -260.712214330070
I01         0.000 8         0.00008        -0.041 8        50.469           0.000 4         0.00004        -0.086 4        25.469  
I02  38302152.824 7 150302449.68707      -522.655 7        44.531    38302142.776 6 318379718.90206     -1107.000 6        41.562  
I03         0.000 8         0.00008        -0.041 8        49.531           0.000 7         0.00007        -0.086 7        44.688  
I05         0.000 7         0.00007        -0.041 7        46.406           0.000 6         0.00006        -0.086 6        41.719  
I06  38396492.675 7 150672746.80407       -45.178 7        44.688    38396483.443 6 319163993.09706       -95.617 6        40.781  
I07         0.000 7         0.00007        -0.041 7        44.375           0.000 6         0.00006        -0.086 6        39.219  
I09  36114820.945 8 141719217.71208        27.121 8        50.312    36114813.550 7 300197646.33407        57.476 7        46.094  
I10  38768014.742 7 152130624.03807       -50.316 7        44.375    38768000.192 6 322252177.20906      -106.626 6        39.844  
> 2025 01 24  1 56  0.0000000  0  8      -260.974435940786
I01         0.000 8         0.00008        -0.010 8        50.469           0.000 3         0.00003        -0.021 3        22.656  
I02  38298157.712 7 150286771.40907      -522.673 7        44.688    38298147.348 6 318346508.70306     -1107.334 6        41.250  
I03         0.000 8         0.00008        -0.010 8        49.375           0.000 7         0.00007        -0.021 7        44.844  
I05         0.000 7         0.00007        -0.010 7        46.719           0.000 6         0.00006        -0.021 6        41.406  
I06  38396147.533 7 150671392.34207       -45.090 7        44.688    38396138.392 6 319161124.40606       -95.445 6        40.625  
I07         0.000 7         0.00007        -0.010 7        44.531           0.000 6         0.00006        -0.021 6        39.219  
I09  36115031.803 8 141720045.65708        28.046 8        50.156    36115024.253 7 300199400.40107        59.504 7        46.250  
I10  38767630.659 7 152129115.97007       -50.146 7        44.531    38767616.124 6 322248983.15906      -106.461 6        40.156  
> 2025 01 24  1 56 30.0000000  0  8      -261.670807948994
I01         0.000 8         0.00008        -0.003 8        50.469           0.000 4         0.00004        -0.006 4        25.625  
I02  38294160.991 7 150271084.98307      -522.974 7        44.844    38294149.501 6 318313281.26306     -1107.769 6        40.938  
I03         0.000 8         0.00008        -0.003 8        49.375           0.000 7         0.00007        -0.006 7        44.688  
I05         0.000 7         0.00007        -0.003 7        46.719           0.000 6         0.00006        -0.006 6        41.562  
I06  38395803.146 7 150670040.24907       -44.990 7        44.688    38395793.692 6 319158260.72606       -95.263 6        40.625  
I07         0.000 7         0.00007        -0.003 7        44.375           0.000 6         0.00006        -0.006 6        38.906  
I09  36115250.017 8 141720902.16908        29.051 8        50.312    36115242.198 7 300201214.97507        61.389 7        45.938  
I10  38767246.835 7 152127610.20407       -50.095 7        44.375    38767232.388 6 322245793.98306      -106.167 6        40.000  
> 2025 01 24  1 57  0.0000000  0  8      -261.763168463582
I01         0.000 8         0.00008        -0.039 8        50.312           0.000 3         0.00003        -0.082 3        23.906  
I02  38290161.303 7 150255389.81207      -523.473 7        44.688    38290150.132 6 318280035.29506     -1108.547 6        41.094  
I03         0.000 8         0.00008        -0.039 8        49.375           0.000 7         0.00007        -0.082 7        44.688  
I05         0.000 7         0.00007        -0.039 7        46.875           0.000 6         0.00006        -0.082 6        41.406  
I06  38395459.242 7 150668690.51807       -45.028 7        44.531    38395450.093 6 319155402.06106       -95.247 6        40.625  
I07         0.000 7         0.00007        -0.039 7        44.375           0.000 6         0.00006        -0.082 6        38.906  
I09  36115475.660 8 141721787.35408        29.935 8        50.156    36115467.824 7 300203090.29807        63.474 7        45.938  
I10  38766864.081 7 152126106.73407       -49.955 7        44.531    38766849.535 6 322242609.65206      -106.187 6        40.156  
> 2025 01 24  1 57 30.0000000  0  8      -262.437017704652
I01         0.000 8         0.00008        -0.023 8        50.156           0.000 4         0.00004        -0.049 4        26.250  
I02  38286159.848 7 150239686.50907      -523.504 7        44.844    38286148.252 6 318246772.10506     -1109.272 6        40.625  
I03         0.000 8         0.00008        -0.023 8        49.375           0.000 7         0.00007        -0.049 7        44.688  
I05         0.000 7         0.00007        -0.023 7        47.188           0.000 6         0.00006        -0.049 6        41.562  
I06  38395115.972 7 150667343.16207       -44.892 7        44.531    38395106.442 6 319152548.43706       -95.040 6        40.469  
I07         0.000 7         0.00007        -0.023 7        44.375           0.000 6         0.00006        -0.049 6        38.906  
I09  36115708.146 8 141722701.26108        30.923 8        50.156    36115700.691 7 300205026.46807        65.540 7        45.938  
I10  38766481.559 7 152124605.59607       -50.004 7        44.375    38766466.906 6 322239430.23606      -105.853 6        40.000  
> 2025 01 24  1 58  0.0000000  0  8      -262.312253053067
I01         0.000 8         0.00008        -0.064 8        50.156           0.000 4         0.00004        -0.136 4        26.406  
I02  38282156.515 7 150223975.54107      -523.953 7        44.844    38282144.603 6 318213492.66606     -1109.530 6        40.625  
I03         0.000 8         0.00008        -0.064 8        49.375           0.000 7         0.00007        -0.136 7        44.688  
I05         0.000 7         0.00007        -0.064 7        47.188           0.000 6         0.00006        -0.136 6        41.094  
I06  38394773.516 7 150665998.21007       -45.047 7        44.688    38394764.070 6 319149699.89506       -95.237 6        40.469  
I07         0.000 7         0.00007        -0.064 7        44.375           0.000 6         0.00006        -0.136 6        39.062  
I09  36115948.673 8 141723643.99908        31.869 8        50.000    36115940.841 7 300207023.71007        67.527 7        45.938  
I10  38766099.725 7 152123106.77507       -50.059 7        44.531    38766085.243 6 322236255.71706      -105.769 6        40.000  
> 2025 01 24  1 58 30.0000000  0  8      -262.581271923909
I01         0.000 8         0.00008        -0.018 8        50.156           0.000 4         0.00004        -0.037 4        25.469  
I02  38278151.170 7 150208256.42907      -524.104 7        45.000    38278138.702 6 318180195.99206     -1110.269 6        40.781  
I03         0.000 8         0.00008        -0.018 8        49.375           0.000 7         0.00007        -0.037 7        44.688  
I05         0.000 7         0.00007        -0.018 7        47.031           0.000 6         0.00006        -0.037 6        40.781  
I06  38394431.661 7 150664655.64107       -44.644 7        44.688    38394422.181 6 319146856.41806       -94.590 6        40.781  
I07         0.000 7         0.00007        -0.018 7        44.531           0.000 6         0.00006        -0.037 6        39.062  
I09  36116196.467 8 141724615.69108        32.793 8        49.844    36116188.204 7 300209082.28807        69.542 7        45.781  
I10  38765718.250 7 152121610.26007       -49.720 7        44.375    38765704.144 6 322233086.09606      -105.674 6        40.156  
> 2025 01 24  1 59  0.0000000  0  8      -263.180506081617
I01         0.000 8         0.00008        -0.075 8        50.469           0.000 4         0.00004        -0.158 4        24.531  
I02  38274143.889 7 150192529.41307      -524.521 7        45.000    38274130.782 6 318146882.58106     -1111.034 6        40.938  
I03         0.000 8         0.00008        -0.075 8        49.375           0.000 7         0.00007        -0.158 7        44.688  
I05         0.000 7         0.00007        -0.075 7        47.031           0.000 6         0.00006        -0.158 6        41.250  
I06  38394090.153 7 150663315.47407       -44.596 7        44.688    38394080.710 6 319144018.02806       -94.622 6        40.469  
I07         0.000 7         0.00007        -0.075 7        44.375           0.000 6         0.00006        -0.158 6        38.750  
I09  36116451.538 8 141725616.38808        33.672 8        49.688    36116443.272 7 300211202.30307        71.623 7        45.625  
I10  38765337.887 7 152120116.07007       -49.969 7        44.531    38765323.104 6 322229921.41606      -105.752 6        40.156  
> 2025 01 24  1 59 30.0000000  0  8      -263.568833093845
I01         0.000 8         0.00008         0.005 8        50.625           0.000 4         0.00004         0.011 4        25.312  
I02  38270134.318 7 150176794.45707      -524.519 7        45.312    38270121.139 6 318113552.31306     -1111.238 6        41.250  
I03         0.000 8         0.00008         0.005 8        49.375           0.000 7         0.00007         0.011 7        44.688  
I05         0.000 7         0.00007         0.005 7        46.875           0.000 6         0.00006         0.011 6        41.250  
I06  38393749.285 7 150661977.71407       -44.506 7        44.688    38393739.757 6 319141184.73006       -94.116 6        40.625  
I07         0.000 7         0.00007         0.005 7        44.531           0.000 6         0.00006         0.011 6        39.062  
I09  36116713.862 8 141726646.19808        34.813 8        49.531    36116705.714 7 300213384.00107        73.897 7        45.781  
I10  38764957.623 7 152118624.19007       -49.647 7        44.531    38764943.189 6 322226761.66606      -105.193 6        40.312  
> 2025 01 24  2  0  0.0000000  0  8      -263.434335363933
I01         0.000 8         0.00008         0.043 8        50.625           0.000 3         0.00003         0.092 3        22.656  
I02  38266123.182 7 150161052.52407      -524.685 7        45.156    38266109.911 6 318080207.28506     -1111.314 6        41.094  
I03         0.000 8         0.00008         0.043 8        49.375           0.000 7         0.00007         0.092 7        44.688  
I05         0.000 7         0.00007         0.043 7        46.875           0.000 6         0.00006         0.092 6        41.562  
I06  38393409.148 7 150660642.39307       -44.155 7        44.688    38393399.700 6 319138356.61706       -94.108 6        40.625  
I07         0.000 7         0.00007         0.043 7        44.531           0.000 6         0.00006         0.092 6        39.219  
I09  36116983.706 8 141727705.25508        35.908 8        49.688    36116975.847 7 300215627.63407        75.953 7        45.781  
I10  38764577.992 7 152117134.67307       -49.530 7        44.375    38764563.338 6 322223606.90706      -105.089 6        40.312  
> 2025 01 24  2  0 30.0000000  0  8      -261.626066733113
I01         0.000 8         0.00008        -0.087 8        50.469           0.000 3         0.00003        -0.184 3        22.188  
I02  38262109.475 7 150145302.55407      -525.351 7        45.312    38262096.472 6 318046845.22706     -1112.590 6        40.938  
I03         0.000 8         0.00008        -0.087 8        49.375           0.000 7         0.00007        -0.184 7        44.844  
I05         0.000 7         0.00007        -0.087 7        46.562           0.000 6         0.00006        -0.184 6        41.406  
I06  38393069.562 7 150659309.46107       -44.468 7        44.688    38393059.961 6 319135533.54206       -94.113 6        40.781  
I07         0.000 7         0.00007        -0.087 7        44.375           0.000 6         0.00006        -0.184 6        39.062  
I09  36117261.024 8 141728793.60708        36.573 8        49.844    36117253.460 7 300217933.31207        77.647 7        45.938  
I10  38764199.238 7 152115647.49207       -49.673 7        44.375    38764184.862 6 322220457.09406      -105.137 6        40.469  
> 2025 01 24  2  1  0.0000000  0  8      -261.350585830787
I01         0.000 8         0.00008        -0.043 8        50.625           0.000 4         0.00004        -0.090 4        24.375  
I02  38258094.373 7 150129546.12507      -525.297 7        45.000    38258081.285 6 318013469.48906     -1113.161 6        40.781  
I03         0.000 8         0.00008        -0.043 8        49.375           0.000 7         0.00007        -0.090 7        44.844  
I05         0.000 7         0.00007        -0.043 7        46.406           0.000 6         0.00006        -0.090 6        41.250  
I06  38392730.611 7 150657978.98907       -44.390 7        44.688    38392721.086 6 319132715.70306       -93.945 6        40.625  
I07         0.000 7         0.00007        -0.043 7        44.375           0.000 6         0.00006        -0.090 6        39.219  
I09  36117545.889 8 141729911.34408        37.776 8        49.844    36117538.422 7 300220301.26207        79.784 7        46.094  
I10  38763821.023 7 152114162.68307       -49.459 7        44.375    38763806.495 6 322217312.29906      -104.816 6        40.469  
> 2025 01 24  2  1 30.0000000  0  8      -261.180885576685
I01         0.000 8         0.00008        -0.042 8        50.625           0.000 3         0.00003        -0.088 3        22.969  
I02  38254077.548 7 150113782.02407      -525.482 7        45.000    38254064.505 6 317980077.49306     -1113.468 6        40.938  
I03         0.000 8         0.00008        -0.042 8        49.531           0.000 7         0.00007        -0.088 7        44.844  
I05         0.000 7         0.00007        -0.042 7        45.938           0.000 6         0.00006        -0.088 6        40.781  
I06  38392392.248 7 150656650.95807       -44.346 7        44.688    38392382.644 6 319129903.02606       -93.880 6        40.625  
I07         0.000 7         0.00007        -0.042 7        44.531           0.000 6         0.00006        -0.088 6        39.219  
I09  36117838.400 8 141731058.59708        38.771 8        49.844    36117830.678 7 300222731.72407        82.037 7        46.094  
I10  38763443.298 7 152112680.24707       -49.498 7        44.375    38763428.881 6 322214172.51106      -104.643 6        40.625  
> 2025 01 24  2  2  0.0000000  0  8      -260.895898250484
I01         0.000 8         0.00008        -0.047 8        50.625           0.000 4         0.00004        -0.101 4        25.156  
I02  38250058.685 7 150098011.57207      -525.867 7        45.156    38250045.987 6 317946672.04606     -1113.837 6        40.938  
I03         0.000 8         0.00008        -0.047 8        49.531           0.000 7         0.00007        -0.101 7        44.844  
I05         0.000 7         0.00007        -0.047 7        45.938           0.000 6         0.00006        -0.101 6        40.781  
I06  38392054.703 7 150655325.35007       -44.237 7        44.688    38392045.011 6 319127095.48006       -93.671 6        40.625  
I07         0.000 7         0.00007        -0.047 7        44.375           0.000 6         0.00006        -0.101 6        39.375  
I09  36118138.299 8 141732235.45708        39.693 8        49.688    36118130.822 7 300225224.88807        84.091 7        46.094  
I10  38763066.200 7 152111200.18607       -49.369 7        44.375    38763051.852 6 322211037.76306      -104.470 6        40.469  
> 2025 01 24  2  2 30.0000000  0  8      -261.002229595087
I01         0.000 8         0.00008         0.013 8        50.625           0.000 4         0.00004         0.027 4        25.781  
I02  38246038.141 7 150082234.29207      -525.786 7        45.156    38246025.506 6 317913252.13006     -1113.899 6        40.781  
I03         0.000 8         0.00008         0.013 8        49.531           0.000 7         0.00007         0.027 7        44.688  
I05         0.000 7         0.00007         0.013 7        46.094           0.000 6         0.00006         0.027 6        41.406  
I06  38391717.858 7 150654002.19207       -44.013 7        45.000    38391708.210 6 319124293.14906       -93.428 6        40.781  
I07         0.000 7         0.00007         0.013 7        44.375           0.000 6         0.00006         0.027 6        39.062  
I09  36118445.962 8 141733441.96708        40.724 8        49.688    36118438.156 7 300227780.85807        86.306 7        45.781  
I10  38762689.593 7 152109722.48307       -49.216 7        44.375    38762675.005 6 322207908.03506      -104.038 6        40.469  
> 2025 01 24  2  3  0.0000000  0  8      -260.654230060557
I01         0.000 8         0.00008        -0.062 8        50.469           0.000 4         0.00004        -0.131 4        25.000  
I02  38242016.416 7 150066450.60607      -526.337 7        45.469    38242003.532 6 317879818.65606     -1114.949 6        41.250  
I03         0.000 8         0.00008        -0.062 8        49.531           0.000 7         0.00007        -0.131 7        44.688  
I05         0.000 7         0.00007        -0.062 7        45.938           0.000 6         0.00006        -0.131 6        41.719  
I06  38391381.559 7 150652681.53307       -44.078 7        44.688    38391371.366 6 319121496.07006       -93.426 6        40.625  
I07         0.000 7         0.00007        -0.062 7        44.375           0.000 6         0.00006        -0.131 6        39.375  
I09  36118761.160 8 141734678.24608        41.707 8        49.688    36118753.643 7 300230399.87307        88.214 7        46.406  
I10  38762313.867 7 152108247.14707       -49.148 7        44.375    38762299.249 6 322204783.38006      -104.363 6        40.312  
> 2025 01 24  2  3 30.0000000  0  8      -259.921428745409
I01         0.000 8         0.00008        -0.038 8        50.312           0.000 3         0.00003        -0.081 3        22.656  
I02  38237992.894 7 150050660.39807      -526.466 7        45.312    38237980.145 6 317846371.34806     -1115.505 6        41.094  
I03         0.000 8         0.00008        -0.038 8        49.688           0.000 7         0.00007        -0.081 7        44.688  
I05         0.000 7         0.00007        -0.038 7        46.094           0.000 6         0.00006        -0.081 6        41.562  
I06  38391045.549 7 150651363.30907       -43.854 7        44.844    38391035.899 6 319118704.17206       -93.077 6        40.938  
I07         0.000 7         0.00007        -0.038 7        44.062           0.000 6         0.00006        -0.081 6        39.219  
I09  36119083.858 8 141735944.41908        42.725 8        49.531    36119076.241 7 300233082.23807        90.351 7        46.250  
I10  38761938.661 7 152106774.20307       -49.124 7        44.375    38761924.283 6 322201663.77406      -103.872 6        40.312  
> 2025 01 24  2  4  0.0000000  0  8      -259.921872097794
I01         0.000 8         0.00008        -0.025 8        50.312           0.000 4         0.00004        -0.053 4        24.688  
I02  38233968.142 7 150034863.49807      -526.624 7        45.469    38233954.865 6 317812909.85606     -1115.398 6        41.094  
I03         0.000 8         0.00008        -0.025 8        49.531           0.000 7         0.00007        -0.053 7        44.688  
I05         0.000 7         0.00007        -0.025 7        45.938           0.000 6         0.00006        -0.053 6        41.406  
I06  38390710.643 7 150650047.56607       -43.887 7        44.844    38390700.511 6 319115917.52706       -92.922 6        40.625  
I07         0.000 7         0.00007        -0.025 7        44.062           0.000 6         0.00006        -0.053 6        39.531  
I09  36119414.282 8 141737240.57608        43.725 8        49.531    36119406.631 7 300235828.10607        92.500 7        46.094  
I10  38761564.121 7 152105303.67007       -48.969 7        44.375    38761549.690 6 322198549.25006      -103.825 6        40.312  
> 2025 01 24  2  4 30.0000000  0  8      -260.487394251491
I01         0.000 8         0.00008        -0.081 8        50.625           0.000 4         0.00004        -0.172 4        24.531  
I02  38229940.991 7 150019060.95107      -527.174 7        45.781    38229927.999 6 317779436.38106     -1116.257 6        41.094  
I03         0.000 8         0.00008        -0.081 8        49.531           0.000 7         0.00007        -0.172 7        44.688  
I05         0.000 7         0.00007        -0.081 7        46.094           0.000 6         0.00006        -0.172 6        41.094  
I06  38390375.973 7 150648734.30707       -43.838 7        44.844    38390365.851 6 319113136.13906       -92.862 6        40.781  
I07         0.000 7         0.00007        -0.081 7        44.375           0.000 6         0.00006        -0.172 6        39.375  
I09  36119752.374 8 141738566.80908        44.682 8        49.688    36119744.728 7 300238637.66907        94.502 7        46.406  
I10  38761190.010 7 152103835.55307       -48.982 7        44.219    38761175.299 6 322195439.85406      -103.774 6        40.312  
> 2025 01 24  2  5  0.0000000  0  8      -260.001171084238
I01         0.000 8         0.00008        -0.035 8        50.781           0.000 4         0.00004        -0.074 4        24.844  
I02  38225913.035 7 150003252.80407      -527.027 7        45.625    38225899.696 6 317745951.03806     -1116.408 6        40.781  
I03         0.000 8         0.00008        -0.035 8        49.531           0.000 7         0.00007        -0.074 7        44.531  
I05         0.000 7         0.00007        -0.035 7        46.250           0.000 6         0.00006        -0.074 6        40.781  
I06  38390042.208 7 150647423.49907       -43.683 7        44.844    38390032.030 6 319110359.95806       -92.583 6        40.625  
I07         0.000 7         0.00007        -0.035 7        44.219           0.000 6         0.00006        -0.074 6        39.688  
I09  36120098.082 8 141739923.16908        45.586 8        49.844    36120090.710 7 300241511.05507        96.719 7        46.562  
I10  38760816.816 7 152102369.84607       -48.723 7        44.219    38760801.894 6 322192335.57006      -103.528 6        40.156  
> 2025 01 24  2  5 30.0000000  0  8      -260.046589424079
I01         0.000 8         0.00008        -0.006 8        50.781           0.000 4         0.00004        -0.013 4        24.062  
I02  38221883.284 7 149987438.96407      -527.207 7        45.625    38221869.789 6 317712453.61406     -1116.638 6        40.312  
I03         0.000 8         0.00008        -0.006 8        49.688           0.000 7         0.00007        -0.013 7        44.531  
I05         0.000 7         0.00007        -0.006 7        46.094           0.000 6         0.00006        -0.013 6        40.781  
I06  38389708.826 7 150646115.20907       -43.495 7        45.000    38389698.629 6 319107589.11606       -92.394 6        40.781  
I07         0.000 7         0.00007        -0.006 7        43.906           0.000 6         0.00006        -0.013 6        39.688  
I09  36120451.397 8 141741309.78408        46.752 8        49.844    36120444.136 7 300244448.54107        98.917 7        46.562  
I10  38760443.960 7 152100906.56007       -48.642 7        44.219    38760429.211 6 322189236.40506      -103.191 6        40.156  
> 2025 01 24  2  6  0.0000000  0  8      -259.811317766971
I01         0.000 8         0.00008        -0.066 8        49.375           0.000 4         0.00004        -0.140 4        25.000  
I02  38217851.797 6 149971619.18706      -527.542 6        40.312    38217839.037 6 317678943.66806     -1117.552 6        38.906  
I03         0.000 8         0.00008        -0.066 8        48.125           0.000 6         0.00006        -0.140 6        39.219  
I05         0.000 7         0.00007        -0.066 7        42.969           0.000 6         0.00006        -0.140 6        36.875  
I06  38389376.538 6 150644809.32506       -43.595 6        38.281    38389365.818 5 319104823.55805       -92.150 5        35.781  
I07         0.000 7         0.00007        -0.066 7        43.438           0.000 6         0.00006        -0.140 6        36.094  
I09  36120812.715 8 141742726.77908        47.850 8        48.594    36120805.154 7 300247450.33007       100.782 7        44.062  
I10  38760071.634 7 152099445.76707       -48.728 7        42.500    38760057.153 6 322186142.30606      -103.439 6        37.500  
> 2025 01 24  2  6 30.0000000  0  8      -260.583618168243
I01         0.000 8         0.00008        -0.035 8        50.781           0.000 3         0.00003        -0.074 3        22.031  
I02  38213818.886 7 149955793.70907      -527.617 7        45.156    38213806.317 6 317645421.57406     -1117.661 6        40.781  
I03         0.000 8         0.00008        -0.035 8        49.688           0.000 7         0.00007        -0.074 7        44.375  
I05         0.000 7         0.00007        -0.035 7        46.094           0.000 6         0.00006        -0.074 6        40.000  
I06  38389044.193 7 150643506.12907       -43.429 7        44.844    38389033.571 6 319102063.31606       -92.118 6        40.625  
I07         0.000 7         0.00007        -0.035 7        44.062           0.000 6         0.00006        -0.074 6        39.531  
I09  36121181.490 8 141744174.07208        48.725 8        49.688    36121173.601 7 300250516.37807       103.327 7        46.094  
I10  38759700.336 7 152097987.27607       -48.677 7        44.375    38759685.326 6 322183053.52106      -102.773 6        40.000  
> 2025 01 24  2  7  0.0000000  0  8      -260.730404157484
I01         0.000 8         0.00008        -0.027 8        50.781           0.000 3         0.00003        -0.057 3        23.125  
I02  38209784.989 7 149939962.72707      -527.764 7        45.312    38209771.889 6 317611887.85006     -1117.801 6        40.469  
I03         0.000 8         0.00008        -0.027 8        49.531           0.000 7         0.00007        -0.057 7        44.219  
I05         0.000 7         0.00007        -0.027 7        45.625           0.000 6         0.00006        -0.057 6        40.312  
I06  38388712.797 7 150642205.36007       -43.314 7        45.000    38388702.711 6 319099308.43106       -91.898 6        40.938  
I07         0.000 7         0.00007        -0.027 7        43.750           0.000 6         0.00006        -0.057 6        39.531  
I09  36121558.152 8 141745651.95508        49.733 8        49.688    36121550.162 7 300253647.18007       105.433 7        46.250  
I10  38759329.274 7 152096531.27807       -48.490 7        44.062    38759314.287 6 322179969.83406      -102.869 6        40.000  
> 2025 01 24  2  7 30.0000000  0  8      -260.860462880473
I01         0.000 8         0.00008        -0.023 8        50.938           0.000 3         0.00003        -0.048 3        22.969  
I02  38205749.862 7 149924126.50807      -527.960 7        45.156    38205736.375 6 317578343.04306     -1118.202 6        40.469  
I03         0.000 8         0.00008        -0.023 8        49.375           0.000 7         0.00007        -0.048 7        44.219  
I05         0.000 7         0.00007        -0.023 7        45.469           0.000 6         0.00006        -0.048 6        40.000  
I06  38388382.168 7 150640907.12307       -43.280 7        45.000    38388371.765 6 319096558.88706       -91.646 6        40.781  
I07         0.000 7         0.00007        -0.023 7        43.906           0.000 6         0.00006        -0.048 6        39.688  
I09  36121942.739 8 141747160.46008        50.756 8        49.688    36121934.863 7 300256842.86707       107.668 7        46.094  
I10  38758959.300 7 152095077.74807       -48.389 7        44.375    38758943.580 6 322176891.36006      -102.540 6        39.844  
> 2025 01 24  2  8  0.0000000  0  8      -261.183388200944
I01         0.000 8         0.00008        -0.007 8        50.938           0.000 4         0.00004        -0.016 4        24.688  
I02  38201713.070 7 149908285.56407      -528.011 7        45.625    38201699.410 6 317544788.16806     -1118.548 6        40.156  
I03         0.000 8         0.00008        -0.007 8        49.531           0.000 7         0.00007        -0.016 7        44.219  
I05         0.000 7         0.00007        -0.007 7        45.000           0.000 6         0.00006        -0.016 6        39.531  
I06  38388052.120 7 150639611.39407       -43.015 7        44.844    38388041.745 6 319093814.68206       -91.396 6        40.938  
I07         0.000 7         0.00007        -0.007 7        43.750           0.000 6         0.00006        -0.016 6        39.375  
I09  36122335.094 8 141748699.65908        51.830 8        49.688    36122327.156 7 300260103.57207       109.759 7        46.250  
I10  38758589.613 7 152093626.66107       -48.424 7        44.219    38758573.984 6 322173818.04906      -102.319 6        40.000  
> 2025 01 24  2  8 30.0000000  0  8      -261.129548203691
I01         0.000 8         0.00008        -0.023 8        51.094           0.000 4         0.00004        -0.050 4        25.000  
I02  38197674.989 7 149892439.59507      -528.282 7        45.469    38197661.481 6 317511222.64506     -1118.959 6        39.688  
I03         0.000 8         0.00008        -0.023 8        49.375           0.000 7         0.00007        -0.050 7        44.219  
I05         0.000 7         0.00007        -0.023 7        44.531           0.000 6         0.00006        -0.050 6        39.375  
I06  38387722.858 7 150638318.21907       -43.101 7        45.000    38387712.341 6 319091075.86206       -91.224 6        40.938  
I07         0.000 7         0.00007        -0.023 7        43.906           0.000 6         0.00006        -0.050 6        39.219  
I09  36122735.342 8 141750269.62108        52.779 8        49.688    36122727.486 7 300263429.44107       112.015 7        46.406  
I10  38758220.744 7 152092178.04907       -48.225 7        44.062    38758205.051 6 322170749.98906      -102.170 6        39.844  
> 2025 01 24  2  9  0.0000000  0  8      -260.444768191351
I01         0.000 8         0.00008        -0.071 8        51.094           0.000 4         0.00004        -0.150 4        24.688  
I02  38193636.182 7 149876589.24507      -528.614 7        45.469    38193622.933 6 317477647.83606     -1119.540 6        39.688  
I03         0.000 8         0.00008        -0.071 8        49.219           0.000 7         0.00007        -0.150 7        44.062  
I05         0.000 7         0.00007        -0.071 7        43.906           0.000 6         0.00006        -0.150 6        39.375  
I06  38387394.167 7 150637027.57107       -43.165 7        45.000    38387383.708 6 319088342.41206       -91.163 6        40.938  
I07         0.000 7         0.00007        -0.071 7        43.594           0.000 6         0.00006        -0.150 6        39.219  
I09  36123143.415 8 141751870.50008        53.748 8        49.844    36123135.901 7 300266820.78907       113.911 7        46.719  
I10  38757852.133 7 152090731.89307       -48.211 7        44.062    38757836.542 6 322167687.13906      -101.972 6        39.688  
> 2025 01 24  2  9 30.0000000  0  8      -260.240333757700
I01         0.000 8         0.00008        -0.048 8        50.938           0.000 3         0.00003        -0.101 3        23.281  
I02  38189595.790 7 149860733.91507      -528.690 7        45.625    38189582.781 6 317444062.50906     -1119.723 6        40.000  
I03         0.000 8         0.00008        -0.048 8        49.219           0.000 7         0.00007        -0.101 7        44.062  
I05         0.000 7         0.00007        -0.048 7        44.062           0.000 6         0.00006        -0.101 6        39.688  
I06  38387065.871 7 150635739.46107       -42.898 7        45.000    38387055.361 6 319085614.32806       -90.935 6        40.781  
I07         0.000 7         0.00007        -0.048 7        43.594           0.000 6         0.00006        -0.101 6        39.375  
I09  36123559.497 8 141753502.30208        54.840 8        50.000    36123551.963 7 300270277.64007       116.259 7        46.875  
I10  38757484.478 7 152089288.20607       -48.145 7        44.062    38757468.465 6 322164629.54506      -101.985 6        39.531  
> 2025 01 24  2 10  0.0000000  0  8      -259.923980822961
I01         0.000 8         0.00008        -0.054 8        50.938           0.000 4         0.00004        -0.114 4        24.688  
I02  38185554.717 7 149844874.84907      -528.807 7        45.625    38185541.564 6 317410469.25006     -1120.033 6        40.000  
I03         0.000 8         0.00008        -0.054 8        49.219           0.000 7         0.00007        -0.114 7        44.062  
I05         0.000 7         0.00007        -0.054 7        44.375           0.000 6         0.00006        -0.114 6        39.844  
I06  38386738.318 7 150634453.93107       -42.884 7        44.844    38386728.061 6 319082891.72406       -90.795 6        40.938  
I07         0.000 7         0.00007        -0.054 7        43.438           0.000 6         0.00006        -0.114 6        39.375  
I09  36123983.311 8 141755165.23208        55.897 8        50.000    36123975.810 7 300273800.41407       118.350 7        46.562  
I10  38757117.324 7 152087847.03907       -48.020 7        44.062    38757101.192 6 322161577.22706      -101.909 6        39.688  
> 2025 01 24  2 10 30.0000000  0  8      -260.468009073478
I01         0.000 8         0.00008        -0.061 8        50.781           0.000 4         0.00004        -0.128 4        25.156  
I02  38181512.402 7 149829011.16407      -528.987 7        45.781    38181498.731 6 317376866.23206     -1120.432 6        39.844  
I03         0.000 8         0.00008        -0.061 8        49.219           0.000 7         0.00007        -0.128 7        44.062  
I05         0.000 7         0.00007        -0.061 7        44.375           0.000 6         0.00006        -0.128 6        39.688  
I06  38386411.653 7 150633170.96407       -42.799 7        45.000    38386400.537 6 319080174.55406       -90.534 6        41.094  
I07         0.000 7         0.00007        -0.061 7        43.281           0.000 6         0.00006        -0.128 6        39.375  
I09  36124415.134 8 141756859.29008        56.895 8        50.156    36124407.400 7 300277389.12907       120.571 7        46.562  
I10  38756750.911 7 152086408.38507       -48.013 7        44.062    38756734.841 6 322158530.21506      -101.620 6        39.375  
> 2025 01 24  2 11  0.0000000  0  8      -261.009700735927
I01         0.000 8         0.00008         0.012 8        50.625           0.000 4         0.00004         0.025 4        26.406  
I02  38177468.748 7 149813143.24307      -528.899 7        45.938    38177455.274 6 317343254.21306     -1120.086 6        40.156  
I03         0.000 8         0.00008         0.012 8        49.219           0.000 7         0.00007         0.025 7        44.062  
I05         0.000 7         0.00007         0.012 7        44.375           0.000 6         0.00006         0.025 6        39.688  
I06  38386085.487 7 150631890.55907       -42.754 7        45.000    38386074.796 6 319077462.80906       -90.373 6        40.938  
I07         0.000 7         0.00007         0.012 7        43.281           0.000 6         0.00006         0.025 6        39.375  
I09  36124854.897 8 141758584.60808        58.050 8        50.156    36124846.761 7 300281044.06507       123.079 7        46.250  
I10  38756385.089 7 152084972.22607       -47.665 7        44.062    38756368.813 6 322155488.48606      -101.078 6        39.219  
> 2025 01 24  2 11 30.0000000  0  8      -261.097480180707
I01         0.000 8         0.00008        -0.034 8        50.781           0.000 3         0.00003        -0.073 3        22.969  
I02  38173424.371 7 149797271.81507      -529.290 7        45.781    38173410.786 6 317309634.76406     -1120.744 6        39.688  
I03         0.000 8         0.00008        -0.034 8        49.219           0.000 7         0.00007        -0.073 7        43.906  
I05         0.000 7         0.00007        -0.034 7        44.531           0.000 6         0.00006        -0.073 6        39.844  
I06  38385760.152 7 150630612.69407       -42.542 7        45.156    38385749.058 6 319074756.45106       -90.178 6        40.938  
I07         0.000 7         0.00007        -0.034 7        43.125           0.000 6         0.00006        -0.073 6        39.219  
I09  36125302.503 8 141760341.27108        59.006 8        50.156    36125294.006 7 300284765.38207       125.277 7        46.094  
I10  38756019.853 7 152083538.53307       -47.792 7        44.062    38756003.840 6 322152452.04106      -101.149 6        39.375  
> 2025 01 24  2 12  0.0000000  0  8      -261.339231480372
I01         0.000 8         0.00008         0.037 8        50.781           0.000 4         0.00004         0.078 4        24.531  
I02  38169378.867 7 149781396.08307      -529.039 7        45.781    38169365.049 6 317276006.21706     -1120.513 6        39.375  
I03         0.000 8         0.00008         0.037 8        49.219           0.000 7         0.00007         0.078 7        43.906  
I05         0.000 7         0.00007         0.037 7        44.531           0.000 6         0.00006         0.078 6        39.375  
I06  38385435.344 7 150629337.47607       -42.317 7        44.844    38385424.479 6 319072055.67406       -90.094 6        41.094  
I07         0.000 7         0.00007         0.037 7        43.125           0.000 6         0.00006         0.078 6        39.062  
I09  36125758.152 8 141762129.34908        60.172 8        50.000    36125749.734 7 300288553.24907       127.420 7        46.094  
I10  38755655.345 7 152082107.35407       -47.438 7        43.906    38755639.331 6 322149420.92206      -100.798 6        39.219  
> 2025 01 24  2 12 30.0000000  0  8      -261.773823832297
I01         0.000 8         0.00008        -0.034 8        50.625           0.000 3         0.00003        -0.071 3        23.438  
I02  38165332.517 7 149765516.97007      -529.283 7        45.781    38165318.643 6 317242370.52506     -1121.425 6        39.375  
I03         0.000 8         0.00008        -0.034 8        49.062           0.000 7         0.00007        -0.071 7        43.750  
I05         0.000 7         0.00007        -0.034 7        44.531           0.000 6         0.00006        -0.071 6        39.219  
I06  38385110.970 7 150628064.81707       -42.454 7        45.000    38385100.241 6 319069360.34606       -89.943 6        40.938  
I07         0.000 7         0.00007        -0.034 7        42.969           0.000 6         0.00006        -0.071 6        38.906  
I09  36126221.848 8 141763948.92308        61.124 8        49.688    36126213.278 7 300292407.83007       129.449 7        45.781  
I10  38755291.422 7 152080678.72007       -47.545 7        43.906    38755275.100 6 322146395.17606      -100.759 6        39.219  
> 2025 01 24  2 13  0.0000000  0  8      -261.990927028894
I01         0.000 8         0.00008        -0.031 8        50.625           0.000 4         0.00004        -0.066 4        24.688  
I02  38161285.568 7 149749634.41907      -529.468 7        46.094    38161271.527 6 317208727.53806     -1121.655 6        39.375  
I03         0.000 8         0.00008        -0.031 8        49.062           0.000 7         0.00007        -0.066 7        43.750  
I05         0.000 7         0.00007        -0.031 7        44.844           0.000 6         0.00006        -0.066 6        39.375  
I06  38384787.694 7 150626794.76407       -42.333 7        45.000    38384776.529 6 319066670.52706       -89.571 6        40.938  
I07         0.000 7         0.00007        -0.031 7        42.969           0.000 6         0.00006        -0.066 6        39.062  
I09  36126693.694 8 141765800.11408        62.191 8        49.688    36126684.862 7 300296329.37907       131.692 7        45.781  
I10  38754928.119 7 152079252.61807       -47.444 7        44.062    38754911.793 6 322143374.77606      -100.696 6        39.219  
