     3.03           OBSERVATION DATA     I:IRNSS            RINEX VERSION / TYPE
OBS GEN             NPLI                25-JAN-25 00:00     PGM / RUN BY / DATE 
REF                                                         MARKER NAME         
0                                                           MARKER NUMBER       
Human                                                       MARKER TYPE         
NPLI                NPLI                                    OBSERVER / AGENCY   
01                  NGS-C60 CV42        1.0                 REC # / TYPE / VERS 
18730               L5S1                                    ANT # / TYPE        
  1243911.1339   5462557.3081   3038748.0760                APPROX POSITION XYZ 
        0.0000         0.0000         0.0000                ANTENNA: DELTA H/E/N
I    8 C5C L5C D5C S5C C9C L9C D9C S9C                      SYS / # / OBS TYPES 
DBHZ                                                        SIGNAL STRENGTH UNIT
SNR is mapped to RINEX snr flag value [1-9]                 COMMENT             
< 12dBHz -> 1; 12-17dBHz -> 2; 18-23dBHz -> 3               COMMENT             
24-29dBHz -> 4; 30-35dBHz -> 5; 36-41dBHz -> 6              COMMENT             
42-47dBHz -> 7; 48-53dBHz -> 8; >= 54dBHz -> 9              COMMENT             
                                                            COMMENT             
    30.000                                                  INTERVAL            
  2025     1    25     0     0    0.0000000     IRN         TIME OF FIRST OBS   
  2025     1    25    23    59   30.0000000     IRN         TIME OF LAST OBS    
                                                            SYS / PHASE SHIFT   
                                                            SYS / PHASE SHIFT   
                                                            END OF HEADER       
> 2025 01 25  0  0  0.0000000  0  8      -264.153582460203
I01         0.000 8         0.00008        -0.029 8        51.250           0.000 4         0.00004        -0.062 4        24.688  
I02  39063646.554 7 153290742.12407      -330.646 7        43.125    39063640.493 6 324709725.51706      -700.411 6        36.562  
I03         0.000 8         0.00008        -0.029 8        50.781           0.000 7         0.00007        -0.062 7        45.000  
I05         0.000 7         0.00007        -0.029 7        47.969           0.000 6         0.00006        -0.062 6        41.875  
I06  38486203.449 7 151024775.84407       -56.392 7        44.844    38486196.583 6 319909746.69306      -120.143 6        39.375  
I07         0.000 7         0.00007        -0.029 7        44.844           0.000 6         0.00006        -0.062 6        40.312  
I09  36201348.629 8 142058869.87508      -102.594 8        50.938    36201343.252 7 300916880.78807      -217.517 7        45.000  
I10  38863453.104 7 152505367.55107       -60.451 7        43.906    38863447.098 6 323045694.06306      -127.839 6        38.438  
> 2025 01 25  0  0 30.0000000  0  8      -261.778126585599
I01         0.000 8         0.00008         0.011 8        51.406           0.000 4         0.00004         0.024 4        24.219  
I02  39061114.141 7 153280804.56307      -331.935 7        43.281    39061108.177 6 324688675.13406      -702.507 6        37.188  
I03         0.000 8         0.00008         0.011 8        50.781           0.000 7         0.00007         0.024 7        45.000  
I05         0.000 8         0.00008         0.011 8        48.281           0.000 6         0.00006         0.024 6        41.562  
I06  38485770.438 7 151023076.94907       -56.598 7        44.844    38485763.371 6 319906147.97906      -119.977 6        38.906  
I07         0.000 7         0.00007         0.011 7        44.688           0.000 6         0.00006         0.024 6        40.312  
I09  36200565.016 8 142055794.75208      -102.352 8        51.094    36200559.467 7 300910366.87307      -216.791 7        44.844  
I10  38862991.902 7 152503557.45507       -60.247 7        43.906    38862985.828 6 323041859.83506      -127.730 6        38.438  
> 2025 01 25  0  1  0.0000000  0  8      -261.878103873346
I01         0.000 8         0.00008        -0.023 8        51.250           0.000 4         0.00004        -0.048 4        25.156  
I02  39058571.467 7 153270826.32207      -333.321 7        42.969    39058565.414 6 324667538.60306      -705.946 6        37.500  
I03         0.000 8         0.00008        -0.023 8        50.781           0.000 7         0.00007        -0.048 7        44.844  
I05         0.000 8         0.00008        -0.023 8        48.281           0.000 6         0.00006        -0.048 6        40.781  
I06  38485337.362 7 151021378.84707       -56.669 7        44.844    38485330.710 6 319902550.92006      -119.805 6        38.750  
I07         0.000 7         0.00007        -0.023 7        44.844           0.000 6         0.00006        -0.048 6        40.156  
I09  36199783.179 8 142052726.97608      -102.123 8        50.938    36199777.744 7 300903868.51407      -216.363 7        44.844  
I10  38862530.545 7 152501747.70707       -60.409 7        43.750    38862524.177 6 323038026.34006      -127.758 6        38.438  
> 2025 01 25  0  1 30.0000000  0  8      -261.275862580192
I01         0.000 8         0.00008        -0.064 8        51.250           0.000 3         0.00003        -0.135 3        23.438  
I02  39056018.513 7 153260806.56107      -334.908 7        43.125    39056012.545 6 324646314.12906      -709.732 6        38.438  
I03         0.000 8         0.00008        -0.064 8        50.781           0.000 7         0.00007        -0.135 7        45.625  
I05         0.000 8         0.00008        -0.064 8        48.594           0.000 6         0.00006        -0.135 6        41.719  
I06  38484904.783 7 151019681.52507       -56.542 7        44.688    38484898.009 6 319898955.54706      -120.007 6        39.375  
I07         0.000 7         0.00007        -0.064 7        44.844           0.000 6         0.00006        -0.135 6        40.781  
I09  36199003.265 8 142049666.63808      -101.914 8        50.781    36198997.997 7 300897385.91307      -216.021 7        45.469  
I10  38862069.616 7 152499938.25807       -60.299 7        43.750    38862063.142 6 323034193.46406      -127.712 6        38.906  
> 2025 01 25  0  2  0.0000000  0  8      -261.369931226223
I01         0.000 8         0.00008        -0.033 8        51.094           0.000 3         0.00003        -0.070 3        23.438  
I02  39053454.651 7 153250745.29407      -336.197 7        43.281    39053449.068 6 324625001.72506      -711.763 6        38.750  
I03         0.000 8         0.00008        -0.033 8        50.781           0.000 7         0.00007        -0.070 7        45.469  
I05         0.000 8         0.00008        -0.033 8        48.438           0.000 6         0.00006        -0.070 6        41.719  
I06  38484471.994 7 151017985.00607       -56.601 7        44.531    38484465.375 6 319895361.87706      -119.753 6        39.219  
I07         0.000 7         0.00007        -0.033 7        44.844           0.000 6         0.00006        -0.070 6        40.781  
I09  36198225.336 8 142046613.77208      -101.622 8        50.938    36198220.093 7 300890919.13507      -215.354 7        45.625  
I10  38861608.703 7 152498129.15607       -60.401 7        44.062    38861602.110 6 323030361.35106      -127.698 6        38.750  
> 2025 01 25  0  2 30.0000000  0  8      -260.913782460963
I01         0.000 8         0.00008        -0.043 8        51.250           0.000 4         0.00004        -0.090 4        25.938  
I02  39050880.456 7 153240643.07907      -337.638 7        43.594    39050874.591 6 324603602.57906      -714.896 6        38.594  
I03         0.000 8         0.00008        -0.043 8        50.781           0.000 7         0.00007        -0.090 7        45.625  
I05         0.000 8         0.00008        -0.043 8        48.438           0.000 6         0.00006        -0.090 6        41.719  
I06  38484040.677 7 151016289.33907       -56.715 7        45.000    38484033.830 6 319891769.98106      -119.656 6        39.531  
I07         0.000 7         0.00007        -0.043 7        45.000           0.000 6         0.00006        -0.090 6        40.781  
I09  36197449.401 8 142043568.48808      -101.476 8        50.938    36197443.987 7 300884468.42507      -214.815 7        45.469  
I10  38861147.832 7 152496320.41707       -60.221 7        43.594    38861141.574 6 323026529.99706      -127.492 6        38.594  
> 2025 01 25  0  3  0.0000000  0  8      -261.507353003588
I01         0.000 8         0.00008        -0.078 8        51.250           0.000 3         0.00003        -0.165 3        22.969  
I02  39048295.301 7 153230499.68507      -339.013 7        43.594    39048289.607 6 324582116.20606      -717.847 6        38.750  
I03         0.000 8         0.00008        -0.078 8        50.781           0.000 7         0.00007        -0.165 7        45.625  
I05         0.000 8         0.00008        -0.078 8        48.125           0.000 6         0.00006        -0.165 6        41.719  
I06  38483609.050 7 151014594.48007       -56.396 7        44.844    38483601.944 6 319888179.82906      -119.956 6        39.531  
I07         0.000 7         0.00007        -0.078 7        45.000           0.000 6         0.00006        -0.165 6        40.781  
I09  36196675.163 8 142040530.87108      -101.317 8        50.938    36196669.650 7 300878033.96307      -214.455 7        45.312  
I10  38860686.721 7 152494512.03407       -60.336 7        43.594    38860680.641 6 323022699.38906      -128.192 6        38.750  
> 2025 01 25  0  3 30.0000000  0  8      -261.252168106466
I01         0.000 8         0.00008        -0.059 8        51.250           0.000 3         0.00003        -0.126 3        23.125  
I02  39045700.136 7 153220315.15907      -340.336 7        43.438    39045694.204 6 324560542.68806      -720.674 6        39.062  
I03         0.000 8         0.00008        -0.059 8        50.781           0.000 7         0.00007        -0.126 7        45.625  
I05         0.000 8         0.00008        -0.059 8        48.125           0.000 6         0.00006        -0.126 6        41.875  
I06  38483177.033 7 151012900.39907       -56.575 7        44.688    38483170.515 6 319884591.29006      -119.566 6        39.375  
I07         0.000 7         0.00007        -0.059 7        44.844           0.000 6         0.00006        -0.126 6        40.469  
I09  36195903.029 8 142037500.97608      -100.903 8        50.938    36195897.192 7 300871615.84907      -213.855 7        45.000  
I10  38860226.435 7 152492704.03807       -60.312 7        43.594    38860219.863 6 323018869.58506      -127.970 6        38.594  
> 2025 01 25  0  4  0.0000000  0  8      -261.376130039070
I01         0.000 8         0.00008        -0.057 8        51.250           0.000 4         0.00004        -0.121 4        25.781  
I02  39043093.928 7 153210089.83007      -341.612 7        43.438    39043088.571 6 324538882.77506      -723.361 6        38.906  
I03         0.000 8         0.00008        -0.057 8        50.625           0.000 7         0.00007        -0.121 7        45.469  
I05         0.000 8         0.00008        -0.057 8        48.281           0.000 6         0.00006        -0.121 6        41.875  
I06  38482745.716 7 151011207.18207       -56.543 7        44.688    38482739.270 6 319881004.61506      -119.797 6        39.688  
I07         0.000 7         0.00007        -0.057 7        44.844           0.000 6         0.00006        -0.121 6        40.625  
I09  36195133.013 8 142034478.88208      -100.651 8        50.938    36195127.327 7 300865214.25107      -213.305 7        45.156  
I10  38859765.402 7 152490896.41407       -60.338 7        43.594    38859759.190 6 323015040.59206      -127.846 6        38.750  
> 2025 01 25  0  4 30.0000000  0  8      -261.549488556903
I01         0.000 8         0.00008        -0.072 8        51.250           0.000 4         0.00004        -0.153 4        25.469  
I02  39040478.286 7 153199823.76707      -342.822 7        43.438    39040472.015 6 324517136.55706      -726.516 6        38.594  
I03         0.000 8         0.00008        -0.072 8        50.781           0.000 7         0.00007        -0.153 7        45.469  
I05         0.000 8         0.00008        -0.072 8        48.281           0.000 7         0.00007        -0.153 7        42.344  
I06  38482314.436 7 151009514.80507       -56.625 7        44.844    38482307.738 6 319877419.69906      -119.779 6        39.531  
I07         0.000 7         0.00007        -0.072 7        45.000           0.000 6         0.00006        -0.153 6        40.312  
I09  36194365.075 8 142031464.69408      -100.419 8        51.094    36194359.376 7 300858829.42107      -212.710 7        45.312  
I10  38859304.538 7 152489089.16807       -60.438 7        43.594    38859298.540 6 323011212.41506      -127.797 6        38.750  
> 2025 01 25  0  5  0.0000000  0  8      -262.657000714427
I01         0.000 8         0.00008        -0.046 8        51.094           0.000 4         0.00004        -0.098 4        25.312  
I02  39037851.696 7 153189517.62507      -344.320 7        43.281    39037845.543 6 324495305.44906      -729.281 6        38.594  
I03         0.000 8         0.00008        -0.046 8        50.625           0.000 7         0.00007        -0.098 7        45.469  
I05         0.000 8         0.00008        -0.046 8        48.125           0.000 7         0.00007        -0.098 7        42.500  
I06  38481882.907 7 151007823.26207       -56.653 7        44.844    38481876.303 6 319873836.55106      -119.571 6        39.844  
I07         0.000 7         0.00007        -0.046 7        44.844           0.000 6         0.00006        -0.098 6        40.156  
I09  36193598.390 8 142028458.43008       -99.956 8        51.094    36193592.644 7 300852461.35807      -211.969 7        45.469  
I10  38858843.967 7 152487282.31007       -60.260 7        43.438    38858838.082 6 323007385.05006      -127.635 6        38.906  
> 2025 01 25  0  5 30.0000000  0  8      -261.199896544968
I01         0.000 8         0.00008         0.017 8        51.094           0.000 3         0.00003         0.036 3        22.656  
I02  39035215.355 7 153179170.51307      -345.553 7        43.594    39035209.665 6 324473387.57606      -731.966 6        38.594  
I03         0.000 8         0.00008         0.017 8        50.781           0.000 7         0.00007         0.036 7        44.688  
I05         0.000 8         0.00008         0.017 8        48.125           0.000 6         0.00006         0.036 6        41.562  
I06  38481452.351 7 151006132.57607       -56.181 7        44.531    38481445.510 6 319870255.22306      -119.387 6        38.750  
I07         0.000 7         0.00007         0.017 7        44.688           0.000 6         0.00006         0.036 6        40.156  
I09  36192834.450 8 142025460.21608       -99.692 8        50.938    36192828.957 7 300846110.36507      -211.470 7        44.688  
I10  38858384.289 7 152485475.87907       -59.872 7        43.906    38858378.578 6 323003558.58206      -127.643 6        38.438  
> 2025 01 25  0  6  0.0000000  0  8      -261.313199331282
I01         0.000 8         0.00008        -0.049 8        51.094           0.000 4         0.00004        -0.104 4        24.844  
I02  39032568.399 7 153168783.14307      -346.937 7        43.594    39032562.411 6 324451384.41306      -734.816 6        38.906  
I03         0.000 8         0.00008        -0.049 8        50.781           0.000 7         0.00007        -0.104 7        45.625  
I05         0.000 8         0.00008        -0.049 8        48.438           0.000 6         0.00006        -0.104 6        41.875  
I06  38481021.839 7 151004442.76907       -56.376 7        44.844    38481015.038 6 319866675.75806      -119.333 6        39.844  
I07         0.000 7         0.00007        -0.049 7        45.000           0.000 6         0.00006        -0.104 6        40.156  
I09  36192072.983 8 142022470.11908       -99.550 8        51.094    36192067.375 7 300839776.57007      -211.007 7        45.312  
I10  38857923.792 7 152483669.87307       -60.381 7        43.438    38857918.091 6 322999733.02106      -127.767 6        39.062  
> 2025 01 25  0  6 30.0000000  0  8      -261.379535053109
I01         0.000 8         0.00008        -0.056 8        51.250           0.000 3         0.00003        -0.119 3        22.500  
I02  39029911.607 7 153158355.99907      -348.333 7        43.906    39029905.128 6 324429296.99706      -738.034 6        38.594  
I03         0.000 8         0.00008        -0.056 8        50.625           0.000 7         0.00007        -0.119 7        44.844  
I05         0.000 8         0.00008        -0.056 8        48.594           0.000 6         0.00006        -0.119 6        41.406  
I06  38480591.219 7 151002753.82407       -56.421 7        44.531    38480585.026 6 319863098.11506      -119.245 6        39.219  
I07         0.000 7         0.00007        -0.056 7        44.688           0.000 6         0.00006        -0.119 6        39.844  
I09  36191312.725 8 142019488.22808       -99.303 8        50.938    36191307.188 7 300833460.14107      -210.434 7        44.688  
I10  38857463.906 7 152481864.28907       -60.217 7        43.438    38857457.895 6 322995908.34906      -127.597 6        38.438  
> 2025 01 25  0  7  0.0000000  0  8      -261.413026463562
I01         0.000 8         0.00008        -0.115 8        51.094           0.000 4         0.00004        -0.244 4        24.062  
I02  39027243.929 7 153147888.70007      -349.708 7        43.906    39027237.694 6 324407124.52106      -740.905 6        38.750  
I03         0.000 8         0.00008        -0.115 8        50.625           0.000 7         0.00007        -0.244 7        44.844  
I05         0.000 8         0.00008        -0.115 8        48.594           0.000 6         0.00006        -0.244 6        41.250  
I06  38480161.171 7 151001065.76007       -56.532 7        44.688    38480154.576 6 319859522.33106      -119.610 6        38.750  
I07         0.000 7         0.00007        -0.115 7        44.688           0.000 6         0.00006        -0.244 6        39.688  
I09  36190555.122 8 142016514.59008       -99.149 8        50.938    36190549.452 7 300827161.21407      -209.899 7        44.688  
I10  38857003.671 7 152480059.14607       -60.450 7        43.438    38856998.058 6 322992084.61606      -127.866 6        38.594  
> 2025 01 25  0  7 30.0000000  0  8      -261.613628097750
I01         0.000 8         0.00008        -0.040 8        51.094           0.000 4         0.00004        -0.084 4        24.219  
I02  39024566.876 7 153137381.28907      -350.882 7        43.906    39024560.016 6 324384867.08406      -743.104 6        38.594  
I03         0.000 8         0.00008        -0.040 8        50.625           0.000 7         0.00007        -0.084 7        44.844  
I05         0.000 8         0.00008        -0.040 8        48.750           0.000 6         0.00006        -0.084 6        41.562  
I06  38479731.373 7 150999378.56607       -56.383 7        44.844    38479724.344 6 319855948.41606      -119.012 6        39.062  
I07         0.000 7         0.00007        -0.040 7        44.844           0.000 6         0.00006        -0.084 6        39.844  
I09  36189799.413 8 142013549.31508       -98.715 8        50.938    36189793.911 7 300820879.98907      -209.251 7        44.844  
I10  38856543.969 7 152478254.44807       -60.332 7        43.594    38856538.080 6 322988261.85906      -127.607 6        38.438  
> 2025 01 25  0  8  0.0000000  0  8      -261.264648851219
I01         0.000 8         0.00008        -0.006 8        51.094           0.000 3         0.00003        -0.013 3        23.906  
I02  39021878.960 7 153126834.11707      -351.996 7        44.219    39021872.271 6 324362525.41306      -746.108 6        38.750  
I03         0.000 8         0.00008        -0.006 8        50.625           0.000 7         0.00007        -0.013 7        44.844  
I05         0.000 8         0.00008        -0.006 8        48.906           0.000 6         0.00006        -0.013 6        41.406  
I06  38479301.951 7 150997692.24407       -55.995 7        44.688    38479295.240 6 319852376.35006      -119.166 6        39.219  
I07         0.000 7         0.00007        -0.006 7        44.688           0.000 6         0.00006        -0.013 6        39.375  
I09  36189045.766 8 142010592.47708       -98.530 8        50.938    36189040.545 7 300814616.64207      -208.432 7        44.844  
I10  38856084.067 7 152476450.21707       -60.216 7        43.281    38856078.573 6 322984440.03406      -127.449 6        38.750  
> 2025 01 25  0  8 30.0000000  0  8      -260.993788847878
I01         0.000 8         0.00008        -0.036 8        51.094           0.000 4         0.00004        -0.077 4        25.781  
I02  39019181.191 7 153116247.30207      -353.376 7        44.219    39019174.534 6 324340099.77106      -748.906 6        39.219  
I03         0.000 8         0.00008        -0.036 8        50.625           0.000 7         0.00007        -0.077 7        45.312  
I05         0.000 8         0.00008        -0.036 8        49.062           0.000 6         0.00006        -0.077 6        41.562  
I06  38478872.017 7 150996006.80607       -56.446 7        44.375    38478865.201 6 319848806.13606      -119.056 6        40.000  
I07         0.000 7         0.00007        -0.036 7        44.531           0.000 6         0.00006        -0.077 6        39.688  
I09  36188294.406 8 142007644.14908       -98.174 8        50.625    36188289.436 7 300808371.31607      -207.842 7        45.625  
I10  38855624.990 7 152474646.44007       -60.194 7        43.906    38855619.095 6 322980619.23606      -127.479 6        39.219  
> 2025 01 25  0  9  0.0000000  0  8      -261.489100566609
I01         0.000 8         0.00008        -0.030 8        51.094           0.000 3         0.00003        -0.063 3        22.344  
I02  39016473.325 7 153105620.82607      -354.732 7        44.375    39016466.616 6 324317590.11406      -751.518 6        40.000  
I03         0.000 8         0.00008        -0.030 8        50.625           0.000 7         0.00007        -0.063 7        45.312  
I05         0.000 8         0.00008        -0.030 8        48.750           0.000 6         0.00006        -0.063 6        41.719  
I06  38478442.925 7 150994322.30207       -56.272 7        44.844    38478435.736 6 319845237.88406      -118.792 6        39.688  
I07         0.000 7         0.00007        -0.030 7        44.531           0.000 6         0.00006        -0.063 6        39.844  
I09  36187545.548 8 142004704.39508       -97.911 8        50.781    36187540.090 7 300802144.16607      -207.369 7        45.469  
I10  38855165.191 7 152472843.15707       -60.223 7        43.438    38855159.301 6 322976799.43506      -127.534 6        39.219  
> 2025 01 25  0  9 30.0000000  0  8      -261.261847885582
I01         0.000 8         0.00008        -0.057 8        50.938           0.000 3         0.00003        -0.121 3        23.594  
I02  39013755.532 7 153094955.15307      -356.334 7        44.375    39013748.757 6 324294997.43906      -754.768 6        39.844  
I03         0.000 8         0.00008        -0.057 8        50.469           0.000 7         0.00007        -0.121 7        45.469  
I05         0.000 8         0.00008        -0.057 8        48.750           0.000 6         0.00006        -0.121 6        41.406  
I06  38478014.223 7 150992638.68807       -56.147 7        45.156    38478007.122 6 319841671.55206      -119.154 6        39.531  
I07         0.000 7         0.00007        -0.057 7        44.688           0.000 6         0.00006        -0.121 6        40.000  
I09  36186798.450 8 142001773.30908       -97.695 8        50.781    36186793.358 7 300795935.36007      -206.865 7        45.625  
I10  38854705.370 7 152471040.35707       -60.055 7        43.125    38854700.071 6 322972980.66806      -127.162 6        39.062  
> 2025 01 25  0 10  0.0000000  0  8      -260.917005623327
I01         0.000 8         0.00008        -0.065 8        50.938           0.000 4         0.00004        -0.138 4        25.469  
I02  39011027.330 7 153084249.94907      -357.669 7        44.375    39011020.884 6 324272321.02906      -757.447 6        39.844  
I03         0.000 8         0.00008        -0.065 8        50.625           0.000 7         0.00007        -0.138 7        45.469  
I05         0.000 8         0.00008        -0.065 8        48.438           0.000 6         0.00006        -0.138 6        41.875  
I06  38477585.149 7 150990955.98007       -56.140 7        45.312    38477578.525 6 319838107.14606      -119.020 6        39.844  
I07         0.000 7         0.00007        -0.065 7        44.688           0.000 6         0.00006        -0.138 6        39.844  
I09  36186053.791 8 141998850.98108       -97.473 8        50.781    36186048.643 7 300789745.09907      -206.062 7        45.625  
I10  38854246.207 7 152469238.06207       -60.053 7        43.125    38854241.039 6 322969162.98406      -127.459 6        39.375  
> 2025 01 25  0 10 30.0000000  0  8      -260.976550009233
I01         0.000 8         0.00008        -0.017 8        51.094           0.000 4         0.00004        -0.036 4        25.000  
I02  39008289.440 7 153073505.75107      -359.002 7        44.219    39008283.008 6 324249561.99906      -759.962 6        39.688  
I03         0.000 8         0.00008        -0.017 8        50.625           0.000 7         0.00007        -0.036 7        45.312  
I05         0.000 8         0.00008        -0.017 8        48.594           0.000 6         0.00006        -0.036 6        41.406  
I06  38477156.095 7 150989274.19607       -55.930 7        44.844    38477149.282 6 319834544.68106      -118.735 6        39.219  
I07         0.000 7         0.00007        -0.017 7        44.688           0.000 6         0.00006        -0.036 6        39.375  
I09  36185311.411 8 141995937.49208       -96.904 8        50.781    36185306.252 7 300783573.57107      -205.457 7        45.469  
I10  38853787.102 7 152467436.26307       -59.879 7        43.438    38853782.050 6 322965346.35706      -127.456 6        39.062  
> 2025 01 25  0 11  0.0000000  0  8      -260.881100899042
I01         0.000 8         0.00008         0.017 8        51.094           0.000 4         0.00004         0.036 4        24.688  
I02  39005541.529 7 153062722.70207      -359.940 7        44.531    39005535.037 6 324226720.72106      -762.790 6        39.844  
I03         0.000 8         0.00008         0.017 8        50.625           0.000 7         0.00007         0.036 7        45.156  
I05         0.000 8         0.00008         0.017 8        48.594           0.000 6         0.00006         0.036 6        41.250  
I06  38476728.280 7 150987593.35307       -55.977 7        45.000    38476721.149 6 319830984.19806      -118.606 6        39.375  
I07         0.000 7         0.00007         0.017 7        44.375           0.000 6         0.00006         0.036 6        39.375  
I09  36184571.187 8 141993032.93408       -96.573 8        50.625    36184566.208 7 300777420.94607      -204.696 7        45.625  
I10  38853328.065 7 152465635.00107       -59.922 7        43.438    38853323.446 6 322961530.85006      -126.922 6        39.062  
> 2025 01 25  0 11 30.0000000  0  8      -261.314986201536
I01         0.000 8         0.00008        -0.006 8        50.938           0.000 4         0.00004        -0.012 4        24.062  
I02  39002783.814 7 153051900.69307      -361.359 7        44.375    39002777.171 6 324203796.88406      -765.608 6        39.531  
I03         0.000 8         0.00008        -0.006 8        50.469           0.000 7         0.00007        -0.012 7        44.688  
I05         0.000 8         0.00008        -0.006 8        48.750           0.000 6         0.00006        -0.012 6        40.625  
I06  38476300.167 7 150985913.42107       -55.890 7        45.156    38476292.882 6 319827425.66806      -118.676 6        38.750  
I07         0.000 7         0.00007        -0.006 7        44.375           0.000 6         0.00006        -0.012 6        39.062  
I09  36183833.199 8 141990137.35608       -96.307 8        50.625    36183828.226 7 300771287.34107      -204.076 7        45.156  
I10  38852869.194 7 152463834.25207       -60.008 7        43.281    38852863.972 6 322957716.43106      -126.994 6        38.594  
> 2025 01 25  0 12  0.0000000  0  8      -261.538904051876
I01         0.000 8         0.00008        -0.102 8        50.938           0.000 4         0.00004        -0.216 4        24.375  
I02  39000016.315 7 153041039.96307      -362.628 7        44.219    39000009.664 6 324180791.03206      -768.860 6        40.469  
I03         0.000 8         0.00008        -0.102 8        50.469           0.000 7         0.00007        -0.216 7        45.156  
I05         0.000 8         0.00008        -0.102 8        49.062           0.000 6         0.00006        -0.216 6        40.625  
I06  38475872.030 7 150984234.45507       -56.207 7        45.156    38475864.957 6 319823869.16506      -118.756 6        39.062  
I07         0.000 7         0.00007        -0.102 7        44.375           0.000 6         0.00006        -0.216 6        39.688  
I09  36183097.593 8 141987250.88808       -96.131 8        50.625    36183092.672 7 300765173.04707      -203.612 7        45.469  
I10  38852410.291 7 152462034.05807       -60.313 7        43.281    38852405.076 6 322953903.17406      -127.704 6        38.906  
> 2025 01 25  0 12 30.0000000  0  8      -261.897891279133
I01         0.000 8         0.00008        -0.044 8        50.938           0.000 4         0.00004        -0.094 4        24.688  
I02  38997238.608 7 153030140.23307      -363.958 7        44.531    38997231.855 6 324157702.56106      -771.143 6        40.000  
I03         0.000 8         0.00008        -0.044 8        50.469           0.000 7         0.00007        -0.094 7        45.312  
I05         0.000 8         0.00008        -0.044 8        49.062           0.000 6         0.00006        -0.094 6        40.938  
I06  38475444.887 7 150982556.43807       -55.940 7        45.312    38475437.256 6 319820314.70006      -118.930 6        39.375  
I07         0.000 7         0.00007        -0.044 7        44.531           0.000 6         0.00006        -0.094 6        39.375  
I09  36182364.326 8 141984373.57908       -95.757 8        50.625    36182359.109 7 300759078.15107      -202.963 7        45.312  
I10  38851952.077 7 152460234.40307       -60.019 7        43.438    38851946.727 6 322950091.08106      -127.046 6        39.062  
> 2025 01 25  0 13  0.0000000  0  8      -267.581898148872
I01         0.000 8         0.00008        -0.010 8        50.938           0.000 3         0.00003        -0.021 3        22.812  
I02  38994450.928 7 153019201.96107      -365.112 7        44.375    38994442.909 6 324134532.78506      -773.860 6        40.000  
I03         0.000 8         0.00008        -0.010 8        50.469           0.000 7         0.00007        -0.021 7        45.156  
I05         0.000 8         0.00008        -0.010 8        49.062           0.000 6         0.00006        -0.021 6        41.250  
I06  38475015.333 7 150980879.08407       -55.777 7        45.000    38475008.035 6 319816761.93206      -118.571 6        38.906  
I07         0.000 7         0.00007        -0.010 7        44.375           0.000 6         0.00006        -0.021 6        39.375  
I09  36181631.047 8 141981505.20308       -95.430 8        50.625    36181627.012 7 300753002.49307      -202.196 7        45.625  
I10  38851491.968 7 152458435.00407       -59.897 7        43.594    38851486.367 6 322946279.86006      -127.045 6        39.062  
> 2025 01 25  0 13 30.0000000  0  8      -262.628747283371
I01         0.000 8         0.00008         0.069 8        50.938           0.000 3         0.00003         0.146 3        22.969  
I02  38991654.166 7 153008226.10607      -366.246 7        44.531    38991647.178 6 324111282.73106      -776.288 6        40.156  
I03         0.000 8         0.00008         0.069 8        50.469           0.000 7         0.00007         0.146 7        45.156  
I05         0.000 8         0.00008         0.069 8        49.219           0.000 6         0.00006         0.146 6        41.875  
I06  38474589.999 7 150979203.27007       -55.653 7        45.156    38474582.890 6 319813211.79106      -118.132 6        39.219  
I07         0.000 7         0.00007         0.069 7        44.531           0.000 6         0.00006         0.146 6        39.531  
I09  36180905.070 8 141978646.76708       -95.065 8        50.625    36180899.755 7 300746947.25107      -201.130 7        45.625  
I10  38851035.066 7 152456636.76307       -59.520 7        43.438    38851029.648 6 322942470.42906      -126.754 6        39.219  
> 2025 01 25  0 14  0.0000000  0  8      -262.548448308423
I01         0.000 8         0.00008        -0.079 8        50.781           0.000 4         0.00004        -0.168 4        24.531  
I02  38988847.899 7 152997211.75007      -367.918 7        44.688    38988840.517 6 324087951.44806      -779.401 6        39.688  
I03         0.000 8         0.00008        -0.079 8        50.469           0.000 7         0.00007        -0.168 7        44.531  
I05         0.000 8         0.00008        -0.079 8        49.219           0.000 6         0.00006        -0.168 6        41.406  
I06  38474163.401 7 150977528.11007       -55.907 7        45.312    38474155.598 6 319809663.36206      -118.485 6        38.594  
I07         0.000 7         0.00007        -0.079 7        44.531           0.000 6         0.00006        -0.168 6        38.906  
I09  36180178.892 8 141975797.40008       -94.947 8        50.625    36180173.721 7 300740911.56107      -201.094 7        44.844  
I10  38850577.102 7 152454838.81207       -60.225 7        43.438    38850571.523 6 322938661.93706      -126.854 6        38.750  
> 2025 01 25  0 14 30.0000000  0  8      -263.184382186495
I01         0.000 8         0.00008         0.044 8        50.781           0.000 3         0.00003         0.092 3        22.344  
I02  38986031.301 7 152986159.07407      -368.928 7        44.688    38986024.124 6 324064539.00106      -781.523 6        40.469  
I03         0.000 8         0.00008         0.044 8        50.469           0.000 7         0.00007         0.092 7        45.312  
I05         0.000 8         0.00008         0.044 8        49.219           0.000 7         0.00007         0.092 7        42.500  
I06  38473736.796 7 150975853.95307       -55.671 7        45.469    38473729.025 6 319806117.05706      -117.992 6        39.062  
I07         0.000 7         0.00007         0.044 7        44.688           0.000 6         0.00006         0.092 6        39.688  
I09  36179455.187 8 141972957.53408       -94.378 8        50.625    36179449.781 7 300734895.99707      -200.060 7        45.156  
I10  38850118.886 7 152453041.42107       -59.723 7        43.281    38850113.156 6 322934854.65506      -126.530 6        38.906  
> 2025 01 25  0 15  0.0000000  0  8      -263.155614996030
I01         0.000 8         0.00008        -0.094 8        50.938           0.000 4         0.00004        -0.199 4        25.781  
I02  38983204.705 7 152975068.52207      -370.493 7        44.531    38983197.635 6 324041046.29306      -784.706 6        39.688  
I03         0.000 8         0.00008        -0.094 8        50.469           0.000 7         0.00007        -0.199 7        44.844  
I05         0.000 8         0.00008        -0.094 8        49.062           0.000 6         0.00006        -0.199 6        41.875  
I06  38473309.863 7 150974180.78007       -55.922 7        45.156    38473302.405 6 319802572.84106      -118.437 6        38.125  
I07         0.000 7         0.00007        -0.094 7        44.688           0.000 6         0.00006        -0.199 6        39.062  
I09  36178734.133 8 141970127.28308       -94.372 8        50.781    36178728.920 7 300728900.76707      -199.706 7        44.844  
I10  38849661.302 7 152451244.64807       -59.956 7        43.750    38849655.721 6 322931048.64806      -127.360 6        38.594  
> 2025 01 25  0 15 30.0000000  0  8      -263.325056765891
I01         0.000 8         0.00008         0.032 8        50.938           0.000 4         0.00004         0.068 4        25.312  
I02  38980369.340 7 152963940.31007      -371.377 7        44.844    38980361.675 6 324017473.84106      -786.832 6        40.312  
I03         0.000 8         0.00008         0.032 8        50.469           0.000 7         0.00007         0.068 7        45.156  
I05         0.000 8         0.00008         0.032 8        49.062           0.000 7         0.00007         0.068 7        42.188  
I06  38472884.282 7 150972508.58607       -55.605 7        45.312    38472876.295 6 319799030.70506      -117.894 6        39.219  
I07         0.000 7         0.00007         0.032 7        44.531           0.000 6         0.00006         0.068 6        39.375  
I09  36178015.241 8 141967306.66308       -93.699 8        50.625    36178009.890 7 300722925.94207      -198.761 7        45.156  
I10  38849203.677 7 152449448.46407       -59.827 7        43.281    38849197.749 6 322927243.90806      -126.683 6        39.219  
> 2025 01 25  0 16  0.0000000  0  8      -263.958176528267
I01         0.000 8         0.00008        -0.002 8        50.938           0.000 4         0.00004        -0.005 4        24.688  
I02  38977523.729 7 152952774.04907      -372.808 7        45.000    38977515.965 6 323993820.79306      -789.936 6        40.000  
I03         0.000 8         0.00008        -0.002 8        50.469           0.000 7         0.00007        -0.005 7        45.312  
I05         0.000 8         0.00008        -0.002 8        48.750           0.000 7         0.00007        -0.005 7        42.500  
I06  38472458.078 7 150970837.40907       -55.570 7        45.000    38472449.716 6 319795490.70306      -118.082 6        38.750  
I07         0.000 7         0.00007        -0.002 7        44.844           0.000 6         0.00006        -0.005 6        39.531  
I09  36177298.871 8 141964495.81008       -93.698 8        50.469    36177293.432 7 300716971.81707      -198.150 7        45.312  
I10  38848746.254 7 152447652.90507       -59.462 7        43.594    38848740.469 6 322923440.48206      -126.693 6        39.219  
> 2025 01 25  0 16 30.0000000  0  8      -264.075241306274
I01         0.000 8         0.00008        -0.021 8        50.938           0.000 4         0.00004        -0.044 4        26.875  
I02  38974668.512 7 152941570.40907      -374.030 7        45.000    38974661.485 6 323970088.58406      -792.365 6        40.312  
I03         0.000 8         0.00008        -0.021 8        50.469           0.000 7         0.00007        -0.044 7        45.156  
I05         0.000 8         0.00008        -0.021 8        48.906           0.000 7         0.00007        -0.044 7        42.031  
I06  38472032.955 7 150969167.20007       -55.584 7        45.469    38472024.727 6 319791952.74606      -118.046 6        39.062  
I07         0.000 7         0.00007        -0.021 7        44.688           0.000 6         0.00006        -0.044 6        39.375  
I09  36176585.031 8 141961694.75808       -93.256 8        50.469    36176579.547 7 300711038.45807      -197.497 7        45.000  
I10  38848288.399 7 152445857.97107       -59.748 7        43.438    38848282.679 6 322919638.38506      -126.964 6        39.219  
> 2025 01 25  0 17  0.0000000  0  8      -268.124638473371
I01         0.000 8         0.00008        -0.028 8        51.094           0.000 4         0.00004        -0.060 4        27.188  
I02  38971803.318 7 152930329.41807      -375.182 7        44.688    38971795.366 6 323946277.23106      -794.869 6        39.844  
I03         0.000 8         0.00008        -0.028 8        50.469           0.000 7         0.00007        -0.060 7        45.312  
I05         0.000 8         0.00008        -0.028 8        48.906           0.000 6         0.00006        -0.060 6        41.719  
I06  38471605.996 7 150967497.99607       -55.744 7        45.312    38471597.655 6 319788416.91106      -118.071 6        38.750  
I07         0.000 7         0.00007        -0.028 7        45.000           0.000 6         0.00006        -0.060 6        39.531  
I09  36175873.450 8 141958903.60908       -92.840 8        50.469    36175867.157 7 300705126.06607      -196.797 7        45.312  
I10  38847830.485 7 152444063.66707       -59.899 7        43.594    38847824.312 6 322915837.62806      -126.807 6        39.062  
> 2025 01 25  0 17 30.0000000  0  8      -264.243093758100
I01         0.000 8         0.00008        -0.059 8        51.094           0.000 4         0.00004        -0.125 4        24.062  
I02  38968929.957 7 152919051.20707      -376.669 7        44.688    38968922.477 6 323922387.04206      -797.809 6        39.531  
I03         0.000 8         0.00008        -0.059 8        50.469           0.000 7         0.00007        -0.125 7        45.312  
I05         0.000 8         0.00008        -0.059 8        48.594           0.000 6         0.00006        -0.125 6        41.875  
I06  38471182.049 7 150965829.82007       -55.591 7        45.312    38471174.312 6 319784883.27206      -117.899 6        38.594  
I07         0.000 7         0.00007        -0.059 7        45.156           0.000 6         0.00006        -0.125 6        39.375  
I09  36175164.986 8 141956122.49508       -92.537 8        50.312    36175159.622 7 300699234.95007      -196.202 7        45.156  
I10  38847374.577 7 152442270.01207       -60.067 7        43.594    38847368.683 6 322912038.22806      -126.732 6        39.531  
> 2025 01 25  0 18  0.0000000  0  8      -264.270333783429
I01         0.000 8         0.00008        -0.034 8        50.938           0.000 4         0.00004        -0.072 4        25.312  
I02  38966046.425 7 152907735.93607      -377.694 7        44.688    38966038.795 6 323898418.34906      -800.566 6        40.000  
I03         0.000 8         0.00008        -0.034 8        50.469           0.000 7         0.00007        -0.072 7        45.156  
I05         0.000 8         0.00008        -0.034 8        48.438           0.000 6         0.00006        -0.072 6        41.875  
I06  38470757.003 7 150964162.67007       -55.569 7        45.156    38470749.629 6 319781351.80106      -117.577 6        39.219  
I07         0.000 7         0.00007        -0.034 7        45.000           0.000 6         0.00006        -0.072 6        39.531  
I09  36174459.047 8 141953351.43808       -92.257 8        50.312    36174453.465 7 300693365.12007      -195.354 7        45.156  
I10  38846917.738 7 152440477.00907       -59.968 7        43.750    38846911.610 6 322908240.24706      -126.544 6        39.375  
> 2025 01 25  0 18 30.0000000  0  8      -264.282180927096
I01         0.000 8         0.00008        -0.037 8        50.938           0.000 4         0.00004        -0.079 4        25.312  
I02  38963153.321 7 152896383.21907      -379.124 7        44.688    38963145.990 6 323874370.35706      -802.930 6        39.844  
I03         0.000 8         0.00008        -0.037 8        50.469           0.000 7         0.00007        -0.079 7        45.156  
I05         0.000 8         0.00008        -0.037 8        48.438           0.000 7         0.00007        -0.079 7        42.344  
I06  38470333.007 7 150962496.54607       -55.704 7        45.625    38470324.717 6 319777822.52606      -117.569 6        39.219  
I07         0.000 7         0.00007        -0.037 7        45.000           0.000 6         0.00006        -0.079 6        39.375  
I09  36173755.427 8 141950590.54508       -91.869 8        50.156    36173749.940 7 300687516.84207      -194.513 7        45.156  
I10  38846460.626 7 152438684.66207       -59.862 7        43.594    38846455.306 6 322904443.63706      -126.411 6        39.219  
> 2025 01 25  0 19  0.0000000  0  8      -264.565624626511
I01         0.000 8         0.00008        -0.039 8        51.094           0.000 3         0.00003        -0.083 3        21.875  
I02  38960251.133 7 152884993.42207      -380.270 7        44.531    38960243.421 6 323850243.81306      -805.531 6        39.375  
I03         0.000 8         0.00008        -0.039 8        50.312           0.000 7         0.00007        -0.083 7        44.688  
I05         0.000 8         0.00008        -0.039 8        48.594           0.000 6         0.00006        -0.083 6        41.406  
I06  38469908.537 7 150960831.46207       -55.540 7        45.625    38469900.726 6 319774295.43806      -117.285 6        38.594  
I07         0.000 7         0.00007        -0.039 7        45.000           0.000 6         0.00006        -0.083 6        38.750  
I09  36173054.400 8 141947839.90908       -91.594 8        50.156    36173048.963 7 300681690.28707      -194.044 7        44.531  
I10  38846004.327 7 152436892.99807       -59.825 7        43.750    38845998.160 6 322900648.46406      -126.708 6        37.969  
> 2025 01 25  0 19 30.0000000  0  8      -264.361858335761
I01         0.000 8         0.00008        -0.053 8        51.094           0.000 4         0.00004        -0.111 4        24.531  
I02  38957339.061 7 152873567.45207      -381.532 7        44.375    38957332.154 6 323826040.62606      -808.298 6        40.156  
I03         0.000 8         0.00008        -0.053 8        50.312           0.000 7         0.00007        -0.111 7        45.156  
I05         0.000 8         0.00008        -0.053 8        48.750           0.000 6         0.00006        -0.111 6        41.719  
I06  38469484.191 7 150959167.43207       -55.561 7        45.312    38469476.489 6 319770770.59906      -117.554 6        40.000  
I07         0.000 7         0.00007        -0.053 7        45.156           0.000 6         0.00006        -0.111 6        39.375  
I09  36172356.188 8 141945099.57208       -91.161 8        50.312    36172350.722 7 300675885.54607      -193.284 7        44.844  
I10  38845548.336 7 152435102.00407       -59.774 7        43.906    38845541.974 6 322896854.73506      -126.669 6        38.750  
> 2025 01 25  0 20  0.0000000  0  8      -263.371053944419
I01         0.000 8         0.00008         0.012 8        51.562           0.000 3         0.00003         0.026 3        21.719  
I02  38954418.167 7 152862104.45607      -382.586 7        44.688    38954410.971 6 323801759.05606      -810.822 6        40.156  
I03         0.000 8         0.00008         0.012 8        50.312           0.000 7         0.00007         0.026 7        45.000  
I05         0.000 8         0.00008         0.012 8        48.594           0.000 6         0.00006         0.026 6        41.719  
I06  38469060.887 7 150957504.44107       -55.302 7        45.469    38469053.172 6 319767247.92306      -117.620 6        39.531  
I07         0.000 7         0.00007         0.012 7        45.156           0.000 6         0.00006         0.026 6        39.375  
I09  36171660.591 8 141942369.70808       -90.856 8        50.312    36171655.315 7 300670102.97407      -192.379 7        45.156  
I10  38845092.220 7 152433311.71107       -59.383 7        43.906    38845085.793 6 322893062.47306      -126.016 6        38.594  
> 2025 01 25  0 20 30.0000000  0  8      -263.510755040461
I01         0.000 8         0.00008        -0.003 8        51.875           0.000 4         0.00004        -0.005 4        25.781  
I02  38951488.013 7 152850605.03207      -383.873 7        44.844    38951480.925 6 323777400.28806      -812.910 6        40.938  
I03         0.000 8         0.00008        -0.003 8        50.469           0.000 7         0.00007        -0.005 7        45.312  
I05         0.000 8         0.00008        -0.003 8        48.750           0.000 6         0.00006        -0.005 6        41.562  
I06  38468637.629 7 150955842.53907       -55.272 7        45.625    38468629.732 6 319763727.57606      -117.140 6        39.688  
I07         0.000 7         0.00007        -0.003 7        45.156           0.000 6         0.00006        -0.005 6        39.219  
I09  36170967.703 8 141939650.35208       -90.416 8        50.312    36170962.607 7 300664342.65607      -191.680 7        45.625  
I10  38844635.648 7 152431522.12807       -59.942 7        43.438    38844629.342 6 322889271.69206      -126.095 6        38.750  
> 2025 01 25  0 21  0.0000000  0  8      -263.826784672632
I01         0.000 8         0.00008        -0.021 8        51.719           0.000 4         0.00004        -0.043 4        25.781  
I02  38948548.570 7 152839069.71907      -385.186 7        44.688    38948540.794 6 323752965.48906      -815.880 6        40.312  
I03         0.000 8         0.00008        -0.021 8        50.312           0.000 7         0.00007        -0.043 7        45.156  
I05         0.000 8         0.00008        -0.021 8        49.062           0.000 6         0.00006        -0.043 6        41.719  
I06  38468213.867 7 150954181.67807       -55.229 7        45.469    38468206.494 6 319760209.43406      -117.101 6        39.844  
I07         0.000 7         0.00007        -0.021 7        45.156           0.000 6         0.00006        -0.043 6        39.062  
I09  36170277.275 8 141936941.60608       -90.218 8        50.469    36170272.009 7 300658604.82307      -190.942 7        45.312  
I10  38844180.404 7 152429733.24407       -59.600 7        43.750    38844173.738 6 322885482.42906      -126.335 6        38.594  
> 2025 01 25  0 21 30.0000000  0  8      -263.684776534991
I01         0.000 8         0.00008        -0.008 8        51.719           0.000 4         0.00004        -0.017 4        25.312  
I02  38945599.699 7 152827498.08607      -386.108 7        44.688    38945592.246 6 323728453.77806      -818.393 6        40.625  
I03         0.000 8         0.00008        -0.008 8        50.469           0.000 7         0.00007        -0.017 7        45.312  
I05         0.000 8         0.00008        -0.008 8        49.219           0.000 6         0.00006        -0.017 6        41.406  
I06  38467791.317 7 150952521.87207       -55.521 7        45.625    38467783.597 6 319756693.52706      -117.131 6        39.531  
I07         0.000 7         0.00007        -0.008 7        45.312           0.000 6         0.00006        -0.017 6        38.906  
I09  36169589.685 8 141934243.55208       -89.633 8        50.312    36169584.775 7 300652889.64007      -190.188 7        45.625  
I10  38843724.619 7 152427945.07207       -59.465 7        43.594    38843717.894 6 322881694.68106      -126.413 6        38.750  
> 2025 01 25  0 22  0.0000000  0  8      -263.372151540966
I01         0.000 8         0.00008        -0.061 8        51.719           0.000 4         0.00004        -0.129 4        26.250  
I02  38942641.981 7 152815890.63507      -387.537 7        44.688    38942634.207 6 323703866.17806      -821.150 6        39.844  
I03         0.000 8         0.00008        -0.061 8        50.312           0.000 7         0.00007        -0.129 7        44.688  
I05         0.000 8         0.00008        -0.061 8        49.219           0.000 6         0.00006        -0.129 6        41.406  
I06  38467368.783 7 150950863.16707       -55.294 7        45.625    38467360.717 6 319753179.94506      -117.208 6        38.906  
I07         0.000 7         0.00007        -0.061 7        45.312           0.000 6         0.00006        -0.129 6        38.438  
I09  36168904.991 8 141931556.25108       -89.511 8        50.312    36168900.109 7 300647197.24207      -189.506 7        45.156  
I10  38843269.274 7 152426157.65307       -59.616 7        43.594    38843262.630 6 322877908.50106      -126.742 6        37.812  
> 2025 01 25  0 22 30.0000000  0  8      -263.626623706763
I01         0.000 8         0.00008        -0.049 8        51.562           0.000 4         0.00004        -0.105 4        26.250  
I02  38939674.756 7 152804246.79307      -388.817 7        44.688    38939667.091 6 323679201.49006      -823.557 6        40.312  
I03         0.000 8         0.00008        -0.049 8        50.469           0.000 7         0.00007        -0.105 7        45.312  
I05         0.000 8         0.00008        -0.049 8        49.062           0.000 6         0.00006        -0.105 6        41.875  
I06  38466945.774 7 150949205.53007       -55.221 7        45.469    38466938.275 6 319749668.62806      -117.258 6        39.219  
I07         0.000 7         0.00007        -0.049 7        45.469           0.000 6         0.00006        -0.105 6        38.594  
I09  36168223.059 8 141928879.81608       -89.060 8        50.469    36168217.938 7 300641527.83807      -188.767 7        45.469  
I10  38842814.055 7 152424370.97007       -59.582 7        44.062    38842807.162 6 322874123.88906      -126.370 6        38.594  
> 2025 01 25  0 23  0.0000000  0  8      -263.179805136573
I01         0.000 8         0.00008        -0.074 8        51.719           0.000 4         0.00004        -0.157 4        25.156  
I02  38936698.417 7 152792567.15807      -390.047 7        44.688    38936691.016 6 323654460.98906      -826.498 6        39.844  
I03         0.000 8         0.00008        -0.074 8        50.469           0.000 7         0.00007        -0.157 7        45.156  
I05         0.000 8         0.00008        -0.074 8        48.906           0.000 6         0.00006        -0.157 6        41.875  
I06  38466524.028 7 150947548.97707       -55.359 7        45.469    38466516.408 6 319746159.62806      -117.106 6        39.688  
I07         0.000 7         0.00007        -0.074 7        45.156           0.000 6         0.00006        -0.157 6        38.750  
I09  36167543.754 8 141926214.34608       -88.855 8        50.312    36167538.856 7 300635881.68307      -187.965 7        45.781  
I10  38842359.237 7 152422585.03207       -59.370 7        43.750    38842351.689 6 322870340.86106      -126.446 6        38.594  
> 2025 01 25  0 23 30.0000000  0  8      -263.447701098636
I01         0.000 8         0.00008        -0.058 8        51.719           0.000 3         0.00003        -0.123 3        22.500  
I02  38933713.122 7 152780851.86007      -391.136 7        44.531    38933705.654 6 323629644.92406      -828.528 6        39.219  
I03         0.000 8         0.00008        -0.058 8        50.469           0.000 7         0.00007        -0.123 7        44.531  
I05         0.000 8         0.00008        -0.058 8        48.750           0.000 6         0.00006        -0.123 6        40.938  
I06  38466101.965 7 150945893.54407       -55.275 7        45.312    38466094.165 6 319742652.99106      -117.084 6        39.062  
I07         0.000 7         0.00007        -0.058 7        45.312           0.000 6         0.00006        -0.123 6        38.281  
I09  36166867.489 8 141923559.91608       -88.364 8        50.469    36166862.309 7 300630258.92407      -187.068 7        45.000  
I10  38841903.986 7 152420799.87007       -59.743 7        44.062    38841897.100 6 322866559.46806      -126.106 6        38.125  
> 2025 01 25  0 24  0.0000000  0  8      -263.089008742731
I01         0.000 8         0.00008        -0.018 8        51.562           0.000 4         0.00004        -0.037 4        25.781  
I02  38930718.768 7 152769101.43307      -392.299 7        44.688    38930711.171 6 323604754.47806      -830.918 6        38.906  
I03         0.000 8         0.00008        -0.018 8        50.312           0.000 7         0.00007        -0.037 7        44.531  
I05         0.000 8         0.00008        -0.018 8        48.906           0.000 6         0.00006        -0.037 6        41.562  
I06  38465680.610 7 150944239.21807       -55.058 7        45.469    38465672.936 6 319739148.68006      -116.905 6        39.219  
I07         0.000 7         0.00007        -0.018 7        45.312           0.000 6         0.00006        -0.037 6        38.125  
I09  36166193.941 8 141920916.59008       -87.942 8        50.469    36166188.683 7 300624659.67907      -186.305 7        45.156  
I10  38841449.494 7 152419015.45707       -59.448 7        44.062    38841442.085 6 322862779.69106      -125.970 6        37.969  
> 2025 01 25  0 24 30.0000000  0  8      -263.077594606612
I01         0.000 8         0.00008         0.002 8        51.406           0.000 3         0.00003         0.003 3        22.500  
I02  38927715.325 7 152757315.05807      -393.345 7        44.219    38927707.666 6 323579787.86806      -833.380 6        39.688  
I03         0.000 8         0.00008         0.002 8        50.469           0.000 7         0.00007         0.003 7        45.156  
I05         0.000 8         0.00008         0.002 8        48.750           0.000 6         0.00006         0.003 6        41.562  
I06  38465259.252 7 150942585.97007       -54.930 7        45.469    38465251.975 6 319735646.68206      -116.723 6        40.000  
I07         0.000 7         0.00007         0.002 7        45.312           0.000 6         0.00006         0.003 6        38.438  
I09  36165522.951 8 141918284.47108       -87.627 8        50.469    36165517.969 7 300619084.15407      -185.489 7        45.625  
I10  38840995.043 7 152417231.83407       -59.362 7        44.062    38840987.758 6 322859001.57006      -125.891 6        38.281  
> 2025 01 25  0 25  0.0000000  0  8      -262.930663218043
I01         0.000 8         0.00008        -0.046 8        51.719           0.000 3         0.00003        -0.097 3        22.812  
I02  38924702.487 7 152745493.49107      -394.767 7        44.219    38924695.374 6 323554746.73006      -836.301 6        39.688  
I03         0.000 8         0.00008        -0.046 8        50.469           0.000 7         0.00007        -0.097 7        45.000  
I05         0.000 8         0.00008        -0.046 8        48.906           0.000 6         0.00006        -0.097 6        41.719  
I06  38464838.085 7 150940933.86307       -55.042 7        45.312    38464830.998 6 319732147.08606      -116.752 6        40.000  
I07         0.000 7         0.00007        -0.046 7        45.312           0.000 6         0.00006        -0.097 6        38.750  
I09  36164855.272 8 141915663.66508       -87.262 8        50.625    36164850.069 7 300613532.61007      -184.719 7        45.469  
I10  38840540.990 7 152415449.01807       -59.409 7        44.062    38840533.750 6 322855225.15506      -125.829 6        38.438  
> 2025 01 25  0 25 30.0000000  0  8      -262.817357129459
I01         0.000 8         0.00008        -0.133 8        51.562           0.000 3         0.00003        -0.282 3        20.156  
I02  38921681.326 7 152733636.83707      -395.874 7        44.375    38921674.113 6 323529631.25306      -839.402 6        39.062  
I03         0.000 8         0.00008        -0.133 8        50.469           0.000 7         0.00007        -0.282 7        45.312  
I05         0.000 8         0.00008        -0.133 8        48.750           0.000 6         0.00006        -0.282 6        41.250  
I06  38464417.616 7 150939282.86407       -55.199 7        45.312    38464409.879 6 319728649.83706      -116.847 6        39.844  
I07         0.000 7         0.00007        -0.133 7        45.156           0.000 6         0.00006        -0.282 6        38.125  
I09  36164190.412 8 141913054.25408       -87.018 8        50.781    36164185.150 7 300608005.20607      -184.200 7        45.469  
I10  38840086.838 7 152413666.99107       -59.700 7        44.062    38840079.612 6 322851450.39506      -126.396 6        38.281  
> 2025 01 25  0 26  0.0000000  0  8      -263.355292093788
I01         0.000 8         0.00008        -0.043 8        51.250           0.000 4         0.00004        -0.091 4        24.375  
I02  38918650.673 7 152721745.00607      -397.216 7        44.219    38918643.455 6 323504441.22706      -841.035 6        39.219  
I03         0.000 8         0.00008        -0.043 8        50.469           0.000 7         0.00007        -0.091 7        45.156  
I05         0.000 8         0.00008        -0.043 8        49.062           0.000 6         0.00006        -0.091 6        41.562  
I06  38463996.911 7 150937633.02007       -55.003 7        45.156    38463989.490 6 319725155.04306      -116.416 6        40.000  
I07         0.000 7         0.00007        -0.043 7        45.312           0.000 6         0.00006        -0.091 6        38.438  
I09  36163528.526 8 141910456.30708       -86.445 8        50.781    36163523.160 7 300602502.10007      -183.085 7        45.625  
I10  38839633.218 7 152411885.76607       -59.330 7        44.375    38839625.466 6 322847677.36006      -125.856 6        38.438  
> 2025 01 25  0 26 30.0000000  0  8      -263.262935120676
I01         0.000 8         0.00008        -0.089 8        51.250           0.000 4         0.00004        -0.188 4        25.156  
I02  38915611.748 7 152709818.50807      -398.136 7        44.531    38915604.320 6 323479177.82106      -843.785 6        39.062  
I03         0.000 8         0.00008        -0.089 8        50.469           0.000 7         0.00007        -0.188 7        45.156  
I05         0.000 8         0.00008        -0.089 8        48.750           0.000 6         0.00006        -0.188 6        41.250  
I06  38463576.669 7 150935984.33407       -55.179 7        45.312    38463569.675 6 319721662.67306      -116.555 6        40.000  
I07         0.000 7         0.00007        -0.089 7        45.312           0.000 6         0.00006        -0.188 6        38.125  
I09  36162869.424 8 141907869.93408       -86.121 8        50.625    36162863.718 7 300597023.51607      -182.261 7        45.312  
I10  38839179.238 7 152410105.36507       -59.589 7        44.062    38839171.956 6 322843906.07206      -126.138 6        38.281  
> 2025 01 25  0 27  0.0000000  0  8      -262.594700448356
I01         0.000 8         0.00008         0.015 8        51.250           0.000 4         0.00004         0.031 4        24.844  
I02  38912563.730 7 152697857.30207      -399.188 7        44.375    38912556.488 6 323453840.89206      -845.547 6        38.906  
I03         0.000 8         0.00008         0.015 8        50.469           0.000 7         0.00007         0.031 7        45.000  
I05         0.000 8         0.00008         0.015 8        49.062           0.000 6         0.00006         0.031 6        41.562  
I06  38463156.986 7 150934336.77007       -54.865 7        45.469    38463150.040 6 319718172.70706      -116.276 6        39.688  
I07         0.000 7         0.00007         0.015 7        45.156           0.000 6         0.00006         0.031 6        38.281  
I09  36162213.412 8 141905295.20308       -85.579 8        50.625    36162207.817 7 300591569.57507      -181.341 7        45.312  
I10  38838726.006 7 152408325.78507       -59.139 7        44.375    38838718.734 6 322840136.53706      -125.568 6        38.438  
> 2025 01 25  0 27 30.0000000  0  8      -262.950115559835
I01         0.000 8         0.00008        -0.053 8        51.250           0.000 4         0.00004        -0.112 4        24.375  
I02  38909506.877 7 152685861.31107      -400.427 7        44.531    38909499.572 6 323428430.26406      -848.764 6        38.438  
I03         0.000 8         0.00008        -0.053 8        50.625           0.000 7         0.00007        -0.112 7        44.844  
I05         0.000 8         0.00008        -0.053 8        49.062           0.000 6         0.00006        -0.112 6        41.875  
I06  38462737.754 7 150932690.37407       -54.913 7        45.469    38462730.171 6 319714685.20606      -116.250 6        39.375  
I07         0.000 7         0.00007        -0.053 7        45.000           0.000 6         0.00006        -0.112 6        37.812  
I09  36161560.321 8 141902732.22108       -85.323 8        50.625    36161554.526 7 300586140.52607      -180.699 7        45.156  
I10  38838272.653 7 152406547.07107       -59.390 7        44.062    38838265.431 6 322836368.79606      -125.513 6        38.281  
> 2025 01 25  0 28  0.0000000  0  8      -263.391860353949
I01         0.000 8         0.00008         0.005 8        51.406           0.000 4         0.00004         0.011 4        24.688  
I02  38906441.008 7 152673830.99607      -401.527 7        44.375    38906433.698 6 323402946.93706      -850.818 6        38.125  
I03         0.000 8         0.00008         0.005 8        50.469           0.000 7         0.00007         0.011 7        44.531  
I05         0.000 8         0.00008         0.005 8        49.062           0.000 6         0.00006         0.011 6        41.719  
I06  38462317.844 7 150931045.13007       -54.806 7        45.312    38462311.185 6 319711200.14706      -115.901 6        39.375  
I07         0.000 7         0.00007         0.005 7        45.156           0.000 6         0.00006         0.011 6        37.969  
I09  36160910.187 8 141900181.08508       -84.772 8        50.625    36160904.389 7 300580736.56107      -179.738 7        44.688  
I10  38837819.783 7 152404769.18307       -59.159 7        44.531    38837812.550 6 322832602.83506      -125.241 6        37.969  
> 2025 01 25  0 28 30.0000000  0  8      -263.602521509763
I01         0.000 8         0.00008        -0.079 8        51.406           0.000 3         0.00003        -0.168 3        23.906  
I02  38903366.177 7 152661766.34407      -402.794 7        44.062    38903358.713 6 323377390.85506      -853.395 6        37.656  
I03         0.000 8         0.00008        -0.079 8        50.469           0.000 7         0.00007        -0.168 7        45.156  
I05         0.000 8         0.00008        -0.079 8        48.906           0.000 6         0.00006        -0.168 6        41.875  
I06  38461898.945 7 150929401.06107       -55.147 7        45.312    38461891.826 6 319707717.58406      -116.133 6        39.844  
I07         0.000 7         0.00007        -0.079 7        45.000           0.000 6         0.00006        -0.168 6        38.750  
I09  36160263.357 8 141897641.90308       -84.465 8        50.625    36160257.796 7 300575357.90507      -178.902 7        45.469  
I10  38837367.048 7 152402992.16207       -59.475 7        44.531    38837359.668 6 322828838.71106      -125.574 6        38.750  
> 2025 01 25  0 29  0.0000000  0  8      -263.423877016215
I01         0.000 8         0.00008        -0.053 8        51.406           0.000 3         0.00003        -0.113 3        23.438  
I02  38900283.382 7 152649667.80107      -404.031 7        44.375    38900275.919 6 323351763.01406      -855.870 6        37.656  
I03         0.000 8         0.00008        -0.053 8        50.625           0.000 7         0.00007        -0.113 7        45.000  
I05         0.000 8         0.00008        -0.053 8        48.750           0.000 6         0.00006        -0.113 6        41.562  
I06  38461480.228 7 150927758.17307       -54.580 7        45.312    38461473.148 6 319704237.52206      -116.155 6        39.844  
I07         0.000 7         0.00007        -0.053 7        45.156           0.000 6         0.00006        -0.113 6        38.281  
I09  36159619.144 8 141895114.71208       -84.096 8        50.625    36159613.481 7 300570004.67007      -178.227 7        45.469  
I10  38836914.474 7 152401216.01207       -59.223 7        44.375    38836907.082 6 322825076.42606      -125.576 6        38.750  
> 2025 01 25  0 29 30.0000000  0  8      -262.622339747123
I01         0.000 8         0.00008        -0.030 8        51.406           0.000 4         0.00004        -0.065 4        24.219  
I02  38897191.975 7 152637535.45307      -405.100 7        44.375    38897184.363 6 323326063.53906      -857.815 6        36.875  
I03         0.000 8         0.00008        -0.030 8        50.625           0.000 7         0.00007        -0.065 7        45.000  
I05         0.000 8         0.00008        -0.030 8        48.906           0.000 6         0.00006        -0.065 6        41.406  
I06  38461062.058 7 150926116.45507       -54.660 7        45.312    38461055.416 6 319700759.91806      -116.013 6        39.844  
I07         0.000 7         0.00007        -0.030 7        45.156           0.000 6         0.00006        -0.065 6        38.125  
I09  36158978.385 8 141892599.65708       -83.709 8        50.625    36158972.651 7 300564677.11607      -177.185 7        45.625  
I10  38836461.859 7 152399440.73807       -59.174 7        44.219    38836455.076 6 322821316.01406      -125.313 6        38.750  
> 2025 01 25  0 30  0.0000000  0  8      -263.398962852011
I01         0.000 8         0.00008        -0.003 8        51.406           0.000 3         0.00003        -0.006 3        22.656  
I02  38894091.419 7 152625369.36207      -406.036 7        44.531    38894083.503 6 323300292.61506      -860.562 6        36.562  
I03         0.000 8         0.00008        -0.003 8        50.625           0.000 7         0.00007        -0.006 7        45.156  
I05         0.000 8         0.00008        -0.003 8        48.906           0.000 6         0.00006        -0.006 6        41.875  
I06  38460644.087 7 150924475.92807       -54.313 7        45.000    38460636.916 6 319697284.84606      -116.052 6        39.688  
I07         0.000 7         0.00007        -0.003 7        45.156           0.000 6         0.00006        -0.006 6        38.125  
I09  36158340.628 8 141890096.77508       -83.277 8        50.625    36158335.015 7 300559375.36507      -176.390 7        45.781  
I10  38836009.872 7 152397666.34407       -59.058 7        44.688    38836002.525 6 322817557.45906      -125.041 6        38.750  
> 2025 01 25  0 30 30.0000000  0  8      -266.127539785012
I01         0.000 8         0.00008        -0.125 8        51.406           0.000 4         0.00004        -0.264 4        24.062  
I02  38890982.495 7 152613168.96007      -407.392 7        44.688    38890973.350 6 323274448.96906      -862.964 6        36.719  
I03         0.000 8         0.00008        -0.125 8        50.625           0.000 7         0.00007        -0.264 7        45.000  
I05         0.000 8         0.00008        -0.125 8        48.594           0.000 7         0.00007        -0.264 7        42.344  
I06  38460225.781 7 150922836.60407       -54.955 7        45.312    38460218.292 6 319693812.32206      -116.177 6        40.000  
I07         0.000 7         0.00007        -0.125 7        45.156           0.000 6         0.00006        -0.264 6        38.438  
I09  36157705.332 8 141887606.19208       -83.018 8        50.625    36157699.594 7 300554099.66507      -175.678 7        45.781  
I10  38835556.950 7 152395892.84007       -59.468 7        44.219    38835549.812 6 322813800.77906      -125.519 6        38.906  
> 2025 01 25  0 31  0.0000000  0  8      -263.562079406298
I01         0.000 8         0.00008        -0.054 8        51.406           0.000 4         0.00004        -0.114 4        25.625  
I02  38887865.374 7 152600935.47107      -408.355 7        44.531    38887856.714 6 323248535.27206      -865.141 6        36.562  
I03         0.000 8         0.00008        -0.054 8        50.625           0.000 7         0.00007        -0.114 7        44.844  
I05         0.000 8         0.00008        -0.054 8        48.438           0.000 7         0.00007        -0.114 7        42.344  
I06  38459808.771 7 150921198.48007       -54.680 7        44.844    38459802.089 6 319690342.34806      -115.593 6        40.000  
I07         0.000 7         0.00007        -0.054 7        45.312           0.000 6         0.00006        -0.114 6        38.125  
I09  36157074.617 8 141885127.98508       -82.531 8        50.781    36157069.201 7 300548850.18207      -174.770 7        46.094  
I10  38835105.673 7 152394120.23707       -59.194 7        44.375    38835099.039 6 322810046.02206      -125.262 6        39.062  
> 2025 01 25  0 31 30.0000000  0  8      -263.649156358967
I01         0.000 8         0.00008        -0.058 8        51.406           0.000 3         0.00003        -0.123 3        23.750  
I02  38884739.189 7 152588668.35007      -409.603 7        44.688    38884730.546 6 323222550.31006      -867.782 6        36.250  
I03         0.000 8         0.00008        -0.058 8        50.469           0.000 7         0.00007        -0.123 7        44.844  
I05         0.000 8         0.00008        -0.058 8        48.594           0.000 6         0.00006        -0.123 6        41.406  
I06  38459391.710 7 150919561.58007       -54.431 7        44.844    38459384.643 6 319686874.97806      -115.772 6        39.688  
I07         0.000 7         0.00007        -0.058 7        45.156           0.000 6         0.00006        -0.123 6        38.281  
I09  36156446.179 8 141882662.25508       -82.097 8        50.625    36156440.532 7 300543627.13207      -173.880 7        45.781  
I10  38834654.475 7 152392348.55807       -59.080 7        44.219    38834647.966 6 322806293.23506      -125.158 6        38.906  
> 2025 01 25  0 32  0.0000000  0  8      -263.559460397960
I01         0.000 8         0.00008        -0.032 8        51.406           0.000 3         0.00003        -0.068 3        23.281  
I02  38881605.143 7 152576367.61007      -410.662 7        44.844    38881595.916 6 323196494.14506      -869.514 6        36.250  
I03         0.000 8         0.00008        -0.032 8        50.781           0.000 7         0.00007        -0.068 7        44.844  
I05         0.000 8         0.00008        -0.032 8        48.750           0.000 6         0.00006        -0.068 6        41.719  
I06  38458974.898 7 150917925.90907       -54.437 7        45.000    38458967.929 6 319683410.19006      -115.386 6        39.844  
I07         0.000 7         0.00007        -0.032 7        45.000           0.000 6         0.00006        -0.068 6        38.594  
I09  36155820.932 8 141880209.09908       -81.606 8        50.781    36155815.284 7 300538430.73307      -172.927 7        45.781  
I10  38834202.954 7 152390577.78907       -59.162 7        44.219    38834197.033 6 322802542.37706      -125.104 6        38.906  
> 2025 01 25  0 32 30.0000000  0  8      -263.291244690337
I01         0.000 8         0.00008        -0.034 8        51.406           0.000 4         0.00004        -0.071 4        26.406  
I02  38878461.934 7 152564033.72907      -411.680 7        44.844    38878453.099 6 323170367.79306      -871.797 6        36.094  
I03         0.000 8         0.00008        -0.034 8        50.781           0.000 7         0.00007        -0.071 7        44.688  
I05         0.000 8         0.00008        -0.034 8        48.594           0.000 6         0.00006        -0.071 6        41.562  
I06  38458558.385 7 150916291.40907       -54.820 7        44.844    38458551.392 6 319679947.90806      -115.235 6        39.531  
I07         0.000 7         0.00007        -0.034 7        45.000           0.000 6         0.00006        -0.071 6        38.125  
I09  36155198.975 8 141877768.63608       -81.209 8        50.781    36155193.638 7 300533261.20707      -171.956 7        45.938  
I10  38833752.101 7 152388807.97207       -58.906 7        44.219    38833745.894 6 322798793.50406      -124.984 6        39.219  
> 2025 01 25  0 33  0.0000000  0  8      -262.909725910597
I01         0.000 8         0.00008        -0.056 8        51.406           0.000 4         0.00004        -0.119 4        24.219  
I02  38875310.822 7 152551667.60207      -412.845 7        45.156    38875302.383 6 323144173.12106      -874.583 6        36.562  
I03         0.000 8         0.00008        -0.056 8        50.781           0.000 7         0.00007        -0.119 7        44.688  
I05         0.000 8         0.00008        -0.056 8        48.438           0.000 6         0.00006        -0.119 6        41.875  
I06  38458141.972 7 150914658.18007       -54.447 7        45.000    38458135.367 6 319676488.29906      -115.425 6        39.844  
I07         0.000 7         0.00007        -0.056 7        45.000           0.000 6         0.00006        -0.119 6        38.281  
I09  36154580.422 8 141875340.87308       -80.861 8        50.781    36154574.843 7 300528118.56907      -171.228 7        45.469  
I10  38833301.453 7 152387039.08407       -58.953 7        44.219    38833294.953 6 322795046.63506      -124.989 6        39.062  
> 2025 01 25  0 33 30.0000000  0  8      -263.059467944836
I01         0.000 8         0.00008        -0.067 8        51.719           0.000 3         0.00003        -0.142 3        22.969  
I02  38872150.995 7 152539267.62207      -413.936 7        45.000    38872142.420 6 323117906.75406      -876.838 6        36.875  
I03         0.000 8         0.00008        -0.067 8        50.781           0.000 7         0.00007        -0.142 7        44.688  
I05         0.000 8         0.00008        -0.067 8        48.438           0.000 7         0.00007        -0.142 7        42.031  
I06  38457726.006 7 150913026.15507       -54.709 7        45.000    38457719.347 6 319673031.23306      -115.252 6        39.844  
I07         0.000 7         0.00007        -0.067 7        45.156           0.000 6         0.00006        -0.142 6        38.750  
I09  36153964.872 8 141872925.95708       -80.468 8        50.781    36153959.681 7 300523003.16407      -170.128 7        45.781  
I10  38832851.058 7 152385271.14907       -58.915 7        44.219    38832844.496 6 322791301.76906      -124.918 6        38.906  
> 2025 01 25  0 34  0.0000000  0  8      -262.854706626755
I01         0.000 8         0.00008        -0.120 8        51.719           0.000 4         0.00004        -0.255 4        25.156  
I02  38868983.644 7 152526835.50407      -415.209 7        45.469    38868974.480 6 323091572.28006      -879.442 6        36.719  
I03         0.000 8         0.00008        -0.120 8        50.781           0.000 7         0.00007        -0.255 7        44.688  
I05         0.000 8         0.00008        -0.120 8        48.594           0.000 6         0.00006        -0.255 6        41.562  
I06  38457310.623 7 150911395.39407       -54.598 7        45.156    38457303.635 6 319669576.85806      -115.325 6        39.531  
I07         0.000 7         0.00007        -0.120 7        45.156           0.000 6         0.00006        -0.255 6        38.281  
I09  36153352.806 8 141870524.01208       -80.123 8        50.625    36153347.465 7 300517915.21007      -169.464 7        45.625  
I10  38832400.552 7 152383504.18107       -58.989 7        44.062    38832394.196 6 322787558.96706      -125.296 6        38.750  
> 2025 01 25  0 34 30.0000000  0  8      -262.223871150442
I01         0.000 8         0.00008        -0.055 8        51.875           0.000 3         0.00003        -0.116 3        23.125  
I02  38865806.912 7 152514370.67807      -416.201 7        45.625    38865798.631 6 323065168.53306      -881.416 6        37.656  
I03         0.000 8         0.00008        -0.055 8        50.781           0.000 7         0.00007        -0.116 7        44.688  
I05         0.000 8         0.00008        -0.055 8        48.594           0.000 6         0.00006        -0.116 6        41.719  
I06  38456895.332 7 150909765.88507       -54.558 7        45.000    38456888.206 6 319666125.14206      -115.179 6        39.375  
I07         0.000 7         0.00007        -0.055 7        45.000           0.000 6         0.00006        -0.116 6        38.125  
I09  36152743.886 8 141868135.11908       -79.347 8        50.469    36152738.890 7 300512854.90507      -168.415 7        45.938  
I10  38831950.826 7 152381738.17307       -58.610 7        44.219    38831944.846 6 322783818.19806      -125.144 6        39.219  
> 2025 01 25  0 35  0.0000000  0  8      -262.531111852414
I01         0.000 8         0.00008        -0.090 8        51.719           0.000 3         0.00003        -0.191 3        23.750  
I02  38862622.213 7 152501873.46307      -417.310 7        45.469    38862614.044 6 323038696.18906      -883.983 6        37.969  
I03         0.000 8         0.00008        -0.090 8        50.781           0.000 7         0.00007        -0.191 7        44.531  
I05         0.000 8         0.00008        -0.090 8        48.594           0.000 6         0.00006        -0.191 6        41.250  
I06  38456480.314 7 150908137.62607       -54.598 7        45.000    38456473.107 6 319662676.06106      -115.214 6        39.375  
I07         0.000 7         0.00007        -0.090 7        45.156           0.000 6         0.00006        -0.191 6        38.594  
I09  36152138.357 8 141865759.31808       -79.009 8        50.625    36152133.535 7 300507822.32907      -167.457 7        45.781  
I10  38831500.841 7 152379973.15307       -58.944 7        44.219    38831494.480 6 322780079.50306      -124.671 6        38.594  
> 2025 01 25  0 35 30.0000000  0  8      -261.705518447253
I01         0.000 8         0.00008        -0.059 8        51.562           0.000 3         0.00003        -0.125 3        22.500  
I02  38859429.582 7 152489343.88607      -418.354 7        45.781    38859421.663 6 323012155.30206      -886.022 6        38.125  
I03         0.000 8         0.00008        -0.059 8        50.938           0.000 7         0.00007        -0.125 7        44.375  
I05         0.000 8         0.00008        -0.059 8        48.594           0.000 6         0.00006        -0.125 6        41.406  
I06  38456065.515 7 150906510.61207       -54.389 7        45.000    38456058.689 6 319659229.61906      -114.996 6        39.375  
I07         0.000 7         0.00007        -0.059 7        45.312           0.000 6         0.00006        -0.125 6        38.594  
I09  36151536.594 8 141863396.72508       -78.628 8        50.625    36151531.429 7 300502817.74607      -166.492 7        45.625  
I10  38831051.621 7 152378209.13507       -58.781 7        43.906    38831045.233 6 322776342.93906      -124.490 6        38.906  
> 2025 01 25  0 36  0.0000000  0  8      -261.735625511596
I01         0.000 8         0.00008        -0.095 8        51.562           0.000 4         0.00004        -0.202 4        25.781  
I02  38856228.452 7 152476782.31207      -419.367 7        45.781    38856220.120 6 322985546.61706      -888.631 6        38.750  
I03         0.000 8         0.00008        -0.095 8        50.781           0.000 7         0.00007        -0.202 7        44.531  
I05         0.000 8         0.00008        -0.095 8        48.750           0.000 7         0.00007        -0.202 7        42.031  
I06  38455651.499 7 150904884.88907       -54.489 7        45.156    38455644.649 6 319655785.91806      -115.032 6        39.844  
I07         0.000 7         0.00007        -0.095 7        45.156           0.000 6         0.00006        -0.202 6        38.750  
I09  36150937.729 8 141861047.44708       -78.188 8        50.625    36150932.598 7 300497841.35507      -165.569 7        45.938  
I10  38830602.575 7 152376446.08807       -58.909 7        44.062    38830595.811 6 322772608.48406      -124.628 6        38.750  
> 2025 01 25  0 36 30.0000000  0  8      -261.710750626707
I01         0.000 8         0.00008        -0.033 8        51.719           0.000 3         0.00003        -0.070 3        22.812  
I02  38853018.954 7 152464188.50007      -420.397 7        45.625    38853011.530 6 322958869.66206      -890.383 6        39.062  
I03         0.000 8         0.00008        -0.033 8        50.781           0.000 7         0.00007        -0.070 7        44.688  
I05         0.000 8         0.00008        -0.033 8        49.062           0.000 6         0.00006        -0.070 6        41.875  
I06  38455237.605 7 150903260.45407       -54.244 7        45.000    38455230.332 6 319652344.95706      -115.011 6        39.531  
I07         0.000 7         0.00007        -0.033 7        45.312           0.000 6         0.00006        -0.070 6        38.594  
I09  36150342.536 8 141858711.57608       -77.726 8        50.781    36150337.235 7 300492893.37807      -164.624 7        45.781  
I10  38830153.240 7 152374684.08607       -58.499 7        44.062    38830146.777 6 322768876.17806      -124.213 6        39.062  
> 2025 01 25  0 37  0.0000000  0  8      -261.791257433472
I01         0.000 8         0.00008        -0.096 8        51.719           0.000 4         0.00004        -0.204 4        26.562  
I02  38849801.885 7 152451562.96807      -421.495 7        45.938    38849793.791 6 322932125.51106      -893.188 6        38.438  
I03         0.000 8         0.00008        -0.096 8        50.781           0.000 7         0.00007        -0.204 7        43.906  
I05         0.000 8         0.00008        -0.096 8        48.906           0.000 6         0.00006        -0.204 6        41.562  
I06  38454824.045 7 150901637.30807       -54.236 7        45.312    38454816.911 6 319648906.70406      -114.792 6        39.219  
I07         0.000 7         0.00007        -0.096 7        45.156           0.000 6         0.00006        -0.204 6        37.969  
I09  36149750.571 8 141856389.20108       -77.278 8        50.781    36149745.472 7 300487973.98207      -163.823 7        45.156  
I10  38829704.514 7 152372923.08307       -58.971 7        44.062    38829698.278 6 322765146.03406      -124.452 6        38.281  
> 2025 01 25  0 37 30.0000000  0  8      -261.917439029525
I01         0.000 8         0.00008        -0.024 8        51.719           0.000 4         0.00004        -0.052 4        24.375  
I02  38846576.464 7 152438906.26507      -422.363 7        45.781    38846568.295 6 322905315.34806      -895.244 6        38.906  
I03         0.000 8         0.00008        -0.024 8        50.781           0.000 7         0.00007        -0.052 7        44.531  
I05         0.000 8         0.00008        -0.024 8        49.062           0.000 6         0.00006        -0.052 6        41.094  
I06  38454410.352 7 150900015.45907       -53.997 7        45.000    38454403.659 6 319645471.20106      -114.203 6        39.531  
I07         0.000 7         0.00007        -0.024 7        45.312           0.000 6         0.00006        -0.052 6        39.062  
I09  36149162.212 8 141854080.37908       -76.849 8        50.625    36149157.082 7 300483083.30607      -162.695 7        45.781  
I10  38829256.215 7 152371163.09807       -58.528 7        44.219    38829249.603 6 322761418.07506      -124.404 6        38.594  
> 2025 01 25  0 38  0.0000000  0  8      -261.587625187581
I01         0.000 8         0.00008        -0.039 8        51.562           0.000 4         0.00004        -0.083 4        24.844  
I02  38843343.090 7 152426217.52107      -423.632 7        45.781    38843335.501 6 322878437.29106      -896.970 6        39.062  
I03         0.000 8         0.00008        -0.039 8        50.625           0.000 7         0.00007        -0.083 7        44.375  
I05         0.000 8         0.00008        -0.039 8        49.219           0.000 6         0.00006        -0.083 6        40.312  
I06  38453997.547 7 150898394.85407       -53.901 7        44.844    38453990.780 6 319642038.36806      -114.442 6        39.688  
I07         0.000 7         0.00007        -0.039 7        45.156           0.000 6         0.00006        -0.083 6        38.906  
I09  36148577.210 8 141851785.27308       -76.264 8        50.625    36148572.172 7 300478221.66207      -161.544 7        45.625  
I10  38828808.044 7 152369404.17707       -58.822 7        43.906    38828801.440 6 322757692.29706      -124.391 6        38.906  
> 2025 01 25  0 38 30.0000000  0  8      -261.748089338035
I01         0.000 8         0.00008        -0.022 8        51.562           0.000 4         0.00004        -0.047 4        27.188  
I02  38840101.362 7 152413497.03907      -424.673 7        45.938    38840094.362 6 322851492.04406      -899.125 6        39.219  
I03         0.000 8         0.00008        -0.022 8        50.781           0.000 7         0.00007        -0.047 7        44.219  
I05         0.000 8         0.00008        -0.022 8        49.375           0.000 6         0.00006        -0.047 6        40.469  
I06  38453585.043 7 150896775.60107       -53.762 7        45.000    38453577.639 6 319638608.36006      -114.186 6        39.844  
I07         0.000 7         0.00007        -0.022 7        45.312           0.000 6         0.00006        -0.047 6        38.750  
I09  36147995.918 8 141849503.93908       -75.802 8        50.312    36147990.910 7 300473389.18107      -160.702 7        45.781  
I10  38828359.496 7 152367646.29007       -58.715 7        43.750    38828353.290 6 322753968.74206      -124.201 6        38.594  
> 2025 01 25  0 39  0.0000000  0  8      -261.465712663532
I01         0.000 8         0.00008        -0.018 8        51.562           0.000 3         0.00003        -0.039 3        23.906  
I02  38836851.988 7 152400745.93407      -425.551 7        45.938    38836844.912 6 322824481.90606      -901.444 6        39.688  
I03         0.000 8         0.00008        -0.018 8        50.781           0.000 7         0.00007        -0.039 7        44.375  
I05         0.000 8         0.00008        -0.018 8        49.531           0.000 6         0.00006        -0.039 6        40.625  
I06  38453172.823 7 150895157.66607       -53.787 7        44.844    38453165.515 6 319635181.14806      -114.124 6        39.688  
I07         0.000 7         0.00007        -0.018 7        45.469           0.000 6         0.00006        -0.039 6        38.906  
I09  36147418.012 8 141847236.50808       -75.361 8        50.312    36147413.008 7 300468586.17807      -159.810 7        45.938  
I10  38827912.110 7 152365889.46607       -58.605 7        43.906    38827905.872 6 322750247.45106      -124.062 6        38.750  
> 2025 01 25  0 39 30.0000000  0  8      -260.944894568179
I01         0.000 8         0.00008        -0.019 8        51.875           0.000 3         0.00003        -0.041 3        23.125  
I02  38833594.973 7 152387963.59307      -426.589 7        46.094    38833587.851 6 322797405.60506      -904.026 6        39.844  
I03         0.000 8         0.00008        -0.019 8        50.781           0.000 7         0.00007        -0.041 7        44.375  
I05         0.000 8         0.00008        -0.019 8        49.531           0.000 6         0.00006        -0.041 6        41.094  
I06  38452760.506 7 150893541.02307       -53.677 7        45.000    38452753.998 6 319631756.69306      -114.016 6        40.000  
I07         0.000 7         0.00007        -0.019 7        45.312           0.000 6         0.00006        -0.041 6        38.594  
I09  36146843.832 8 141844983.04808       -74.843 8        50.312    36146838.824 7 300463812.79307      -158.631 7        45.781  
I10  38827464.802 7 152364133.71207       -58.518 7        44.062    38827458.523 6 322746528.39306      -124.189 6        38.906  
> 2025 01 25  0 40  0.0000000  0  8      -262.399189598647
I01         0.000 8         0.00008        -0.003 8        52.031           0.000 4         0.00004        -0.007 4        24.062  
I02  38830329.772 7 152375150.33507      -427.426 7        46.094    38830322.165 6 322770263.81306      -905.905 6        39.688  
I03         0.000 8         0.00008        -0.003 8        50.781           0.000 7         0.00007        -0.007 7        44.219  
I05         0.000 8         0.00008        -0.003 8        49.375           0.000 6         0.00006        -0.007 6        41.719  
I06  38452348.981 7 150891925.71107       -53.888 7        45.000    38452342.313 6 319628335.07706      -114.044 6        39.688  
I07         0.000 7         0.00007        -0.003 7        45.312           0.000 6         0.00006        -0.007 6        38.594  
I09  36146273.016 8 141842743.63608       -74.368 8        50.312    36146268.073 7 300459069.13607      -157.558 7        45.312  
I10  38827017.634 7 152362379.03007       -58.469 7        43.906    38827011.171 6 322742811.63206      -123.744 6        38.750  
> 2025 01 25  0 40 30.0000000  0  8      -268.184864733164
I01         0.000 8         0.00008        -0.052 8        52.031           0.000 3         0.00003        -0.109 3        22.969  
I02  38827056.146 7 152362305.86607      -428.724 7        46.250    38827048.049 6 322743056.24106      -908.383 6        40.156  
I03         0.000 8         0.00008        -0.052 8        50.781           0.000 7         0.00007        -0.109 7        44.375  
I05         0.000 8         0.00008        -0.052 8        49.375           0.000 6         0.00006        -0.109 6        41.875  
I06  38451935.740 7 150890311.46107       -53.830 7        44.844    38451928.996 6 319624915.99006      -113.973 6        40.000  
I07         0.000 7         0.00007        -0.052 7        45.312           0.000 6         0.00006        -0.109 6        38.594  
I09  36145703.528 8 141840518.07108       -74.088 8        50.312    36145699.140 7 300454355.12407      -156.664 7        45.469  
I10  38826569.121 7 152360625.12507       -58.360 7        43.906    38826562.502 6 322739096.85606      -124.054 6        38.750  
> 2025 01 25  0 41  0.0000000  0  8      -262.576685355494
I01         0.000 8         0.00008        -0.081 8        52.188           0.000 3         0.00003        -0.171 3        21.719  
I02  38823775.612 7 152349430.86807      -429.863 7        46.250    38823768.671 6 322715783.34006      -910.276 6        41.094  
I03         0.000 8         0.00008        -0.081 8        50.938           0.000 7         0.00007        -0.171 7        44.219  
I05         0.000 8         0.00008        -0.081 8        49.531           0.000 6         0.00006        -0.171 6        41.562  
I06  38451526.744 7 150888699.14207       -53.958 7        45.000    38451520.202 6 319621500.35806      -114.022 6        40.312  
I07         0.000 7         0.00007        -0.081 7        45.469           0.000 6         0.00006        -0.171 6        38.438  
I09  36145142.617 8 141838307.35308       -73.478 8        50.312    36145137.205 7 300449671.94307      -155.930 7        45.312  
I10  38826124.463 7 152358872.88707       -58.601 7        44.062    38826117.698 6 322735384.96706      -123.896 6        38.750  
> 2025 01 25  0 41 30.0000000  0  8      -262.714940696853
I01         0.000 8         0.00008         0.031 8        52.188           0.000 4         0.00004         0.067 4        24.219  
I02  38820486.859 7 152336524.31607      -430.586 7        46.094    38820479.644 6 322688443.95506      -912.001 6        40.000  
I03         0.000 8         0.00008         0.031 8        50.938           0.000 7         0.00007         0.067 7        44.062  
I05         0.000 8         0.00008         0.031 8        49.688           0.000 6         0.00006         0.067 6        41.406  
I06  38451116.222 7 150887087.85807       -53.591 7        44.844    38451109.230 6 319618087.27006      -113.285 6        40.156  
I07         0.000 7         0.00007         0.031 7        45.156           0.000 6         0.00006         0.067 6        38.125  
I09  36144582.747 8 141836110.69108       -73.029 8        50.156    36144577.444 7 300445018.83807      -154.451 7        45.469  
I10  38825677.968 7 152357121.47907       -58.194 7        43.906    38825671.454 6 322731675.12406      -123.558 6        38.750  
> 2025 01 25  0 42  0.0000000  0  8      -262.233000208325
I01         0.000 8         0.00008        -0.032 8        52.188           0.000 4         0.00004        -0.067 4        24.531  
I02  38817190.516 7 152323588.48307      -431.701 7        46.250    38817183.668 6 322661042.52006      -914.346 6        41.250  
I03         0.000 8         0.00008        -0.032 8        50.938           0.000 7         0.00007        -0.067 7        44.219  
I05         0.000 8         0.00008        -0.032 8        49.844           0.000 6         0.00006        -0.067 6        40.469  
I06  38450706.012 7 150885477.94407       -53.627 7        44.531    38450699.633 6 319614677.04706      -113.790 6        40.000  
I07         0.000 7         0.00007        -0.032 7        45.312           0.000 6         0.00006        -0.067 6        37.344  
I09  36144026.903 8 141833928.47108       -72.502 8        50.469    36144021.232 7 300440396.33807      -153.628 7        45.156  
I10  38825232.186 7 152355371.16307       -58.385 7        43.906    38825225.357 6 322727967.64106      -123.832 6        38.750  
> 2025 01 25  0 42 30.0000000  0  8      -262.205086631576
I01         0.000 8         0.00008        -0.039 8        52.188           0.000 3         0.00003        -0.083 3        23.750  
I02  38813886.493 7 152310622.79207      -432.803 7        45.938    38813879.889 6 322633577.82006      -916.801 6        41.719  
I03         0.000 8         0.00008        -0.039 8        50.781           0.000 7         0.00007        -0.083 7        44.219  
I05         0.000 8         0.00008        -0.039 8        49.844           0.000 6         0.00006        -0.083 6        40.312  
I06  38450295.773 7 150883869.37507       -53.740 7        44.688    38450289.731 6 319611269.69106      -113.706 6        40.469  
I07         0.000 7         0.00007        -0.039 7        45.156           0.000 6         0.00006        -0.083 6        37.812  
I09  36143474.521 8 141831760.77408       -71.929 8        50.469    36143468.735 7 300435804.60607      -152.642 7        45.000  
I10  38824786.383 7 152353621.96907       -58.282 7        43.906    38824779.705 6 322724262.53206      -123.404 6        38.750  
> 2025 01 25  0 43  0.0000000  0  8      -262.593868288527
I01         0.000 8         0.00008        -0.036 8        52.188           0.000 4         0.00004        -0.077 4        26.250  
I02  38810574.501 7 152297626.72407      -433.844 7        45.781    38810567.853 6 322606048.79006      -918.820 6        41.094  
I03         0.000 8         0.00008        -0.036 8        50.938           0.000 7         0.00007        -0.077 7        44.375  
I05         0.000 8         0.00008        -0.036 8        50.000           0.000 6         0.00006        -0.077 6        41.719  
I06  38449886.352 7 150882262.18207       -53.640 7        44.688    38449879.938 6 319607865.24506      -113.312 6        40.312  
I07         0.000 7         0.00007        -0.036 7        45.156           0.000 6         0.00006        -0.077 6        37.344  
I09  36142925.890 8 141829607.73808       -71.684 8        50.469    36142919.747 7 300431243.93207      -151.598 7        45.000  
I10  38824340.705 7 152351873.92107       -58.035 7        44.219    38824334.114 6 322720559.83106      -123.587 6        38.906  
> 2025 01 25  0 43 30.0000000  0  8      -262.060056894356
I01         0.000 8         0.00008         0.037 8        52.188           0.000 4         0.00004         0.079 4        26.250  
I02  38807255.205 7 152284600.95407      -434.481 7        45.625    38807249.075 6 322578456.84806      -920.862 6        41.094  
I03         0.000 8         0.00008         0.037 8        50.938           0.000 7         0.00007         0.079 7        43.594  
I05         0.000 8         0.00008         0.037 8        50.000           0.000 6         0.00006         0.079 6        41.406  
I06  38449476.942 7 150880656.36407       -53.298 7        44.531    38449471.128 6 319604463.75006      -113.337 6        40.000  
I07         0.000 7         0.00007         0.037 7        45.000           0.000 6         0.00006         0.079 6        36.719  
I09  36142381.079 8 141827469.40308       -71.025 8        50.781    36142374.924 7 300426714.39307      -150.432 7        44.375  
I10  38823895.773 7 152350127.00407       -57.840 7        44.062    38823888.926 6 322716859.54706      -123.143 6        38.125  
> 2025 01 25  0 44  0.0000000  0  8      -261.725142749441
I01         0.000 8         0.00008        -0.063 8        52.188           0.000 4         0.00004        -0.133 4        26.562  
I02  38803928.265 7 152271544.65407      -435.886 7        45.781    38803922.011 6 322550800.24306      -923.227 6        40.938  
I03         0.000 8         0.00008        -0.063 8        50.781           0.000 7         0.00007        -0.133 7        43.438  
I05         0.000 8         0.00008        -0.063 8        49.531           0.000 6         0.00006        -0.133 6        41.875  
I06  38449068.215 7 150879051.95807       -53.468 7        44.531    38449062.222 6 319601065.18206      -113.196 6        40.000  
I07         0.000 7         0.00007        -0.063 7        44.844           0.000 6         0.00006        -0.133 6        36.719  
I09  36141840.090 8 141825345.90408       -70.689 8        50.625    36141833.733 7 300422216.27207      -149.561 7        44.375  
I10  38823450.882 7 152348381.22707       -58.147 7        43.906    38823444.265 6 322713161.67906      -123.646 6        38.125  
> 2025 01 25  0 44 30.0000000  0  8      -262.107299786997
I01         0.000 8         0.00008        -0.115 8        52.188           0.000 4         0.00004        -0.244 4        26.250  
I02  38800593.428 7 152258459.33307      -436.897 7        45.781    38800587.417 6 322523082.15006      -925.455 6        40.938  
I03         0.000 8         0.00008        -0.115 8        50.938           0.000 7         0.00007        -0.244 7        43.750  
I05         0.000 8         0.00008        -0.115 8        49.375           0.000 6         0.00006        -0.244 6        41.562  
I06  38448659.829 7 150877448.92507       -53.482 7        44.531    38448653.818 6 319597669.53806      -113.459 6        39.844  
I07         0.000 7         0.00007        -0.115 7        45.000           0.000 6         0.00006        -0.244 6        36.719  
I09  36141302.789 8 141823237.34508       -70.167 8        50.781    36141296.326 7 300417749.81607      -148.639 7        44.375  
I10  38823006.299 7 152346636.63607       -58.678 7        44.062    38822999.177 6 322709466.30106      -123.372 6        37.969  
> 2025 01 25  0 45  0.0000000  0  8      -262.066713141615
I01         0.000 8         0.00008         0.041 8        52.188           0.000 4         0.00004         0.087 4        24.375  
I02  38797251.576 7 152245344.13107      -437.558 7        45.625    38797245.088 6 322495300.75106      -926.786 6        40.938  
I03         0.000 8         0.00008         0.041 8        50.781           0.000 7         0.00007         0.087 7        44.062  
I05         0.000 8         0.00008         0.041 8        49.531           0.000 7         0.00007         0.087 7        42.344  
I06  38448251.478 7 150875847.29007       -53.391 7        44.375    38448245.488 6 319594276.90306      -112.929 6        40.156  
I07         0.000 7         0.00007         0.041 7        44.844           0.000 6         0.00006         0.087 6        37.188  
I09  36140769.358 8 141821143.81908       -69.337 8        50.625    36140762.946 7 300413315.20007      -147.256 7        45.156  
I10  38822562.139 7 152344893.20007       -57.604 7        43.750    38822555.424 6 322705773.39306      -123.153 6        38.438  
> 2025 01 25  0 45 30.0000000  0  8      -262.447263967674
I01         0.000 8         0.00008         0.012 8        52.188           0.000 3         0.00003         0.026 3        21.562  
I02  38793902.075 7 152232199.12607      -438.591 7        45.469    38793895.317 6 322467456.23506      -929.273 6        41.250  
I03         0.000 8         0.00008         0.012 8        50.781           0.000 7         0.00007         0.026 7        44.219  
I05         0.000 8         0.00008         0.012 8        49.219           0.000 7         0.00007         0.026 7        42.500  
I06  38447843.622 7 150874247.04207       -53.259 7        44.844    38447837.918 6 319590887.16506      -112.838 6        40.625  
I07         0.000 7         0.00007         0.012 7        44.844           0.000 6         0.00006         0.026 6        37.344  
I09  36140239.964 8 141819065.42808       -69.112 8        50.625    36140233.375 7 300408912.63807      -146.184 7        45.156  
I10  38822118.419 7 152343150.90707       -57.686 7        43.750    38822111.146 6 322702082.95406      -122.814 6        38.594  
> 2025 01 25  0 46  0.0000000  0  8      -262.525925308294
I01         0.000 8         0.00008         0.012 8        52.031           0.000 4         0.00004         0.026 4        25.469  
I02  38790544.879 7 152219025.33207      -439.531 7        45.312    38790538.102 6 322439550.75206      -931.180 6        41.094  
I03         0.000 8         0.00008         0.012 8        50.781           0.000 7         0.00007         0.026 7        44.219  
I05         0.000 8         0.00008         0.012 8        49.062           0.000 7         0.00007         0.026 7        42.812  
I06  38447436.288 7 150872648.22507       -53.210 7        44.531    38447430.358 6 319587500.47406      -112.822 6        40.781  
I07         0.000 7         0.00007         0.012 7        44.688           0.000 6         0.00006         0.026 6        37.344  
I09  36139714.046 8 141817002.22908       -68.370 8        50.625    36139707.742 7 300404542.26707      -145.034 7        45.000  
I10  38821674.815 7 152341409.83907       -57.924 7        43.906    38821667.541 6 322698395.04406      -122.845 6        38.281  
> 2025 01 25  0 46 30.0000000  0  8      -262.618876419889
I01         0.000 8         0.00008        -0.071 8        51.875           0.000 3         0.00003        -0.151 3        22.812  
I02  38787180.367 7 152205822.31807      -440.626 7        45.156    38787173.551 6 322411583.36106      -933.477 6        40.781  
I03         0.000 8         0.00008        -0.071 8        50.781           0.000 7         0.00007        -0.151 7        44.062  
I05         0.000 8         0.00008        -0.071 8        48.906           0.000 7         0.00007        -0.151 7        42.656  
I06  38447029.395 7 150871050.79507       -53.569 7        44.844    38447023.210 6 319584116.72606      -112.744 6        40.312  
I07         0.000 7         0.00007        -0.071 7        44.531           0.000 6         0.00006        -0.151 6        37.344  
I09  36139192.252 8 141814954.32408       -68.090 8        50.781    36139185.919 7 300400204.28907      -144.169 7        44.844  
I10  38821231.178 7 152339669.95207       -58.120 7        43.906    38821224.278 6 322694709.65306      -122.981 6        38.281  
> 2025 01 25  0 47  0.0000000  0  8      -263.454744904502
I01         0.000 8         0.00008        -0.015 8        51.875           0.000 4         0.00004        -0.032 4        24.062  
I02  38783808.402 7 152192590.50107      -441.603 7        45.156    38783801.338 6 322383554.92606      -935.342 6        40.469  
I03         0.000 8         0.00008        -0.015 8        50.781           0.000 7         0.00007        -0.032 7        44.062  
I05         0.000 8         0.00008        -0.015 8        48.906           0.000 7         0.00007        -0.032 7        42.500  
I06  38446622.197 7 150869454.80707       -53.080 7        44.531    38446616.454 6 319580736.01806      -112.595 6        40.312  
I07         0.000 7         0.00007        -0.015 7        44.531           0.000 6         0.00006        -0.032 6        37.812  
I09  36138674.241 8 141812921.84408       -67.523 8        50.625    36138668.006 7 300395898.97607      -142.885 7        45.156  
I10  38820787.957 7 152337931.27607       -58.035 7        43.906    38820780.936 6 322691026.83006      -122.507 6        38.438  
> 2025 01 25  0 47 30.0000000  0  8      -262.745661455459
I01         0.000 8         0.00008        -0.057 8        51.719           0.000 4         0.00004        -0.120 4        25.312  
I02  38780429.078 7 152179329.79807      -442.609 7        44.844    38780422.347 6 322355465.33606      -937.713 6        39.531  
I03         0.000 8         0.00008        -0.057 8        50.781           0.000 7         0.00007        -0.120 7        43.438  
I05         0.000 8         0.00008        -0.057 8        48.438           0.000 6         0.00006        -0.120 6        41.562  
I06  38446216.243 7 150867860.27307       -53.350 7        44.531    38446210.465 6 319577358.38206      -112.582 6        40.312  
I07         0.000 7         0.00007        -0.057 7        44.531           0.000 6         0.00006        -0.120 6        37.188  
I09  36138160.341 8 141810904.87508       -67.008 8        50.625    36138154.241 7 300391626.52607      -141.904 7        44.688  
I10  38820345.544 7 152336193.79707       -57.950 7        43.750    38820338.231 6 322687346.57206      -122.586 6        37.812  
> 2025 01 25  0 48  0.0000000  0  8      -263.064097787600
I01         0.000 8         0.00008        -0.012 8        51.875           0.000 4         0.00004        -0.026 4        25.469  
I02  38777042.660 7 152166040.79407      -443.266 7        44.844    38777035.416 6 322327315.82006      -939.521 6        40.156  
I03         0.000 8         0.00008        -0.012 8        50.781           0.000 7         0.00007        -0.026 7        44.219  
I05         0.000 8         0.00008        -0.012 8        48.125           0.000 6         0.00006        -0.026 6        41.875  
I06  38445810.092 7 150866267.15907       -52.959 7        44.844    38445804.283 6 319573983.80106      -112.573 6        40.938  
I07         0.000 7         0.00007        -0.012 7        44.375           0.000 6         0.00006        -0.026 6        37.969  
I09  36137650.247 8 141808903.48908       -66.470 8        50.781    36137644.465 7 300387387.10607      -140.777 7        45.781  
I10  38819903.215 7 152334457.55007       -57.937 7        44.062    38819895.836 6 322683668.91506      -122.455 6        38.438  
> 2025 01 25  0 48 30.0000000  0  8      -262.717238341114
I01         0.000 8         0.00008         0.014 8        51.875           0.000 4         0.00004         0.029 4        25.156  
I02  38773649.160 7 152152723.16107      -444.312 7        44.844    38773641.741 6 322299105.63506      -941.133 6        39.688  
I03         0.000 8         0.00008         0.014 8        50.781           0.000 7         0.00007         0.029 7        44.062  
I05         0.000 7         0.00007         0.014 7        47.812           0.000 6         0.00006         0.029 6        41.406  
I06  38445404.480 7 150864675.51107       -52.774 7        44.531    38445399.270 6 319570612.29006      -112.212 6        40.781  
I07         0.000 7         0.00007         0.014 7        44.375           0.000 6         0.00006         0.029 6        37.656  
I09  36137144.204 8 141806917.83608       -65.950 8        50.625    36137138.397 7 300383180.99307      -139.575 7        45.625  
I10  38819461.036 7 152332722.54907       -57.880 7        44.062    38819454.210 6 322679993.89806      -122.318 6        38.438  
> 2025 01 25  0 49  0.0000000  0  8      -263.237794407643
I01         0.000 8         0.00008         0.019 8        51.875           0.000 4         0.00004         0.041 4        26.406  
I02  38770248.126 7 152139377.27107      -445.192 7        44.688    38770240.404 6 322270835.58706      -943.178 6        38.594  
I03         0.000 8         0.00008         0.019 8        50.781           0.000 7         0.00007         0.041 7        43.594  
I05         0.000 7         0.00007         0.019 7        47.812           0.000 6         0.00006         0.041 6        41.094  
I06  38444999.429 7 150863085.28407       -52.871 7        44.531    38444993.773 6 319567243.78806      -112.129 6        40.156  
I07         0.000 7         0.00007         0.019 7        44.375           0.000 6         0.00006         0.041 6        37.812  
I09  36136642.153 8 141804947.96608       -65.419 8        50.781    36136636.519 7 300379008.31207      -138.584 7        45.156  
I10  38819019.369 7 152330988.78007       -57.565 7        43.906    38819012.104 6 322676321.46106      -122.250 6        37.812  
> 2025 01 25  0 49 30.0000000  0  8      -262.965775940970
I01         0.000 8         0.00008        -0.035 8        52.031           0.000 4         0.00004        -0.075 4        24.688  
I02  38766839.974 7 152126003.39007      -446.270 7        44.688    38766832.221 6 322242506.26506      -945.402 6        39.062  
I03         0.000 8         0.00008        -0.035 8        50.781           0.000 7         0.00007        -0.075 7        44.062  
I05         0.000 7         0.00007        -0.035 7        47.500           0.000 6         0.00006        -0.075 6        41.875  
I06  38444594.648 7 150861496.55507       -52.889 7        44.688    38444589.297 6 319563878.48106      -112.247 6        40.781  
I07         0.000 7         0.00007        -0.035 7        44.219           0.000 6         0.00006        -0.075 6        38.281  
I09  36136144.263 8 141802994.02508       -64.884 8        50.625    36136138.500 7 300374869.38007      -137.476 7        45.625  
I10  38818578.164 7 152329256.26207       -57.881 7        44.062    38818570.858 6 322672651.74006      -122.339 6        38.125  
> 2025 01 25  0 50  0.0000000  0  8      -263.422045933431
I01         0.000 8         0.00008        -0.033 8        52.188           0.000 3         0.00003        -0.069 3        23.125  
I02  38763424.937 7 152112601.35807      -447.020 7        44.375    38763416.534 6 322214117.31906      -947.045 6        38.594  
I03         0.000 8         0.00008        -0.033 8        50.781           0.000 7         0.00007        -0.069 7        44.062  
I05         0.000 7         0.00007        -0.033 7        47.344           0.000 7         0.00007        -0.069 7        42.188  
I06  38444190.045 7 150859909.27807       -52.773 7        44.688    38444184.401 6 319560516.23806      -112.267 6        40.938  
I07         0.000 7         0.00007        -0.033 7        44.219           0.000 6         0.00006        -0.069 6        38.594  
I09  36135650.464 8 141801056.04208       -64.353 8        50.781    36135644.916 7 300370764.24407      -136.332 7        45.938  
I10  38818136.579 7 152327525.00207       -58.198 7        43.906    38818129.553 6 322668984.64506      -122.135 6        38.125  
> 2025 01 25  0 50 30.0000000  0  8      -263.347411601838
I01         0.000 8         0.00008        -0.033 8        52.344           0.000 4         0.00004        -0.069 4        24.531  
I02  38760002.237 7 152099171.54907      -448.146 7        44.375    38759994.245 6 322185669.53006      -949.056 6        38.281  
I03         0.000 8         0.00008        -0.033 8        50.781           0.000 7         0.00007        -0.069 7        43.906  
I05         0.000 7         0.00007        -0.033 7        47.344           0.000 6         0.00006        -0.069 6        41.406  
I06  38443785.571 7 150858323.49407       -52.703 7        44.688    38443780.608 6 319557157.16006      -112.062 6        41.094  
I07         0.000 7         0.00007        -0.033 7        44.219           0.000 6         0.00006        -0.069 6        38.906  
I09  36135160.763 8 141799134.15308       -63.808 8        50.625    36135155.216 7 300366693.19707      -135.340 7        45.938  
I10  38817695.809 7 152325794.99607       -57.910 7        44.062    38817688.879 6 322665320.23706      -122.101 6        38.281  
> 2025 01 25  0 51  0.0000000  0  8      -263.235469869912
I01         0.000 8         0.00008        -0.059 8        52.344           0.000 3         0.00003        -0.125 3        21.875  
I02  38756572.708 7 152085714.07207      -449.162 7        44.375    38756564.799 6 322157163.14806      -951.397 6        37.812  
I03         0.000 8         0.00008        -0.059 8        50.781           0.000 7         0.00007        -0.125 7        44.062  
I05         0.000 7         0.00007        -0.059 7        47.344           0.000 6         0.00006        -0.125 6        40.781  
I06  38443382.208 7 150856739.16607       -53.004 7        44.531    38443376.942 6 319553801.15406      -111.899 6        41.094  
I07         0.000 7         0.00007        -0.059 7        44.062           0.000 6         0.00006        -0.125 6        38.906  
I09  36134674.934 8 141797228.49108       -63.133 8        50.625    36134669.759 7 300362656.53007      -134.083 7        45.938  
I10  38817255.701 7 152324066.26507       -57.856 7        44.219    38817248.378 6 322661658.53506      -122.056 6        38.594  
> 2025 01 25  0 51 30.0000000  0  8      -263.783184038737
I01         0.000 8         0.00008        -0.023 8        52.344           0.000 4         0.00004        -0.048 4        24.062  
I02  38753136.593 7 152072229.22507      -450.091 7        44.531    38753127.783 6 322128598.77406      -953.314 6        37.188  
I03         0.000 8         0.00008        -0.023 8        50.781           0.000 7         0.00007        -0.048 7        44.062  
I05         0.000 7         0.00007        -0.023 7        47.188           0.000 6         0.00006        -0.048 6        40.625  
I06  38442978.712 7 150855156.33607       -53.031 7        44.688    38442973.390 6 319550448.33706      -111.773 6        41.250  
I07         0.000 7         0.00007        -0.023 7        43.906           0.000 6         0.00006        -0.048 6        39.375  
I09  36134193.646 8 141795339.10608       -62.784 8        50.625    36134188.394 7 300358654.34107      -132.862 7        46.250  
I10  38816815.423 7 152322338.85907       -57.089 7        43.750    38816808.028 6 322657999.60106      -121.766 6        38.438  
> 2025 01 25  0 52  0.0000000  0  8      -263.746699615249
I01         0.000 8         0.00008        -0.064 8        52.500           0.000 4         0.00004        -0.135 4        25.781  
I02  38749693.142 7 152058716.66407      -450.856 7        44.531    38749684.209 6 322099975.69606      -955.257 6        36.875  
I03         0.000 8         0.00008        -0.064 8        50.625           0.000 7         0.00007        -0.135 7        44.062  
I05         0.000 7         0.00007        -0.064 7        47.500           0.000 6         0.00006        -0.135 6        41.406  
I06  38442575.831 7 150853574.99407       -52.918 7        44.531    38442570.868 6 319547098.69906      -111.967 6        41.250  
I07         0.000 7         0.00007        -0.064 7        43.906           0.000 6         0.00006        -0.135 6        39.219  
I09  36133716.289 8 141793466.10308       -62.182 8        50.469    36133711.237 7 300354686.85507      -131.865 7        46.562  
I10  38816375.465 7 152320612.71707       -57.469 7        43.906    38816368.326 6 322654343.39206      -122.251 6        38.594  
> 2025 01 25  0 52 30.0000000  0  8      -264.083647732234
I01         0.000 8         0.00008        -0.036 8        52.500           0.000 4         0.00004        -0.076 4        24.688  
I02  38746242.862 7 152045176.66107      -451.867 7        44.531    38746233.671 6 322071294.48306      -957.042 6        37.031  
I03         0.000 8         0.00008        -0.036 8        50.781           0.000 7         0.00007        -0.076 7        44.062  
I05         0.000 7         0.00007        -0.036 7        47.656           0.000 7         0.00007        -0.076 7        42.656  
I06  38442173.202 7 150851995.17007       -52.523 7        44.688    38442168.181 6 319543752.21306      -111.689 6        41.250  
I07         0.000 7         0.00007        -0.036 7        43.906           0.000 6         0.00006        -0.076 6        39.531  
I09  36133243.247 8 141791609.55708       -61.601 8        50.469    36133238.087 7 300350754.23107      -130.595 7        46.406  
I10  38815935.972 7 152318887.89107       -57.674 7        43.906    38815928.874 6 322650689.94606      -121.669 6        38.594  
> 2025 01 25  0 53  0.0000000  0  8      -263.392854700944
I01         0.000 8         0.00008        -0.125 8        52.656           0.000 3         0.00003        -0.264 3        23.125  
I02  38742785.671 7 152031609.91307      -452.874 7        44.531    38742776.785 6 322042556.62906      -959.615 6        36.719  
I03         0.000 8         0.00008        -0.125 8        50.625           0.000 7         0.00007        -0.264 7        43.594  
I05         0.000 7         0.00007        -0.125 7        47.656           0.000 7         0.00007        -0.264 7        42.031  
I06  38441771.079 7 150850416.83607       -52.761 7        44.688    38441766.091 6 319540408.91606      -111.788 6        40.781  
I07         0.000 7         0.00007        -0.125 7        43.906           0.000 6         0.00006        -0.264 6        39.219  
I09  36132774.238 8 141789769.61008       -61.128 8        50.469    36132769.449 7 300346856.76807      -129.613 7        45.781  
I10  38815496.777 7 152317164.37607       -57.865 7        43.906    38815489.771 6 322647039.29506      -122.008 6        38.125  
> 2025 01 25  0 53 30.0000000  0  8      -263.109752151271
I01         0.000 8         0.00008        -0.033 8        52.812           0.000 4         0.00004        -0.070 4        24.844  
I02  38739321.829 7 152018016.03007      -453.463 7        44.688    38739313.061 6 322013761.28806      -960.779 6        37.344  
I03         0.000 8         0.00008        -0.033 8        50.625           0.000 7         0.00007        -0.070 7        43.906  
I05         0.000 7         0.00007        -0.033 7        47.656           0.000 7         0.00007        -0.070 7        42.344  
I06  38441369.364 7 150848840.02507       -52.745 7        44.688    38441364.265 6 319537068.85706      -111.422 6        41.406  
I07         0.000 7         0.00007        -0.033 7        43.906           0.000 6         0.00006        -0.070 6        39.844  
I09  36132309.695 8 141787946.34808       -60.515 8        50.625    36132304.850 7 300342994.65207      -128.203 7        46.562  
I10  38815057.905 7 152315442.18507       -57.344 7        43.906    38815050.869 6 322643391.45406      -121.731 6        38.750  
> 2025 01 25  0 54  0.0000000  0  8      -263.367661530578
I01         0.000 8         0.00008        -0.027 8        52.812           0.000 4         0.00004        -0.058 4        24.844  
I02  38735851.105 7 152004395.77807      -454.557 7        44.844    38735842.245 6 321984910.11006      -962.581 6        37.344  
I03         0.000 8         0.00008        -0.027 8        50.781           0.000 7         0.00007        -0.058 7        44.062  
I05         0.000 7         0.00007        -0.027 7        47.500           0.000 6         0.00006        -0.058 6        41.875  
I06  38440967.807 7 150847264.71907       -52.317 7        44.844    38440962.322 6 319533731.97506      -111.101 6        41.250  
I07         0.000 7         0.00007        -0.027 7        43.906           0.000 6         0.00006        -0.058 6        40.156  
I09  36131849.354 8 141786139.86208       -59.882 8        50.781    36131844.354 7 300339168.07907      -127.156 7        46.719  
I10  38814619.496 7 152313721.31407       -57.565 7        43.906    38814612.408 6 322639746.41206      -121.564 6        38.594  
> 2025 01 25  0 54 30.0000000  0  8      -262.162084705911
I01         0.000 8         0.00008        -0.002 8        52.656           0.000 4         0.00004        -0.004 4        24.375  
I02  38732373.304 7 151990748.19807      -455.204 7        45.000    38732364.394 6 321956001.04606      -964.638 6        37.188  
I03         0.000 8         0.00008        -0.002 8        50.781           0.000 7         0.00007        -0.004 7        44.062  
I05         0.000 7         0.00007        -0.002 7        47.500           0.000 6         0.00006        -0.004 6        41.719  
I06  38440566.959 7 150845690.98307       -52.377 7        44.844    38440561.844 6 319530398.41506      -111.073 6        41.562  
I07         0.000 7         0.00007        -0.002 7        43.906           0.000 6         0.00006        -0.004 6        40.156  
I09  36131393.344 8 141784350.28808       -59.523 8        50.781    36131388.422 7 300335377.32707      -125.843 7        46.406  
I10  38814181.563 7 152312001.77107       -56.970 7        43.906    38814174.610 6 322636104.19106      -121.455 6        38.750  
> 2025 01 25  0 55  0.0000000  0  8      -262.608407606178
I01         0.000 8         0.00008        -0.045 8        52.656           0.000 3         0.00003        -0.095 3        23.438  
I02  38728888.750 7 151977074.17807      -456.420 7        45.156    38728879.732 6 321927035.94406      -966.755 6        37.188  
I03         0.000 8         0.00008        -0.045 8        50.625           0.000 7         0.00007        -0.095 7        44.219  
I05         0.000 7         0.00007        -0.045 7        47.656           0.000 6         0.00006        -0.095 6        41.562  
I06  38440166.147 7 150844118.74307       -52.527 7        45.000    38440161.233 6 319527068.02606      -111.003 6        41.562  
I07         0.000 7         0.00007        -0.045 7        43.906           0.000 6         0.00006        -0.095 6        40.156  
I09  36130941.749 8 141782577.69108       -58.907 8        50.781    36130936.777 7 300331622.53007      -124.529 7        46.406  
I10  38813743.723 7 152310283.59807       -57.057 7        44.219    38813736.409 6 322632464.87406      -121.319 6        38.906  
> 2025 01 25  0 55 30.0000000  0  8      -262.840924476630
I01         0.000 8         0.00008        -0.020 8        52.500           0.000 3         0.00003        -0.042 3        23.125  
I02  38725397.874 7 151963374.03607      -457.103 7        45.312    38725388.328 6 321898015.51806      -968.279 6        36.875  
I03         0.000 8         0.00008        -0.020 8        50.781           0.000 7         0.00007        -0.042 7        44.219  
I05         0.000 7         0.00007        -0.020 7        47.500           0.000 6         0.00006        -0.042 6        41.562  
I06  38439765.696 7 150842548.08107       -52.251 7        45.000    38439760.705 6 319523740.98206      -110.994 6        41.562  
I07         0.000 7         0.00007        -0.020 7        43.906           0.000 6         0.00006        -0.042 6        40.312  
I09  36130494.522 8 141780822.18508       -58.185 8        50.781    36130489.485 7 300327903.95407      -123.371 7        46.562  
I10  38813306.460 7 152308566.80107       -57.236 7        44.219    38813298.980 6 322628828.44106      -121.282 6        38.906  
> 2025 01 25  0 56  0.0000000  0  8      -262.216203178105
I01         0.000 8         0.00008         0.009 8        52.500           0.000 4         0.00004         0.019 4        25.469  
I02  38721900.303 7 151949648.05007      -457.874 7        45.312    38721890.928 6 321868940.36906      -970.041 6        36.875  
I03         0.000 8         0.00008         0.009 8        50.781           0.000 7         0.00007         0.019 7        44.219  
I05         0.000 7         0.00007         0.009 7        47.656           0.000 7         0.00007         0.019 7        42.188  
I06  38439366.050 7 150840978.95007       -52.070 7        45.000    38439361.166 6 319520417.17806      -110.636 6        41.562  
I07         0.000 7         0.00007         0.009 7        43.906           0.000 6         0.00006         0.019 6        40.469  
I09  36130051.509 8 141779083.86708       -57.688 8        50.781    36130046.561 7 300324221.76007      -122.069 7        46.719  
I10  38812869.622 7 152306851.33607       -57.122 7        44.375    38812862.052 6 322625194.86606      -121.081 6        38.906  
> 2025 01 25  0 56 30.0000000  0  8      -262.570280692813
I01         0.000 8         0.00008        -0.037 8        52.344           0.000 3         0.00003        -0.078 3        22.188  
I02  38718396.020 7 151935895.73607      -458.888 7        45.312    38718386.083 6 321839809.45606      -971.867 6        36.719  
I03         0.000 8         0.00008        -0.037 8        50.625           0.000 7         0.00007        -0.078 7        44.219  
I05         0.000 7         0.00007        -0.037 7        47.656           0.000 7         0.00007        -0.078 7        42.344  
I06  38438966.742 7 150839411.35307       -52.405 7        45.000    38438961.463 6 319517096.61406      -110.818 6        41.406  
I07         0.000 7         0.00007        -0.037 7        43.906           0.000 6         0.00006        -0.078 6        40.625  
I09  36129612.987 8 141777362.84108       -57.190 8        50.781    36129607.971 7 300320576.21007      -120.974 7        46.719  
I10  38812432.772 7 152305137.26307       -56.972 7        44.375    38812425.377 6 322621564.23706      -121.051 6        38.750  
> 2025 01 25  0 57  0.0000000  0  8      -262.901285489576
I01         0.000 8         0.00008        -0.017 8        52.344           0.000 3         0.00003        -0.035 3        23.438  
I02  38714884.479 7 151922117.32107      -459.691 7        45.625    38714875.322 6 321810623.24306      -973.837 6        36.406  
I03         0.000 8         0.00008        -0.017 8        50.781           0.000 7         0.00007        -0.035 7        44.219  
I05         0.000 7         0.00007        -0.017 7        47.656           0.000 7         0.00007        -0.035 7        42.344  
I06  38438567.920 7 150837845.35907       -52.251 7        45.000    38438562.140 6 319513779.48206      -110.672 6        41.406  
I07         0.000 7         0.00007        -0.017 7        43.906           0.000 6         0.00006        -0.035 6        40.625  
I09  36129178.895 8 141775659.17908       -56.541 8        50.781    36129173.487 7 300316967.43907      -119.777 7        46.406  
I10  38811996.206 7 152303424.56507       -56.702 7        44.375    38811989.014 6 322617936.53806      -121.071 6        38.906  
> 2025 01 25  0 57 30.0000000  0  8      -262.703651261068
I01         0.000 8         0.00008        -0.107 8        52.188           0.000 3         0.00003        -0.227 3        22.188  
I02  38711367.077 7 151908312.94207      -460.813 7        45.781    38711357.642 6 321781382.04306      -975.936 6        36.719  
I03         0.000 8         0.00008        -0.107 8        50.781           0.000 7         0.00007        -0.227 7        44.219  
I05         0.000 7         0.00007        -0.107 7        47.344           0.000 7         0.00007        -0.227 7        42.188  
I06  38438169.108 7 150836280.95407       -52.454 7        45.000    38438163.414 6 319510465.67106      -110.746 6        41.406  
I07         0.000 7         0.00007        -0.107 7        43.906           0.000 6         0.00006        -0.227 6        40.625  
I09  36128749.265 8 141773973.01708       -55.988 8        50.781    36128744.132 7 300313395.73707      -118.726 7        46.562  
I10  38811560.545 7 152301713.28307       -57.160 7        44.375    38811553.059 6 322614311.80906      -121.135 6        39.062  
> 2025 01 25  0 58  0.0000000  0  8      -262.928216036520
I01         0.000 8         0.00008        -0.003 8        52.031           0.000 3         0.00003        -0.006 3        23.125  
I02  38707842.972 7 151894482.85807      -461.384 7        45.781    38707833.397 6 321752086.39106      -977.380 6        36.875  
I03         0.000 8         0.00008        -0.003 8        50.625           0.000 7         0.00007        -0.006 7        44.219  
I05         0.000 7         0.00007        -0.003 7        47.500           0.000 6         0.00006        -0.006 6        41.562  
I06  38437771.022 7 150834718.11907       -52.045 7        45.000    38437765.202 6 319507155.22606      -110.529 6        41.250  
I07         0.000 7         0.00007        -0.003 7        44.062           0.000 6         0.00006        -0.006 6        40.625  
I09  36128324.110 8 141772304.40908       -55.316 8        50.938    36128318.751 7 300309861.20907      -117.166 7        46.562  
I10  38811124.631 7 152300003.39307       -56.688 7        44.531    38811117.316 6 322610690.05606      -120.710 6        38.906  
> 2025 01 25  0 58 30.0000000  0  8      -262.854700494410
I01         0.000 8         0.00008         0.010 8        52.188           0.000 4         0.00004         0.022 4        25.312  
I02  38704312.371 7 151880627.88307      -462.208 7        45.781    38704302.581 6 321722738.03006      -979.089 6        36.719  
I03         0.000 8         0.00008         0.010 8        50.625           0.000 7         0.00007         0.022 7        44.219  
I05         0.000 7         0.00007         0.010 7        47.344           0.000 6         0.00006         0.022 6        41.719  
I06  38437373.058 7 150833156.84107       -51.761 7        45.000    38437367.517 6 319503848.03906      -110.253 6        41.562  
I07         0.000 7         0.00007         0.010 7        43.906           0.000 6         0.00006         0.022 6        40.625  
I09  36127903.404 8 141770653.49008       -54.748 8        50.781    36127898.229 7 300306364.15707      -115.895 7        46.719  
I10  38810689.392 7 152298294.91507       -56.724 7        44.688    38810682.170 6 322607071.29206      -120.738 6        39.219  
> 2025 01 25  0 59  0.0000000  0  8      -263.550910905698
I01         0.000 8         0.00008        -0.076 8        52.188           0.000 3         0.00003        -0.162 3        23.906  
I02  38700775.084 7 151866747.70307      -463.190 7        45.938    38700765.524 6 321693336.27406      -981.392 6        36.406  
I03         0.000 8         0.00008        -0.076 8        50.625           0.000 7         0.00007        -0.162 7        44.219  
I05         0.000 7         0.00007        -0.076 7        47.500           0.000 6         0.00006        -0.162 6        41.875  
I06  38436975.663 7 150831597.18407       -52.196 7        45.000    38436969.516 6 319500544.30006      -109.974 6        41.250  
I07         0.000 7         0.00007        -0.076 7        43.906           0.000 6         0.00006        -0.162 6        40.781  
I09  36127487.214 8 141769020.33208       -54.241 8        50.781    36127482.138 7 300302904.74207      -114.924 7        46.875  
I10  38810254.767 7 152296587.86007       -56.978 7        44.844    38810246.905 6 322603455.53606      -120.769 6        39.219  
> 2025 01 25  0 59 30.0000000  0  8      -263.146797659468
I01         0.000 8         0.00008        -0.104 8        52.188           0.000 4         0.00004        -0.220 4        25.625  
I02  38697231.838 7 151852842.36307      -464.215 7        45.938    38697222.130 6 321663881.20106      -983.231 6        36.875  
I03         0.000 8         0.00008        -0.104 8        50.625           0.000 7         0.00007        -0.220 7        44.219  
I05         0.000 7         0.00007        -0.104 7        47.344           0.000 7         0.00007        -0.220 7        42.188  
I06  38436578.781 7 150830039.12907       -52.263 7        45.000    38436572.799 6 319497243.97206      -110.106 6        41.250  
I07         0.000 7         0.00007        -0.104 7        43.906           0.000 6         0.00006        -0.220 6        40.625  
I09  36127075.468 8 141767405.05808       -53.700 8        50.938    36127070.441 7 300299483.21407      -113.703 7        46.719  
I10  38809820.433 7 152294882.23007       -56.839 7        44.844    38809812.485 6 322599842.84506      -120.646 6        39.062  
> 2025 01 25  1  0  0.0000000  0  8      -263.759474010477
I01         0.000 8         0.00008        -0.029 8        52.344           0.000 4         0.00004        -0.061 4        25.000  
I02  38693681.751 7 151838911.73207      -464.807 7        45.938    38693672.279 6 321634372.56806      -984.572 6        37.031  
I03         0.000 8         0.00008        -0.029 8        50.625           0.000 7         0.00007        -0.061 7        44.219  
I05         0.000 7         0.00007        -0.029 7        47.656           0.000 7         0.00007        -0.061 7        42.188  
I06  38436182.039 7 150828482.67607       -51.853 7        45.312    38436175.750 6 319493947.03906      -110.117 6        40.781  
I07         0.000 7         0.00007        -0.029 7        43.906           0.000 6         0.00006        -0.061 6        40.781  
I09  36126668.355 8 141765807.78808       -53.008 8        50.781    36126663.356 7 300296099.82607      -112.093 7        46.562  
I10  38809385.859 7 152293178.04607       -56.672 7        44.844    38809378.165 6 322596233.17906      -120.339 6        38.906  
> 2025 01 25  1  0 30.0000000  0  8      -263.890898606124
I01         0.000 8         0.00008        -0.016 8        52.344           0.000 4         0.00004        -0.033 4        24.688  
I02  38690125.327 7 151824956.22707      -465.601 7        45.781    38690116.132 6 321604811.24006      -986.076 6        37.344  
I03         0.000 8         0.00008        -0.016 8        50.469           0.000 7         0.00007        -0.033 7        44.219  
I05         0.000 7         0.00007        -0.016 7        47.500           0.000 7         0.00007        -0.033 7        42.500  
I06  38435785.610 7 150826927.86707       -51.738 7        45.156    38435779.718 6 319490653.56206      -109.921 6        41.094  
I07         0.000 7         0.00007        -0.016 7        44.062           0.000 6         0.00006        -0.033 6        40.625  
I09  36126265.866 8 141764228.60108       -52.442 8        50.781    36126260.693 7 300292754.73607      -110.977 7        46.406  
I10  38808952.052 7 152291475.30007       -56.583 7        45.000    38808944.275 6 322592626.58506      -120.149 6        39.219  
> 2025 01 25  1  1  0.0000000  0  8      -263.543376099064
I01         0.000 8         0.00008        -0.031 8        52.344           0.000 3         0.00003        -0.067 3        23.281  
I02  38686562.928 7 151810976.42807      -466.551 7        45.938    38686553.894 6 321575198.45806      -988.170 6        37.656  
I03         0.000 8         0.00008        -0.031 8        50.469           0.000 7         0.00007        -0.067 7        44.062  
I05         0.000 7         0.00007        -0.031 7        47.500           0.000 7         0.00007        -0.067 7        42.812  
I06  38435390.064 7 150825374.66407       -51.757 7        45.156    38435384.390 6 319487363.48606      -109.537 6        41.406  
I07         0.000 7         0.00007        -0.031 7        44.062           0.000 6         0.00006        -0.067 6        40.312  
I09  36125868.123 8 141762667.58808       -51.746 8        50.781    36125862.674 7 300289448.14307      -109.733 7        46.406  
I10  38808518.516 7 152289774.01807       -56.506 7        45.000    38808510.796 6 322589023.10106      -120.260 6        39.375  
> 2025 01 25  1  1 30.0000000  0  8      -264.130117387125
I01         0.000 8         0.00008        -0.046 8        52.344           0.000 4         0.00004        -0.098 4        25.000  
I02  38682993.618 7 151796971.88107      -467.407 7        45.781    38682985.325 6 321545533.23606      -990.014 6        37.969  
I03         0.000 8         0.00008        -0.046 8        50.469           0.000 7         0.00007        -0.098 7        44.219  
I05         0.000 7         0.00007        -0.046 7        47.656           0.000 7         0.00007        -0.098 7        42.656  
I06  38434994.661 7 150823823.08307       -51.747 7        45.156    38434988.558 6 319484076.87506      -109.409 6        41.094  
I07         0.000 7         0.00007        -0.046 7        43.906           0.000 6         0.00006        -0.098 6        40.781  
I09  36125474.936 8 141761124.88108       -51.195 8        50.625    36125469.623 7 300286180.32907      -108.598 7        46.562  
I10  38808085.603 7 152288074.20807       -56.460 7        45.000    38808077.351 6 322585422.73206      -120.078 6        39.062  
> 2025 01 25  1  2  0.0000000  0  8      -264.041971514542
I01         0.000 8         0.00008        -0.101 8        52.188           0.000 3         0.00003        -0.215 3        21.406  
I02  38679418.961 7 151782942.56707      -468.221 7        45.781    38679410.491 6 321515815.59006      -991.905 6        38.438  
I03         0.000 8         0.00008        -0.101 8        50.469           0.000 7         0.00007        -0.215 7        44.219  
I05         0.000 7         0.00007        -0.101 7        47.969           0.000 7         0.00007        -0.215 7        42.188  
I06  38434599.758 7 150822273.14907       -51.617 7        45.156    38434593.404 6 319480793.73906      -109.485 6        41.094  
I07         0.000 7         0.00007        -0.101 7        43.906           0.000 6         0.00006        -0.215 6        40.469  
I09  36125086.389 8 141759600.53208       -50.617 8        50.781    36125081.309 7 300282951.40407      -107.236 7        46.406  
I10  38807653.153 7 152286375.88007       -56.980 7        45.156    38807644.709 6 322581825.48506      -120.395 6        39.219  
> 2025 01 25  1  2 30.0000000  0  8      -264.008372350028
I01         0.000 8         0.00008        -0.006 8        52.031           0.000 4         0.00004        -0.012 4        24.531  
I02  38675838.043 7 151768889.34607      -468.736 7        45.469    38675829.076 6 321486047.27806      -993.047 6        38.594  
I03         0.000 8         0.00008        -0.006 8        50.625           0.000 7         0.00007        -0.012 7        44.219  
I05         0.000 8         0.00008        -0.006 8        48.125           0.000 7         0.00007        -0.012 7        42.188  
I06  38434205.207 7 150820724.83307       -51.524 7        45.156    38434199.048 6 319477514.05306      -109.298 6        41.406  
I07         0.000 7         0.00007        -0.006 7        43.906           0.000 6         0.00006        -0.012 6        40.625  
I09  36124702.569 8 141758094.67508       -49.897 8        50.625    36124697.585 7 300279761.64907      -105.581 7        46.562  
I10  38807220.666 7 152284679.03007       -56.464 7        45.000    38807212.401 6 322578231.41106      -119.921 6        39.062  
> 2025 01 25  1  3  0.0000000  0  8      -264.055327236809
I01         0.000 8         0.00008        -0.097 8        52.188           0.000 3         0.00003        -0.205 3        23.594  
I02  38672250.305 7 151754812.33707      -469.671 7        45.312    38672242.250 6 321456228.60506      -995.265 6        39.375  
I03         0.000 8         0.00008        -0.097 8        50.625           0.000 7         0.00007        -0.205 7        44.219  
I05         0.000 8         0.00008        -0.097 8        48.281           0.000 7         0.00007        -0.205 7        42.344  
I06  38433811.236 7 150819178.18907       -52.047 7        45.156    38433804.662 6 319474237.88406      -109.484 6        40.938  
I07         0.000 7         0.00007        -0.097 7        44.062           0.000 6         0.00006        -0.205 6        40.781  
I09  36124323.606 8 141756607.44408       -49.277 8        50.625    36124318.722 7 300276611.36207      -104.390 7        46.562  
I10  38806788.918 7 152282983.70207       -56.791 7        45.000    38806780.018 6 322574640.53006      -119.636 6        38.906  
> 2025 01 25  1  3 30.0000000  0  8      -263.374212105168
I01         0.000 8         0.00008        -0.086 8        52.031           0.000 4         0.00004        -0.181 4        26.094  
I02  38668657.192 7 151740711.56807      -470.633 7        45.156    38668649.478 6 321426359.58606      -996.649 6        39.531  
I03         0.000 8         0.00008        -0.086 8        50.625           0.000 7         0.00007        -0.181 7        44.219  
I05         0.000 7         0.00007        -0.086 7        47.969           0.000 7         0.00007        -0.181 7        42.344  
I06  38433417.372 7 150817633.21707       -51.725 7        45.156    38433411.187 6 319470965.25706      -109.213 6        40.938  
I07         0.000 7         0.00007        -0.086 7        44.062           0.000 6         0.00006        -0.181 6        40.156  
I09  36123949.309 8 141755138.83708       -48.728 8        50.625    36123944.596 7 300273500.51607      -103.172 7        46.562  
I10  38806357.444 7 152281289.86107       -56.530 7        45.000    38806348.593 6 322571052.83006      -119.998 6        39.062  
> 2025 01 25  1  4  0.0000000  0  8      -263.599360279734
I01         0.000 8         0.00008        -0.068 8        52.031           0.000 4         0.00004        -0.144 4        25.938  
I02  38665058.182 7 151726586.75507      -471.288 7        44.844    38665049.469 6 321396439.66806      -998.422 6        39.375  
I03         0.000 8         0.00008        -0.068 8        50.625           0.000 7         0.00007        -0.144 7        44.375  
I05         0.000 7         0.00007        -0.068 7        47.969           0.000 7         0.00007        -0.144 7        42.344  
I06  38433024.314 7 150816089.89107       -51.567 7        45.156    38433017.955 6 319467696.12006      -109.168 6        41.094  
I07         0.000 7         0.00007        -0.068 7        44.062           0.000 6         0.00006        -0.144 6        40.156  
I09  36123580.039 8 141753689.02408       -47.946 8        50.469    36123575.085 7 300270429.49507      -101.790 7        46.406  
I10  38805926.375 7 152279597.51207       -56.604 7        45.156    38805917.121 6 322567468.29306      -119.739 6        39.062  
> 2025 01 25  1  4 30.0000000  0  8      -263.948458547811
I01         0.000 8         0.00008        -0.040 8        51.875           0.000 4         0.00004        -0.085 4        25.000  
I02  38661452.228 7 151712438.18207      -471.769 7        44.688    38661444.229 6 321366469.39306      -999.838 6        39.688  
I03         0.000 8         0.00008        -0.040 8        50.625           0.000 7         0.00007        -0.085 7        44.375  
I05         0.000 8         0.00008        -0.040 8        48.281           0.000 7         0.00007        -0.085 7        42.344  
I06  38432631.565 7 150814548.25807       -51.544 7        45.156    38432625.003 6 319464430.57306      -109.083 6        41.094  
I07         0.000 7         0.00007        -0.040 7        44.062           0.000 6         0.00006        -0.085 6        40.156  
I09  36123215.374 8 141752258.11308       -47.524 8        50.312    36123210.419 7 300267398.50007      -100.443 7        46.406  
I10  38805495.553 7 152277906.69507       -56.340 7        45.312    38805486.659 6 322563886.99506      -119.484 6        39.062  
> 2025 01 25  1  5  0.0000000  0  8      -263.963783986106
I01         0.000 8         0.00008        -0.036 8        51.875           0.000 3         0.00003        -0.076 3        23.750  
I02  38657840.780 7 151698266.17107      -472.665 7        44.688    38657832.970 6 321336449.45206     -1001.493 6        40.000  
I03         0.000 8         0.00008        -0.036 8        50.625           0.000 7         0.00007        -0.076 7        44.219  
I05         0.000 8         0.00008        -0.036 8        48.125           0.000 6         0.00006        -0.076 6        41.406  
I06  38432239.069 7 150813008.24807       -51.375 7        45.312    38432232.395 6 319461168.47206      -108.793 6        40.781  
I07         0.000 7         0.00007        -0.036 7        44.062           0.000 6         0.00006        -0.076 6        40.000  
I09  36122855.641 8 141750846.17208       -46.753 8        50.469    36122850.778 7 300264407.67907       -99.044 7        46.562  
I10  38805065.099 7 152276217.41407       -56.507 7        45.156    38805055.988 6 322560308.96006      -119.262 6        38.594  
> 2025 01 25  1  5 30.0000000  0  8      -264.473605979281
I01         0.000 8         0.00008        -0.042 8        51.719           0.000 4         0.00004        -0.088 4        25.312  
I02  38654223.513 7 151684071.06607      -473.584 7        44.531    38654215.373 6 321306380.60606     -1003.305 6        40.156  
I03         0.000 8         0.00008        -0.042 8        50.781           0.000 7         0.00007        -0.088 7        44.375  
I05         0.000 8         0.00008        -0.042 8        48.281           0.000 6         0.00006        -0.088 6        41.406  
I06  38431847.046 7 150811469.94807       -51.272 7        45.156    38431840.050 6 319457910.00106      -108.728 6        40.781  
I07         0.000 7         0.00007        -0.042 7        44.062           0.000 6         0.00006        -0.088 6        40.156  
I09  36122500.684 8 141749453.32308       -46.149 8        50.625    36122495.902 7 300261457.30107       -97.813 7        46.719  
I10  38804635.331 7 152274529.66907       -56.217 7        45.312    38804625.888 6 322556734.19806      -119.221 6        38.594  
> 2025 01 25  1  6  0.0000000  0  8      -264.238580582110
I01         0.000 8         0.00008        -0.060 8        51.719           0.000 4         0.00004        -0.127 4        25.781  
I02  38650600.001 7 151669852.87207      -474.396 7        44.062    38650592.870 6 321276262.86206     -1004.942 6        40.781  
I03         0.000 8         0.00008        -0.060 8        50.625           0.000 7         0.00007        -0.127 7        44.219  
I05         0.000 7         0.00007        -0.060 7        47.969           0.000 6         0.00006        -0.127 6        41.719  
I06  38431455.436 7 150809933.33407       -51.225 7        45.156    38431448.746 6 319454655.08706      -108.557 6        40.938  
I07         0.000 7         0.00007        -0.060 7        44.219           0.000 6         0.00006        -0.127 6        40.000  
I09  36122150.721 8 141748079.69408       -45.485 8        50.938    36122145.751 7 300258547.63807       -96.525 7        46.719  
I10  38804205.903 7 152272843.48507       -56.321 7        45.156    38804195.955 6 322553162.71606      -119.310 6        38.438  
> 2025 01 25  1  6 30.0000000  0  8      -264.839178993960
I01         0.000 8         0.00008        -0.081 8        51.719           0.000 3         0.00003        -0.171 3        20.312  
I02  38646970.843 7 151655611.61507      -475.205 7        44.062    38646963.590 6 321246096.28706     -1006.984 6        40.938  
I03         0.000 8         0.00008        -0.081 8        50.781           0.000 7         0.00007        -0.171 7        44.219  
I05         0.000 7         0.00007        -0.081 7        47.500           0.000 6         0.00006        -0.171 6        41.719  
I06  38431064.391 7 150808398.42907       -51.176 7        45.312    38431057.123 6 319451403.80706      -108.590 6        40.625  
I07         0.000 7         0.00007        -0.081 7        44.219           0.000 6         0.00006        -0.171 6        40.156  
I09  36121805.616 8 141746725.31208       -44.936 8        50.938    36121800.458 7 300255678.74707       -95.192 7        46.562  
I10  38803776.230 7 152271158.83007       -56.168 7        45.156    38803766.746 6 322549594.49106      -119.189 6        38.281  
> 2025 01 25  1  7  0.0000000  0  8      -264.384573128551
I01         0.000 8         0.00008        -0.051 8        51.875           0.000 4         0.00004        -0.108 4        26.250  
I02  38643335.935 7 151641347.81607      -475.840 7        44.062    38643329.139 6 321215881.95606     -1008.166 6        40.938  
I03         0.000 8         0.00008        -0.051 8        50.781           0.000 7         0.00007        -0.108 7        44.219  
I05         0.000 7         0.00007        -0.051 7        47.344           0.000 6         0.00006        -0.108 6        41.562  
I06  38430673.606 7 150806865.23007       -51.156 7        45.156    38430666.870 6 319448156.12306      -108.091 6        40.938  
I07         0.000 7         0.00007        -0.051 7        44.219           0.000 6         0.00006        -0.108 6        39.844  
I09  36121465.580 8 141745390.34208       -44.245 8        51.094    36121460.170 7 300252850.99907       -93.570 7        46.250  
I10  38803347.463 7 152269475.74607       -56.280 7        45.312    38803338.165 6 322546029.61406      -119.045 6        38.750  
> 2025 01 25  1  7 30.0000000  0  8      -265.155760397381
I01         0.000 8         0.00008        -0.053 8        51.875           0.000 3         0.00003        -0.112 3        23.125  
I02  38639695.315 7 151627061.08107      -476.572 7        44.062    38639688.264 6 321185619.04806     -1009.505 6        41.094  
I03         0.000 8         0.00008        -0.053 8        50.781           0.000 7         0.00007        -0.112 7        44.219  
I05         0.000 7         0.00007        -0.053 7        46.875           0.000 6         0.00006        -0.112 6        41.719  
I06  38430283.466 7 150805333.73907       -51.010 7        45.312    38430276.485 6 319444912.08406      -108.341 6        40.781  
I07         0.000 7         0.00007        -0.053 7        44.219           0.000 6         0.00006        -0.112 6        40.156  
I09  36121130.350 8 141744074.90808       -43.567 8        50.938    36121124.646 7 300250064.61407       -92.202 7        45.781  
I10  38802919.195 7 152267794.23007       -56.342 7        45.312    38802909.407 6 322542468.06406      -118.913 6        38.594  
> 2025 01 25  1  8  0.0000000  0  8      -264.701081558931
I01         0.000 8         0.00008        -0.108 8        52.031           0.000 4         0.00004        -0.228 4        25.156  
I02  38636048.978 7 151612752.07207      -477.616 7        43.906    38636042.201 6 321155308.95406     -1011.538 6        41.250  
I03         0.000 8         0.00008        -0.108 8        50.625           0.000 7         0.00007        -0.228 7        44.375  
I05         0.000 7         0.00007        -0.108 7        46.719           0.000 6         0.00006        -0.228 6        41.719  
I06  38429893.532 7 150803803.98007       -51.083 7        45.156    38429887.032 6 319441671.69206      -108.129 6        40.781  
I07         0.000 7         0.00007        -0.108 7        44.375           0.000 6         0.00006        -0.228 6        40.625  
I09  36120800.411 8 141742779.07808       -42.870 8        50.938    36120794.440 7 300247319.76007       -90.981 7        45.781  
I10  38802491.351 7 152266114.32007       -56.545 7        45.312    38802481.580 6 322538909.87506      -118.781 6        38.750  
> 2025 01 25  1  8 30.0000000  0  8      -265.000847802260
I01         0.000 8         0.00008        -0.045 8        52.031           0.000 3         0.00003        -0.096 3        23.438  
I02  38632396.848 7 151598420.28607      -478.045 7        43.906    38632390.387 6 321124950.61206     -1013.178 6        41.562  
I03         0.000 8         0.00008        -0.045 8        50.781           0.000 7         0.00007        -0.096 7        44.375  
I05         0.000 7         0.00007        -0.045 7        46.875           0.000 6         0.00006        -0.096 6        40.938  
I06  38429504.379 7 150802275.97507       -51.156 7        45.312    38429497.466 6 319438435.03106      -108.034 6        40.781  
I07         0.000 7         0.00007        -0.045 7        44.375           0.000 6         0.00006        -0.096 6        40.625  
I09  36120475.178 8 141741502.92208       -42.225 8        50.938    36120469.274 7 300244616.57407       -89.498 7        45.625  
I10  38802063.664 7 152264435.98607       -55.744 7        45.312    38802053.575 6 322535355.07406      -118.491 6        38.438  
> 2025 01 25  1  9  0.0000000  0  8      -265.002098493078
I01         0.000 8         0.00008        -0.056 8        52.031           0.000 4         0.00004        -0.118 4        26.719  
I02  38628739.531 7 151584066.88107      -478.982 7        43.906    38628732.795 6 321094546.46806     -1014.448 6        41.719  
I03         0.000 8         0.00008        -0.056 8        50.625           0.000 7         0.00007        -0.118 7        44.375  
I05         0.000 7         0.00007        -0.056 7        47.188           0.000 6         0.00006        -0.118 6        41.250  
I06  38429115.414 7 150800749.67907       -50.804 7        45.312    38429108.318 6 319435201.98506      -107.672 6        40.625  
I07         0.000 7         0.00007        -0.056 7        44.375           0.000 6         0.00006        -0.118 6        40.781  
I09  36120155.229 8 141740246.57608       -41.664 8        50.938    36120148.851 7 300241955.35907       -88.092 7        45.781  
I10  38801636.618 7 152262759.26907       -56.084 7        45.312    38801626.668 6 322531803.67206      -118.412 6        38.594  
> 2025 01 25  1  9 30.0000000  0  8      -264.199206022353
I01         0.000 8         0.00008        -0.035 8        51.875           0.000 4         0.00004        -0.073 4        24.219  
I02  38625075.980 7 151569691.40107      -479.788 7        43.750    38625069.858 7 321064095.56307     -1016.046 7        42.031  
I03         0.000 8         0.00008        -0.035 8        50.781           0.000 7         0.00007        -0.073 7        44.375  
I05         0.000 7         0.00007        -0.035 7        47.344           0.000 6         0.00006        -0.073 6        41.094  
I06  38428726.911 7 150799225.11007       -50.772 7        45.469    38428720.010 6 319431972.60406      -107.760 6        40.469  
I07         0.000 7         0.00007        -0.035 7        44.375           0.000 6         0.00006        -0.073 6        41.094  
I09  36119840.162 8 141739010.11708       -40.996 8        51.094    36119833.770 7 300239336.24507       -86.545 7        45.625  
I10  38801209.767 7 152261084.14207       -55.478 7        45.312    38801199.412 6 322528255.67806      -118.421 6        38.281  
> 2025 01 25  1 10  0.0000000  0  8      -264.264199785803
I01         0.000 8         0.00008        -0.023 8        51.719           0.000 4         0.00004        -0.049 4        24.688  
I02  38621406.604 7 151555293.62307      -480.369 7        43.906    38621401.035 6 321033597.44706     -1017.045 6        41.875  
I03         0.000 8         0.00008        -0.023 8        50.781           0.000 7         0.00007        -0.049 7        44.375  
I05         0.000 7         0.00007        -0.023 7        47.656           0.000 6         0.00006        -0.049 6        41.562  
I06  38428339.053 7 150797702.30907       -50.692 7        45.469    38428331.620 6 319428746.95206      -107.454 6        40.312  
I07         0.000 7         0.00007        -0.023 7        44.531           0.000 6         0.00006        -0.049 6        41.094  
I09  36119530.375 8 141737793.68908       -40.301 8        51.250    36119523.800 7 300236759.57707       -85.254 7        45.469  
I10  38800783.405 7 152259410.64207       -55.778 7        45.312    38800773.261 6 322524711.13106      -118.170 6        38.438  
> 2025 01 25  1 10 30.0000000  0  8      -264.297165352337
I01         0.000 8         0.00008        -0.032 8        51.875           0.000 3         0.00003        -0.068 3        21.875  
I02  38617732.352 7 151540874.52307      -480.865 7        43.750    38617726.657 7 321003054.16507     -1019.124 7        42.188  
I03         0.000 8         0.00008        -0.032 8        50.781           0.000 7         0.00007        -0.068 7        44.219  
I05         0.000 7         0.00007        -0.032 7        47.500           0.000 6         0.00006        -0.068 6        41.875  
I06  38427951.418 7 150796181.25507       -50.391 7        45.469    38427944.339 6 319425525.05006      -107.502 6        40.469  
I07         0.000 7         0.00007        -0.032 7        44.531           0.000 6         0.00006        -0.068 6        41.094  
I09  36119225.432 8 141736597.37008       -39.754 8        51.250    36119218.864 7 300234225.47907       -83.684 7        45.469  
I10  38800357.620 7 152257738.76707       -55.797 7        45.156    38800347.153 6 322521169.98906      -118.351 6        38.281  
> 2025 01 25  1 11  0.0000000  0  8      -263.993358111152
I01         0.000 8         0.00008        -0.044 8        51.875           0.000 4         0.00004        -0.094 4        24.688  
I02  38614052.316 7 151526433.39707      -481.759 7        43.438    38614046.849 7 320972464.23407     -1020.505 7        42.500  
I03         0.000 8         0.00008        -0.044 8        50.781           0.000 7         0.00007        -0.094 7        44.375  
I05         0.000 7         0.00007        -0.044 7        47.500           0.000 7         0.00007        -0.094 7        42.344  
I06  38427564.288 7 150794661.96607       -50.710 7        45.312    38427557.221 6 319422306.83706      -107.368 6        40.469  
I07         0.000 7         0.00007        -0.044 7        44.531           0.000 6         0.00006        -0.094 6        41.250  
I09  36118925.889 8 141735421.23008       -38.949 8        51.250    36118919.119 7 300231734.16807       -82.412 7        45.469  
I10  38799932.081 7 152256068.52207       -55.603 7        45.000    38799921.848 6 322517632.34206      -118.034 6        38.438  
> 2025 01 25  1 11 30.0000000  0  8      -264.136575482599
I01         0.000 8         0.00008        -0.032 8        51.875           0.000 3         0.00003        -0.067 3        23.906  
I02  38610366.827 7 151511971.01807      -482.294 7        43.594    38610361.829 7 320941829.28107     -1021.980 7        42.500  
I03         0.000 8         0.00008        -0.032 8        50.781           0.000 7         0.00007        -0.067 7        44.375  
I05         0.000 7         0.00007        -0.032 7        47.500           0.000 7         0.00007        -0.067 7        42.031  
I06  38427177.469 7 150793144.46607       -50.482 7        45.469    38427169.960 6 319419092.43606      -107.226 6        40.312  
I07         0.000 7         0.00007        -0.032 7        44.531           0.000 6         0.00006        -0.067 6        41.250  
I09  36118631.398 8 141734265.40608       -38.235 8        51.406    36118624.637 7 300229285.88307       -80.951 7        45.625  
I10  38799506.925 7 152254399.91507       -55.773 7        45.000    38799496.581 6 322514098.15606      -117.893 6        38.438  
> 2025 01 25  1 12  0.0000000  0  8      -263.645721761179
I01         0.000 8         0.00008         0.001 8        51.875           0.000 3         0.00003         0.003 3        22.188  
I02  38606675.915 7 151497487.26507      -482.961 7        43.438    38606671.282 7 320911149.06007     -1023.286 7        42.812  
I03         0.000 8         0.00008         0.001 8        50.781           0.000 7         0.00007         0.003 7        44.375  
I05         0.000 7         0.00007         0.001 7        47.656           0.000 6         0.00006         0.003 6        41.875  
I06  38426791.368 7 150791628.72007       -50.461 7        45.469    38426784.108 6 319415881.73506      -106.935 6        40.625  
I07         0.000 7         0.00007         0.001 7        44.688           0.000 6         0.00006         0.003 6        41.250  
I09  36118341.979 8 141733129.96408       -37.463 8        51.250    36118335.222 7 300226880.79307       -79.515 7        45.625  
I10  38799082.210 7 152252732.97207       -55.641 7        45.156    38799071.844 6 322510567.49606      -117.356 6        38.281  
> 2025 01 25  1 12 30.0000000  0  8      -263.651985196640
I01         0.000 8         0.00008        -0.060 8        51.719           0.000 4         0.00004        -0.128 4        25.625  
I02  38602979.639 7 151482982.67207      -484.131 7        43.281    38602975.257 7 320880424.68107     -1025.249 7        42.969  
I03         0.000 8         0.00008        -0.060 8        50.781           0.000 7         0.00007        -0.128 7        44.219  
I05         0.000 7         0.00007        -0.060 7        47.812           0.000 6         0.00006        -0.128 6        41.406  
I06  38426405.464 7 150790114.76207       -50.415 7        45.469    38426398.128 6 319412674.83106      -106.916 6        40.469  
I07         0.000 7         0.00007        -0.060 7        44.844           0.000 6         0.00006        -0.128 6        41.250  
I09  36118057.885 8 141732015.04108       -36.843 8        51.250    36118051.169 7 300224519.14607       -78.088 7        45.469  
I10  38798658.028 7 152251067.68907       -55.558 7        45.156    38798647.514 6 322507040.35606      -117.613 6        38.438  
> 2025 01 25  1 13  0.0000000  0  8      -263.714743130113
I01         0.000 8         0.00008        -0.029 8        51.875           0.000 4         0.00004        -0.062 4        26.406  
I02  38599278.083 7 151468456.59807      -484.421 7        43.438    38599273.756 7 320849654.82507     -1026.524 7        42.812  
I03         0.000 8         0.00008        -0.029 8        50.781           0.000 7         0.00007        -0.062 7        44.375  
I05         0.000 7         0.00007        -0.029 7        47.656           0.000 7         0.00007        -0.062 7        42.188  
I06  38426020.381 7 150788602.60907       -50.462 7        45.469    38426012.770 6 319409471.75506      -106.663 6        40.469  
I07         0.000 7         0.00007        -0.029 7        44.844           0.000 6         0.00006        -0.062 6        41.250  
I09  36117778.904 8 141730920.72108       -36.196 8        51.094    36117772.096 7 300222201.16007       -76.577 7        45.469  
I10  38798234.180 7 152249404.07207       -55.419 7        45.000    38798223.758 6 322503516.75006      -117.538 6        38.594  
> 2025 01 25  1 13 30.0000000  0  8      -263.786820888966
I01         0.000 8         0.00008        -0.057 8        52.031           0.000 4         0.00004        -0.121 4        26.406  
I02  38595571.546 7 151453910.07107      -485.333 7        43.438    38595567.122 7 320818841.64607     -1028.082 7        42.656  
I03         0.000 8         0.00008        -0.057 8        50.781           0.000 7         0.00007        -0.121 7        44.375  
I05         0.000 7         0.00007        -0.057 7        47.500           0.000 7         0.00007        -0.121 7        42.188  
I06  38425635.466 7 150787092.23807       -50.191 7        45.469    38425627.838 6 319406272.47506      -106.837 6        40.469  
I07         0.000 7         0.00007        -0.057 7        44.844           0.000 6         0.00006        -0.121 6        41.562  
I09  36117505.253 8 141729847.10408       -35.482 8        50.938    36117498.297 7 300219927.02007       -75.221 7        45.469  
I10  38797810.274 7 152247742.12507       -55.485 7        45.156    38797800.416 6 322499996.68606      -117.620 6        38.750  
> 2025 01 25  1 14  0.0000000  0  8      -263.579890817703
I01         0.000 8         0.00008         0.020 8        52.031           0.000 3         0.00003         0.043 3        23.906  
I02  38591859.522 7 151439342.99207      -485.792 7        43.594    38591854.967 7 320787984.94407     -1029.039 7        42.344  
I03         0.000 8         0.00008         0.020 8        50.625           0.000 7         0.00007         0.043 7        44.219  
I05         0.000 7         0.00007         0.020 7        47.500           0.000 7         0.00007         0.043 7        42.344  
I06  38425251.164 7 150785583.69007       -50.024 7        45.625    38425243.434 6 319403077.00506      -106.221 6        40.625  
I07         0.000 7         0.00007         0.020 7        45.000           0.000 6         0.00006         0.043 6        41.406  
I09  36117237.030 8 141728794.32108       -34.733 8        51.094    36117230.165 7 300217697.02607       -73.688 7        45.312  
I10  38797387.520 7 152246081.86907       -55.285 7        44.844    38797377.454 6 322496480.21106      -117.037 6        38.750  
> 2025 01 25  1 14 30.0000000  0  8      -263.197834606584
I01         0.000 8         0.00008        -0.045 8        51.875           0.000 4         0.00004        -0.095 4        26.406  
I02  38588142.307 7 151424755.61307      -486.539 7        43.438    38588138.043 7 320757085.24607     -1030.800 7        42.344  
I03         0.000 8         0.00008        -0.045 8        50.625           0.000 7         0.00007        -0.095 7        44.375  
I05         0.000 7         0.00007        -0.045 7        47.344           0.000 7         0.00007        -0.095 7        42.188  
I06  38424867.097 7 150784076.94807       -50.394 7        45.625    38424859.300 6 319399885.40706      -106.410 6        40.312  
I07         0.000 7         0.00007        -0.045 7        45.000           0.000 6         0.00006        -0.095 6        41.406  
I09  36116973.963 8 141727762.48608       -33.907 8        50.938    36116967.297 7 300215511.40007       -72.312 7        45.469  
I10  38796965.389 7 152244423.30407       -55.480 7        45.000    38796954.965 6 322492967.33606      -117.075 6        38.906  
> 2025 01 25  1 15  0.0000000  0  8      -263.485007265665
I01         0.000 8         0.00008         0.010 8        51.875           0.000 4         0.00004         0.022 4        25.156  
I02  38584419.764 7 151410147.53607      -487.279 7        43.594    38584415.218 7 320726141.68407     -1032.158 7        42.188  
I03         0.000 8         0.00008         0.010 8        50.625           0.000 7         0.00007         0.022 7        44.219  
I05         0.000 7         0.00007         0.010 7        47.188           0.000 7         0.00007         0.022 7        42.188  
I06  38424483.510 7 150782572.03607       -50.070 7        45.625    38424475.981 6 319396697.67306      -106.430 6        40.312  
I07         0.000 7         0.00007         0.010 7        44.844           0.000 6         0.00006         0.022 6        41.094  
I09  36116716.284 8 141726751.65908       -33.331 8        51.094    36116709.903 7 300213370.26307       -70.376 7        45.312  
I10  38796542.885 7 152242766.45307       -54.822 7        45.000    38796532.880 6 322489458.05906      -116.869 6        39.062  
> 2025 01 25  1 15 30.0000000  0  8      -263.344200542623
I01         0.000 8         0.00008        -0.036 8        51.875           0.000 3         0.00003        -0.076 3        23.906  
I02  38580692.126 7 151395519.81607      -488.035 7        43.438    38580687.774 6 320695156.53706     -1033.934 6        41.875  
I03         0.000 8         0.00008        -0.036 8        50.625           0.000 7         0.00007        -0.076 7        44.219  
I05         0.000 7         0.00007        -0.036 7        47.188           0.000 6         0.00006        -0.076 6        41.406  
I06  38424100.645 7 150781068.93507       -49.921 7        45.625    38424092.788 6 319393513.79406      -106.094 6        40.469  
I07         0.000 7         0.00007        -0.036 7        44.844           0.000 6         0.00006        -0.076 6        41.250  
I09  36116464.107 8 141725761.94708       -32.707 8        51.094    36116457.844 7 300211273.86007       -69.191 7        45.469  
I10  38796121.330 7 152241111.32407       -55.203 7        44.844    38796110.922 6 322485952.44206      -116.761 6        39.062  
> 2025 01 25  1 16  0.0000000  0  8      -263.198343243279
I01         0.000 8         0.00008        -0.101 8        52.031           0.000 4         0.00004        -0.215 4        24.062  
I02  38576959.418 7 151380871.76307      -488.820 7        43.438    38576954.638 6 320664128.31206     -1035.320 6        41.250  
I03         0.000 8         0.00008        -0.101 8        50.625           0.000 7         0.00007        -0.215 7        44.219  
I05         0.000 7         0.00007        -0.101 7        47.031           0.000 6         0.00006        -0.215 6        41.562  
I06  38423718.115 7 150779567.70007       -50.329 7        45.469    38423710.279 6 319390333.82206      -106.123 6        40.625  
I07         0.000 7         0.00007        -0.101 7        44.844           0.000 6         0.00006        -0.215 6        41.094  
I09  36116217.179 8 141724793.46808       -32.003 8        51.094    36116211.221 7 300209222.45407       -67.943 7        45.469  
I10  38795700.118 7 152239457.90507       -55.270 7        45.000    38795690.054 6 322482450.46406      -116.941 6        39.062  
> 2025 01 25  1 16 30.0000000  0  8      -262.742192822225
I01         0.000 8         0.00008        -0.029 8        52.031           0.000 3         0.00003        -0.061 3        23.594  
I02  38573222.086 7 151366203.94007      -489.183 7        43.594    38573216.928 6 320633058.21906     -1036.232 6        40.938  
I03         0.000 8         0.00008        -0.029 8        50.625           0.000 7         0.00007        -0.061 7        44.219  
I05         0.000 7         0.00007        -0.029 7        46.875           0.000 6         0.00006        -0.061 6        41.250  
I06  38423336.060 7 150778068.28507       -50.161 7        45.781    38423328.286 6 319387157.74206      -105.952 6        40.625  
I07         0.000 7         0.00007        -0.029 7        44.844           0.000 6         0.00006        -0.061 6        41.094  
I09  36115975.872 8 141723846.31608       -31.127 8        50.938    36115970.037 7 300207216.21607       -66.143 7        45.469  
I10  38795279.362 7 152237806.20507       -54.981 7        45.156    38795268.928 6 322478952.13206      -116.868 6        39.062  
> 2025 01 25  1 17  0.0000000  0  8      -262.880762410536
I01         0.000 8         0.00008        -0.056 8        51.875           0.000 3         0.00003        -0.118 3        22.031  
I02  38569479.158 7 151351516.11707      -490.015 7        43.438    38569474.425 6 320601945.76906     -1037.825 6        40.938  
I03         0.000 8         0.00008        -0.056 8        50.625           0.000 7         0.00007        -0.118 7        44.375  
I05         0.000 7         0.00007        -0.056 7        46.875           0.000 6         0.00006        -0.118 6        41.875  
I06  38422954.546 7 150776570.72007       -49.815 7        45.469    38422946.738 6 319383985.58006      -105.903 6        40.469  
I07         0.000 7         0.00007        -0.056 7        44.844           0.000 6         0.00006        -0.118 6        40.938  
I09  36115739.950 8 141722920.56608       -30.569 8        50.938    36115734.237 7 300205255.31307       -64.814 7        45.625  
I10  38794858.709 7 152236156.24707       -55.149 7        45.156    38794848.712 6 322475457.48706      -116.579 6        39.219  
> 2025 01 25  1 17 30.0000000  0  8      -262.835840054381
I01         0.000 8         0.00008        -0.074 8        51.875           0.000 3         0.00003        -0.157 3        23.125  
I02  38565731.858 7 151336809.67307      -490.816 7        43.906    38565726.388 6 320570793.85406     -1039.284 6        40.000  
I03         0.000 8         0.00008        -0.074 8        50.625           0.000 7         0.00007        -0.157 7        43.750  
I05         0.000 7         0.00007        -0.074 7        47.188           0.000 6         0.00006        -0.157 6        40.938  
I06  38422573.306 7 150775075.02507       -49.615 7        45.469    38422565.798 6 319380817.39606      -105.680 6        40.156  
I07         0.000 7         0.00007        -0.074 7        44.844           0.000 6         0.00006        -0.157 6        40.312  
I09  36115509.615 8 141722016.35808       -29.867 8        50.938    36115503.932 7 300203340.03907       -63.328 7        45.000  
I10  38794439.203 7 152234508.03507       -55.231 7        45.156    38794428.658 6 322471966.55706      -116.685 6        38.281  
> 2025 01 25  1 18  0.0000000  0  8      -262.907906579921
I01         0.000 8         0.00008        -0.064 8        51.875           0.000 4         0.00004        -0.136 4        24.531  
I02  38561979.073 7 151322083.14807      -491.224 7        44.219    38561973.662 6 320539599.40906     -1040.824 6        40.000  
I03         0.000 8         0.00008        -0.064 8        50.625           0.000 7         0.00007        -0.136 7        44.375  
I05         0.000 7         0.00007        -0.064 7        47.500           0.000 6         0.00006        -0.136 6        41.562  
I06  38422192.810 7 150773581.18107       -49.962 7        45.625    38422185.208 6 319377653.09106      -105.499 6        40.781  
I07         0.000 7         0.00007        -0.064 7        44.844           0.000 6         0.00006        -0.136 6        40.781  
I09  36115284.685 8 141721133.77308       -29.121 8        50.938    36115278.851 7 300201470.57507       -61.720 7        45.781  
I10  38794019.664 7 152232861.57807       -54.958 7        45.156    38794009.078 6 322468479.33306      -116.322 6        39.219  
> 2025 01 25  1 18 30.0000000  0  8      -263.123219178394
I01         0.000 8         0.00008        -0.042 8        51.875           0.000 4         0.00004        -0.089 4        24.062  
I02  38558221.494 7 151307337.94307      -491.902 7        44.219    38558215.365 6 320508365.40706     -1041.652 6        40.000  
I03         0.000 8         0.00008        -0.042 8        50.625           0.000 7         0.00007        -0.089 7        44.375  
I05         0.000 7         0.00007        -0.042 7        47.656           0.000 6         0.00006        -0.089 6        41.094  
I06  38421812.420 7 150772089.20007       -49.684 7        45.625    38421804.675 6 319374492.76206      -105.294 6        40.781  
I07         0.000 7         0.00007        -0.042 7        44.844           0.000 6         0.00006        -0.089 6        40.625  
I09  36115065.323 8 141720272.92708       -28.471 8        50.938    36115059.905 7 300199647.15507       -60.157 7        45.938  
I10  38793600.778 7 152231216.88807       -54.992 7        45.156    38793590.462 6 322464995.85206      -116.069 6        39.219  
> 2025 01 25  1 19  0.0000000  0  8      -263.211358983870
I01         0.000 8         0.00008        -0.100 8        52.031           0.000 4         0.00004        -0.211 4        24.688  
I02  38554459.637 7 151292573.46207      -492.708 7        44.531    38554453.397 6 320477090.59106     -1043.533 6        39.688  
I03         0.000 8         0.00008        -0.100 8        50.625           0.000 7         0.00007        -0.211 7        44.375  
I05         0.000 7         0.00007        -0.100 7        47.656           0.000 6         0.00006        -0.211 6        40.781  
I06  38421432.919 7 150770599.08407       -49.878 7        45.469    38421424.984 6 319371336.39306      -105.246 6        40.625  
I07         0.000 7         0.00007        -0.100 7        44.844           0.000 6         0.00006        -0.211 6        40.781  
I09  36114851.621 8 141719433.91908       -27.685 8        50.938    36114845.974 7 300197869.99607       -58.825 7        45.781  
I10  38793182.096 7 152229573.97607       -55.041 7        45.156    38793171.502 6 322461516.12806      -116.046 6        38.906  
> 2025 01 25  1 19 30.0000000  0  8      -263.060156426371
I01         0.000 8         0.00008        -0.015 8        52.031           0.000 4         0.00004        -0.031 4        26.250  
I02  38550692.306 7 151277789.97307      -493.058 7        44.688    38550685.683 6 320445775.52106     -1044.359 6        39.531  
I03         0.000 8         0.00008        -0.015 8        50.625           0.000 7         0.00007        -0.031 7        44.375  
I05         0.000 7         0.00007        -0.015 7        47.969           0.000 6         0.00006        -0.031 6        41.250  
I06  38421053.594 7 150769110.86307       -49.577 7        45.469    38421046.116 6 319368184.04306      -105.164 6        40.781  
I07         0.000 7         0.00007        -0.015 7        44.844           0.000 6         0.00006        -0.031 6        40.625  
I09  36114643.277 8 141718616.86308       -26.891 8        50.781    36114637.887 7 300196139.33707       -56.858 7        45.781  
I10  38792764.302 7 152227932.84207       -54.723 7        45.156    38792753.266 6 322458040.18906      -115.678 6        38.750  
> 2025 01 25  1 20  0.0000000  0  8      -263.667032955273
I01         0.000 8         0.00008        -0.016 8        52.188           0.000 4         0.00004        -0.034 4        25.156  
I02  38546920.609 7 151262987.60607      -493.667 7        44.844    38546913.539 6 320414420.46106     -1045.642 6        39.219  
I03         0.000 8         0.00008        -0.016 8        50.625           0.000 7         0.00007        -0.034 7        44.375  
I05         0.000 7         0.00007        -0.016 7        47.969           0.000 6         0.00006        -0.034 6        40.938  
I06  38420674.771 7 150767624.54607       -49.469 7        45.469    38420667.307 6 319365035.69906      -104.894 6        40.781  
I07         0.000 7         0.00007        -0.016 7        44.688           0.000 6         0.00006        -0.034 6        40.625  
I09  36114440.961 8 141717821.83008       -26.164 8        50.781    36114435.171 7 300194455.34307       -55.504 7        45.781  
I10  38792346.318 7 152226293.47007       -54.627 7        45.156    38792335.558 6 322454568.02406      -115.731 6        38.594  
> 2025 01 25  1 20 30.0000000  0  8      -264.669452591961
I01         0.000 8         0.00008         0.021 8        52.188           0.000 4         0.00004         0.046 4        24.844  
I02  38543143.710 7 151248166.70507      -494.269 7        44.844    38543136.162 6 320383026.12706     -1046.837 6        38.906  
I03         0.000 8         0.00008         0.021 8        50.625           0.000 7         0.00007         0.046 7        44.531  
I05         0.000 8         0.00008         0.021 8        48.125           0.000 6         0.00006         0.046 6        40.625  
I06  38420296.825 7 150766140.10107       -49.354 7        45.625    38420289.107 6 319361891.33506      -104.608 6        40.938  
I07         0.000 7         0.00007         0.021 7        44.688           0.000 6         0.00006         0.046 6        40.781  
I09  36114244.009 8 141717048.93408       -25.276 8        50.938    36114237.804 7 300192818.24207       -53.610 7        45.469  
I10  38791928.845 7 152224655.93207       -54.570 7        45.000    38791918.430 6 322451099.71006      -115.376 6        38.594  
> 2025 01 25  1 21  0.0000000  0  8      -265.277773275671
I01         0.000 8         0.00008        -0.055 8        52.188           0.000 4         0.00004        -0.116 4        25.156  
I02  38539362.600 7 151233327.01407      -494.826 7        44.844    38539354.197 6 320351591.99806     -1048.460 6        38.281  
I03         0.000 8         0.00008        -0.055 8        50.625           0.000 7         0.00007        -0.116 7        44.375  
I05         0.000 7         0.00007        -0.055 7        47.812           0.000 6         0.00006        -0.116 6        40.781  
I06  38419918.790 7 150764657.56507       -49.542 7        45.469    38419911.378 6 319358751.03206      -104.712 6        40.781  
I07         0.000 7         0.00007        -0.055 7        44.688           0.000 6         0.00006        -0.116 6        40.781  
I09  36114052.962 8 141716298.32908       -24.844 8        50.938    36114046.440 7 300191228.35307       -52.443 7        45.312  
I10  38791512.441 7 152223020.18907       -54.640 7        45.000    38791501.735 6 322447635.17606      -115.510 6        38.438  
> 2025 01 25  1 21 30.0000000  0  8      -266.057775131758
I01         0.000 8         0.00008        -0.043 8        52.188           0.000 4         0.00004        -0.090 4        26.094  
I02  38535576.614 7 151218469.12007      -495.613 7        45.156    38535567.496 6 320320119.30006     -1050.021 6        37.969  
I03         0.000 8         0.00008        -0.043 8        50.625           0.000 7         0.00007        -0.090 7        44.375  
I05         0.000 7         0.00007        -0.043 7        47.344           0.000 6         0.00006        -0.090 6        41.250  
I06  38419541.609 7 150763176.93407       -49.459 7        45.469    38419534.317 6 319355614.76306      -104.494 6        40.938  
I07         0.000 7         0.00007        -0.043 7        44.688           0.000 6         0.00006        -0.090 6        40.781  
I09  36113867.338 8 141715570.01708       -23.965 8        51.094    36113860.686 7 300189685.68807       -50.639 7        45.312  
I10  38791096.069 7 152221386.26407       -54.427 7        45.000    38791085.312 6 322444174.51206      -115.256 6        38.594  
> 2025 01 25  1 22  0.0000000  0  8      -266.129114505333
I01         0.000 8         0.00008        -0.059 8        52.188           0.000 3         0.00003        -0.126 3        23.594  
I02  38531785.699 7 151203593.30907      -496.351 7        45.312    38531776.957 6 320288608.67606     -1051.347 6        37.656  
I03         0.000 8         0.00008        -0.059 8        50.781           0.000 7         0.00007        -0.126 7        44.375  
I05         0.000 7         0.00007        -0.059 7        46.875           0.000 6         0.00006        -0.126 6        41.562  
I06  38419164.461 7 150761698.22707       -49.226 7        45.469    38419157.540 6 319352482.58106      -104.546 6        40.938  
I07         0.000 7         0.00007        -0.059 7        44.688           0.000 6         0.00006        -0.126 6        40.938  
I09  36113687.584 8 141714864.15608       -23.256 8        51.250    36113680.857 7 300188190.58307       -49.151 7        45.312  
I10  38790680.419 7 152219754.15707       -54.423 7        45.000    38790669.476 6 322440717.68806      -115.218 6        38.750  
> 2025 01 25  1 22 30.0000000  0  8      -266.417943459834
I01         0.000 8         0.00008        -0.092 8        52.188           0.000 4         0.00004        -0.196 4        25.000  
I02  38527990.554 7 151188699.36607      -496.863 7        45.469    38527981.402 6 320257059.67306     -1052.465 6        37.656  
I03         0.000 8         0.00008        -0.092 8        50.625           0.000 7         0.00007        -0.196 7        44.219  
I05         0.000 7         0.00007        -0.092 7        46.719           0.000 6         0.00006        -0.196 6        41.875  
I06  38418788.421 7 150760221.45007       -49.366 7        45.625    38418781.000 6 319349354.47106      -104.479 6        40.938  
I07         0.000 7         0.00007        -0.092 7        44.844           0.000 6         0.00006        -0.196 6        40.781  
I09  36113513.517 8 141714180.85008       -22.551 8        51.250    36113506.659 7 300186743.24607       -47.747 7        45.312  
I10  38790265.129 7 152218123.87007       -54.467 7        45.000    38790254.206 6 322437264.73706      -115.514 6        38.750  
> 2025 01 25  1 23  0.0000000  0  8      -269.539047589149
I01         0.000 8         0.00008        -0.024 8        52.188           0.000 3         0.00003        -0.052 3        22.656  
I02  38524190.231 7 151173787.67407      -497.333 7        45.469    38524180.684 6 320225473.05406     -1054.062 6        37.500  
I03         0.000 8         0.00008        -0.024 8        50.781           0.000 7         0.00007        -0.052 7        44.375  
I05         0.000 7         0.00007        -0.024 7        46.719           0.000 6         0.00006        -0.052 6        41.719  
I06  38418411.961 7 150758746.58907       -49.104 7        45.469    38418404.286 6 319346230.44606      -104.156 6        40.781  
I07         0.000 7         0.00007        -0.024 7        44.531           0.000 6         0.00006        -0.052 6        40.781  
I09  36113344.501 8 141713520.18808       -21.727 8        51.094    36113337.534 7 300185343.89507       -45.838 7        45.312  
I10  38789849.479 7 152216495.43307       -54.102 7        45.000    38789838.075 6 322433815.68806      -114.689 6        38.594  
> 2025 01 25  1 23 30.0000000  0  8      -267.224544936803
I01         0.000 8         0.00008        -0.065 8        52.188           0.000 3         0.00003        -0.138 3        22.812  
I02  38520386.408 7 151158858.16107      -498.041 7        45.469    38520376.624 6 320193848.70106     -1055.019 6        37.344  
I03         0.000 8         0.00008        -0.065 8        50.781           0.000 7         0.00007        -0.138 7        44.219  
I05         0.000 7         0.00007        -0.065 7        47.031           0.000 6         0.00006        -0.138 6        41.719  
I06  38418037.295 7 150757273.67807       -49.136 7        45.469    38418029.869 6 319343110.54206      -104.192 6        40.625  
I07         0.000 7         0.00007        -0.065 7        44.844           0.000 6         0.00006        -0.138 6        40.625  
I09  36113182.722 8 141712882.27608       -21.008 8        51.094    36113175.996 7 300183992.73107       -44.406 7        45.312  
I10  38789435.444 7 152214868.83607       -54.197 7        45.000    38789424.672 6 322430370.56706      -114.987 6        38.750  
> 2025 01 25  1 24  0.0000000  0  8      -270.082834338976
I01         0.000 8         0.00008        -0.045 8        52.188           0.000 3         0.00003        -0.096 3        23.281  
I02  38516576.761 7 151143911.45807      -498.541 7        45.781    38516567.023 6 320162187.93706     -1056.182 6        37.500  
I03         0.000 8         0.00008        -0.045 8        50.781           0.000 7         0.00007        -0.096 7        44.219  
I05         0.000 7         0.00007        -0.045 7        47.031           0.000 7         0.00007        -0.096 7        42.188  
I06  38417661.342 7 150755802.71107       -48.939 7        45.625    38417654.286 6 319339994.74706      -104.085 6        40.781  
I07         0.000 7         0.00007        -0.045 7        44.688           0.000 6         0.00006        -0.096 6        40.781  
I09  36113024.927 8 141712267.20908       -20.075 8        50.938    36113018.580 7 300182689.97407       -42.749 7        45.625  
I10  38789021.056 7 152213244.10107       -54.248 7        45.000    38789009.670 6 322426929.38206      -114.822 6        38.594  
> 2025 01 25  1 24 30.0000000  0  8      -266.098995629858
I01         0.000 8         0.00008        -0.102 8        52.188           0.000 3         0.00003        -0.216 3        22.656  
I02  38512764.452 7 151128947.37207      -499.261 7        45.781    38512754.881 6 320130490.34006     -1057.633 6        37.812  
I03         0.000 8         0.00008        -0.102 8        50.781           0.000 7         0.00007        -0.216 7        44.375  
I05         0.000 7         0.00007        -0.102 7        47.031           0.000 7         0.00007        -0.216 7        42.188  
I06  38417288.088 7 150754333.72307       -49.090 7        45.469    38417280.689 6 319336883.16006      -103.816 6        40.938  
I07         0.000 7         0.00007        -0.102 7        44.688           0.000 6         0.00006        -0.216 6        40.625  
I09  36112875.351 8 141711675.10208       -19.451 8        50.938    36112868.855 7 300181435.83707       -41.189 7        45.781  
I10  38788608.406 7 152211621.22907       -54.345 7        45.000    38788597.457 6 322423492.13306      -115.019 6        38.750  
> 2025 01 25  1 25  0.0000000  0  8      -265.487902716171
I01         0.000 8         0.00008         0.036 8        52.344           0.000 3         0.00003         0.077 3        23.438  
I02  38508946.959 7 151113966.75207      -499.656 7        45.469    38508937.757 6 320098757.73006     -1058.238 6        37.969  
I03         0.000 8         0.00008         0.036 8        50.938           0.000 7         0.00007         0.077 7        44.375  
I05         0.000 7         0.00007         0.036 7        47.344           0.000 7         0.00007         0.077 7        42.188  
I06  38416914.547 7 150752866.69107       -48.542 7        45.469    38416907.069 6 319333775.72206      -103.210 6        40.781  
I07         0.000 7         0.00007         0.036 7        44.688           0.000 6         0.00006         0.077 6        40.625  
I09  36112730.262 8 141711106.05308       -18.529 8        50.938    36112724.258 7 300180230.56307       -39.291 7        45.938  
I10  38788195.445 7 152210000.23907       -53.885 7        45.000    38788184.034 6 322420058.85406      -114.092 6        38.906  
> 2025 01 25  1 25 30.0000000  0  8      -265.417541491999
I01         0.000 8         0.00008        -0.019 8        52.344           0.000 3         0.00003        -0.040 3        23.281  
I02  38505124.890 7 151098967.96807      -500.104 7        45.469    38505115.404 6 320066986.62806     -1059.548 6        38.281  
I03         0.000 8         0.00008        -0.019 8        50.938           0.000 7         0.00007        -0.040 7        44.375  
I05         0.000 7         0.00007        -0.019 7        47.500           0.000 7         0.00007        -0.040 7        42.031  
I06  38416541.323 7 150751401.63607       -48.849 7        45.781    38416533.524 6 319330672.45106      -103.332 6        40.625  
I07         0.000 7         0.00007        -0.019 7        44.688           0.000 6         0.00006        -0.040 6        40.625  
I09  36112591.417 8 141710560.18508       -17.818 8        51.094    36112585.342 7 300179074.38907       -37.841 7        46.094  
I10  38787783.045 7 152208381.11607       -54.121 7        45.156    38787771.848 6 322416629.57106      -113.960 6        38.906  
> 2025 01 25  1 26  0.0000000  0  8      -265.114643322800
I01         0.000 8         0.00008         0.016 8        52.344           0.000 4         0.00004         0.033 4        26.094  
I02  38501298.780 7 151083953.00007      -500.585 7        45.469    38501289.910 6 320035181.25906     -1060.536 6        38.750  
I03         0.000 8         0.00008         0.016 8        50.781           0.000 7         0.00007         0.033 7        44.375  
I05         0.000 7         0.00007         0.016 7        47.969           0.000 6         0.00006         0.033 6        41.719  
I06  38416168.273 7 150749938.51607       -48.601 7        45.625    38416160.735 6 319327573.29906      -103.168 6        40.781  
I07         0.000 7         0.00007         0.016 7        44.531           0.000 6         0.00006         0.033 6        40.469  
I09  36112458.139 8 141710037.59108       -17.123 8        51.094    36112452.279 7 300177967.51507       -36.099 7        46.094  
I10  38787370.967 7 152206763.88807       -53.752 7        45.156    38787359.518 6 322413204.30106      -113.996 6        39.062  
> 2025 01 25  1 26 30.0000000  0  8      -264.162799533079
I01         0.000 8         0.00008        -0.091 8        52.188           0.000 3         0.00003        -0.192 3        22.500  
I02  38497468.244 7 151068921.02207      -501.475 7        45.156    38497459.486 6 320003339.84906     -1062.295 6        39.375  
I03         0.000 8         0.00008        -0.091 8        50.781           0.000 7         0.00007        -0.192 7        44.375  
I05         0.000 8         0.00008        -0.091 8        48.125           0.000 6         0.00006        -0.192 6        41.562  
I06  38415795.986 7 150748477.41007       -48.763 7        45.625    38415788.588 6 319324478.41606      -103.546 6        40.469  
I07         0.000 7         0.00007        -0.091 7        44.531           0.000 6         0.00006        -0.192 6        40.625  
I09  36112330.856 8 141709538.31708       -16.314 8        51.094    36112325.228 7 300176910.02607       -34.636 7        46.094  
I10  38786959.543 7 152205148.55307       -54.038 7        45.000    38786948.326 6 322409783.05406      -114.305 6        38.750  
> 2025 01 25  1 27  0.0000000  0  8      -263.261250167261
I01         0.000 8         0.00008        -0.040 8        52.188           0.000 3         0.00003        -0.085 3        23.594  
I02  38493633.449 7 151053872.49807      -501.915 7        45.156    38493625.290 6 319971463.40506     -1063.311 6        40.000  
I03         0.000 8         0.00008        -0.040 8        50.938           0.000 7         0.00007        -0.085 7        44.531  
I05         0.000 7         0.00007        -0.040 7        47.812           0.000 6         0.00006        -0.085 6        41.562  
I06  38415424.207 7 150747018.29007       -48.682 7        45.781    38415417.105 6 319321387.73906      -103.170 6        40.781  
I07         0.000 7         0.00007        -0.040 7        44.531           0.000 6         0.00006        -0.085 6        40.781  
I09  36112209.601 8 141709062.50808       -15.495 8        50.938    36112204.337 7 300175902.28207       -32.853 7        46.562  
I10  38786548.480 7 152203535.12407       -53.664 7        45.000    38786537.086 6 322406365.82406      -113.946 6        38.906  
> 2025 01 25  1 27 30.0000000  0  8      -263.141756744560
I01         0.000 8         0.00008        -0.074 8        52.031           0.000 3         0.00003        -0.157 3        21.719  
I02  38489794.631 7 151038807.55407      -502.511 7        45.156    38489786.600 6 319939552.18306     -1064.376 6        39.688  
I03         0.000 8         0.00008        -0.074 8        50.781           0.000 7         0.00007        -0.157 7        43.594  
I05         0.000 7         0.00007        -0.074 7        47.969           0.000 6         0.00006        -0.157 6        41.250  
I06  38415053.016 7 150745561.16507       -48.650 7        45.625    38415045.335 6 319318301.29106      -103.052 6        39.844  
I07         0.000 7         0.00007        -0.074 7        44.844           0.000 6         0.00006        -0.157 6        39.844  
I09  36112094.436 8 141708610.25508       -14.881 8        50.938    36112089.040 7 300174944.42207       -31.278 7        45.781  
I10  38786137.931 7 152201923.61907       -53.783 7        45.156    38786126.619 6 322402952.66606      -114.008 6        38.750  
> 2025 01 25  1 28  0.0000000  0  8      -262.906321974533
I01         0.000 8         0.00008        -0.045 8        52.188           0.000 4         0.00004        -0.095 4        25.938  
I02  38485951.664 7 151023726.82407      -503.052 7        45.156    38485943.533 6 319907607.50606     -1065.527 6        40.469  
I03         0.000 8         0.00008        -0.045 8        50.781           0.000 7         0.00007        -0.095 7        44.688  
I05         0.000 7         0.00007        -0.045 7        47.500           0.000 6         0.00006        -0.095 6        41.719  
I06  38414682.268 7 150744106.03407       -48.362 7        45.781    38414674.897 6 319315219.07606      -102.792 6        40.625  
I07         0.000 7         0.00007        -0.045 7        44.531           0.000 6         0.00006        -0.095 6        40.625  
I09  36111985.132 8 141708181.66708       -13.950 8        50.938    36111979.619 7 300174036.68407       -29.599 7        46.250  
I10  38785727.888 7 152200314.02707       -53.773 7        45.156    38785716.552 6 322399543.57706      -113.635 6        39.062  
> 2025 01 25  1 28 30.0000000  0  8      -263.287221502377
I01         0.000 8         0.00008         0.006 8        52.188           0.000 3         0.00003         0.013 3        21.875  
I02  38482104.487 7 151008629.68707      -503.499 7        45.156    38482096.733 6 319875628.09606     -1066.614 6        40.938  
I03         0.000 8         0.00008         0.006 8        50.938           0.000 7         0.00007         0.013 7        44.688  
I05         0.000 7         0.00007         0.006 7        47.344           0.000 6         0.00006         0.013 6        41.250  
I06  38414311.879 7 150742652.93907       -48.320 7        45.625    38414304.269 6 319312141.16206      -102.452 6        40.625  
I07         0.000 7         0.00007         0.006 7        44.688           0.000 6         0.00006         0.013 6        40.625  
I09  36111882.114 8 141707776.86108       -12.942 8        50.781    36111876.413 7 300173179.34807       -27.649 7        46.250  
I10  38785318.329 7 152198706.35207       -53.475 7        45.156    38785306.659 6 322396138.59406      -113.358 6        39.219  
> 2025 01 25  1 29  0.0000000  0  8      -262.759531878422
I01         0.000 8         0.00008         0.006 8        52.031           0.000 4         0.00004         0.013 4        24.531  
I02  38478253.545 7 150993516.70107      -503.871 7        45.156    38478245.554 6 319843615.14406     -1067.489 6        41.094  
I03         0.000 8         0.00008         0.006 8        50.938           0.000 7         0.00007         0.013 7        44.531  
I05         0.000 7         0.00007         0.006 7        47.812           0.000 6         0.00006         0.013 6        41.250  
I06  38413942.228 7 150741201.83207       -48.290 7        45.781    38413934.603 6 319309067.49006      -102.462 6        40.625  
I07         0.000 7         0.00007         0.006 7        44.531           0.000 6         0.00006         0.013 6        40.625  
I09  36111784.983 8 141707395.94308       -12.167 8        50.938    36111779.178 7 300172372.59807       -25.993 7        46.250  
I10  38784909.096 7 152197100.62807       -53.485 7        45.000    38784897.957 6 322392737.71206      -113.325 6        39.062  
> 2025 01 25  1 29 30.0000000  0  8      -262.782139376922
I01         0.000 8         0.00008        -0.073 8        51.875           0.000 4         0.00004        -0.154 4        25.156  
I02  38474398.567 7 150978387.84907      -504.652 7        45.469    38474390.573 6 319811568.57506     -1069.184 6        41.406  
I03         0.000 8         0.00008        -0.073 8        50.781           0.000 7         0.00007        -0.154 7        44.688  
I05         0.000 7         0.00007        -0.073 7        47.969           0.000 6         0.00006        -0.154 6        40.938  
I06  38413572.962 7 150739752.75607       -48.433 7        45.625    38413565.227 6 319305998.07006      -102.500 6        40.625  
I07         0.000 7         0.00007        -0.073 7        44.531           0.000 6         0.00006        -0.154 6        40.625  
I09  36111694.058 8 141707038.95308       -11.604 8        50.938    36111688.197 7 300171616.53807       -24.383 7        46.250  
I10  38784500.839 7 152195496.85007       -53.458 7        45.156    38784489.535 6 322389340.94706      -113.429 6        39.219  
> 2025 01 25  1 30  0.0000000  0  8      -262.344975267402
I01         0.000 8         0.00008         0.003 8        51.875           0.000 4         0.00004         0.005 4        24.062  
I02  38470539.555 7 150963243.33807      -504.958 7        45.625    38470531.607 6 319779488.80906     -1069.673 6        41.719  
I03         0.000 8         0.00008         0.003 8        50.781           0.000 7         0.00007         0.005 7        44.688  
I05         0.000 8         0.00008         0.003 8        48.125           0.000 6         0.00006         0.005 6        40.625  
I06  38413204.039 7 150738305.72007       -48.062 7        45.625    38413196.466 6 319302933.01506      -102.141 6        40.469  
I07         0.000 7         0.00007         0.003 7        44.531           0.000 6         0.00006         0.005 6        40.469  
I09  36111609.379 8 141706706.03908       -10.730 8        50.938    36111603.725 7 300170911.47907       -22.711 7        46.562  
I10  38784092.891 7 152193895.03807       -53.298 7        45.156    38784081.341 6 322385948.33806      -112.965 6        39.375  
> 2025 01 25  1 30 30.0000000  0  8      -262.385834771069
I01         0.000 8         0.00008         0.009 8        52.031           0.000 4         0.00004         0.020 4        25.000  
I02  38466676.108 7 150948082.63907      -505.255 7        45.625    38466668.315 6 319747374.75806     -1070.781 6        41.719  
I03         0.000 8         0.00008         0.009 8        50.781           0.000 7         0.00007         0.020 7        44.844  
I05         0.000 7         0.00007         0.009 7        47.969           0.000 6         0.00006         0.020 6        40.938  
I06  38412835.999 7 150736860.71307       -48.138 7        45.625    38412828.295 6 319299872.25206      -102.023 6        40.469  
I07         0.000 7         0.00007         0.009 7        44.531           0.000 6         0.00006         0.020 6        40.469  
I09  36111530.799 8 141706397.32608        -9.903 8        50.938    36111525.192 7 300170257.68707       -20.871 7        46.719  
I10  38783685.237 7 152192295.18307       -53.340 7        45.156    38783673.638 6 322382559.88806      -112.644 6        39.375  
> 2025 01 25  1 31  0.0000000  0  8      -262.196565993023
I01         0.000 8         0.00008        -0.015 8        52.188           0.000 4         0.00004        -0.032 4        26.094  
I02  38462809.024 7 150932907.90907      -506.142 7        45.469    38462801.494 6 319715230.99806     -1072.170 6        41.719  
I03         0.000 8         0.00008        -0.015 8        50.781           0.000 7         0.00007        -0.032 7        44.688  
I05         0.000 7         0.00007        -0.015 7        47.812           0.000 6         0.00006        -0.032 6        40.938  
I06  38412468.610 7 150735417.74907       -48.005 7        45.781    38412460.715 6 319296815.81606      -101.832 6        40.625  
I07         0.000 7         0.00007        -0.015 7        44.688           0.000 6         0.00006        -0.032 6        40.312  
I09  36111458.053 8 141706112.87408        -9.124 8        50.938    36111452.856 7 300169655.29407       -19.214 7        46.719  
I10  38783278.214 7 152190697.29407       -53.090 7        45.156    38783266.234 6 322379175.61106      -112.657 6        39.375  
> 2025 01 25  1 31 30.0000000  0  8      -266.413943279041
I01         0.000 8         0.00008        -0.084 8        52.188           0.000 3         0.00003        -0.177 3        23.750  
I02  38458935.428 7 150917717.04407      -506.754 7        45.312    38458929.738 6 319683053.40306     -1073.320 6        41.875  
I03         0.000 8         0.00008        -0.084 8        50.781           0.000 7         0.00007        -0.177 7        44.844  
I05         0.000 7         0.00007        -0.084 7        47.500           0.000 6         0.00006        -0.177 6        40.938  
I06  38412099.753 7 150733976.56107       -48.162 7        45.469    38412092.255 6 319293763.48806      -101.686 6        40.625  
I07         0.000 7         0.00007        -0.084 7        44.531           0.000 6         0.00006        -0.177 6        40.469  
I09  36111389.967 8 141705852.51108        -8.281 8        50.938    36111385.546 7 300169104.26307       -17.705 7        46.406  
I10  38782870.440 7 152189101.11507       -53.571 7        45.156    38782858.958 6 322375795.28306      -112.725 6        39.219  
> 2025 01 25  1 32  0.0000000  0  8      -262.014164444102
I01         0.000 8         0.00008        -0.026 8        52.188           0.000 4         0.00004        -0.054 4        25.469  
I02  38455063.440 7 150902512.04807      -506.958 7        45.625    38455055.922 7 319650845.23007     -1073.803 7        42.188  
I03         0.000 8         0.00008        -0.026 8        50.781           0.000 7         0.00007        -0.054 7        44.688  
I05         0.000 7         0.00007        -0.026 7        47.344           0.000 6         0.00006        -0.054 6        40.625  
I06  38411734.561 7 150732538.00707       -47.972 7        45.469    38411726.719 6 319290716.08706      -101.647 6        40.469  
I07         0.000 7         0.00007        -0.026 7        44.688           0.000 6         0.00006        -0.054 6        40.312  
I09  36111331.912 8 141705617.16508        -7.502 8        50.938    36111326.491 7 300168605.56607       -15.875 7        46.719  
I10  38782465.424 7 152187507.49707       -53.154 7        45.156    38782453.968 6 322372419.70606      -112.716 6        39.375  
> 2025 01 25  1 32 30.0000000  0  8      -261.955109465299
I01         0.000 8         0.00008        -0.035 8        52.031           0.000 4         0.00004        -0.074 4        27.031  
I02  38451185.047 7 150887291.77807      -507.764 7        45.625    38451177.679 7 319618605.03007     -1075.412 7        42.344  
I03         0.000 8         0.00008        -0.035 8        50.625           0.000 7         0.00007        -0.074 7        44.688  
I05         0.000 7         0.00007        -0.035 7        47.344           0.000 6         0.00006        -0.074 6        40.938  
I06  38411368.408 7 150731101.25807       -47.913 7        45.469    38411360.554 6 319287672.83106      -101.311 6        40.625  
I07         0.000 7         0.00007        -0.035 7        44.531           0.000 6         0.00006        -0.074 6        40.156  
I09  36111278.351 8 141705406.14408        -6.581 8        50.938    36111272.629 7 300168158.72007       -13.893 7        46.406  
I10  38782060.014 7 152185915.58807       -53.058 7        45.000    38782048.258 6 322369048.11506      -112.342 6        39.219  
> 2025 01 25  1 33  0.0000000  0  8      -262.160887475845
I01         0.000 8         0.00008        -0.055 8        52.031           0.000 3         0.00003        -0.117 3        21.719  
I02  38447302.768 7 150872056.82207      -508.309 7        45.781    38447295.201 6 319586333.72306     -1076.534 6        41.875  
I03         0.000 8         0.00008        -0.055 8        50.625           0.000 7         0.00007        -0.117 7        44.844  
I05         0.000 7         0.00007        -0.055 7        47.344           0.000 6         0.00006        -0.117 6        41.094  
I06  38411002.720 7 150729666.52407       -47.806 7        45.469    38410995.254 6 319284633.86206      -101.337 6        40.625  
I07         0.000 7         0.00007        -0.055 7        44.688           0.000 6         0.00006        -0.117 6        40.156  
I09  36111230.651 8 141705219.79808        -5.885 8        51.094    36111224.942 7 300167764.15307       -12.463 7        46.250  
I10  38781655.076 7 152184325.66507       -52.919 7        45.156    38781643.586 6 322365680.74306      -112.148 6        39.375  
> 2025 01 25  1 33 30.0000000  0  8      -262.234767749577
I01         0.000 8         0.00008        -0.067 8        52.031           0.000 4         0.00004        -0.142 4        26.406  
I02  38443416.956 7 150856807.43207      -508.619 7        45.625    38443409.055 6 319554031.84506     -1077.346 6        41.719  
I03         0.000 8         0.00008        -0.067 8        50.625           0.000 7         0.00007        -0.142 7        44.688  
I05         0.000 7         0.00007        -0.067 7        47.031           0.000 6         0.00006        -0.142 6        40.938  
I06  38410637.902 7 150728233.90907       -47.681 7        45.469    38410630.480 6 319281599.37306      -101.166 6        40.625  
I07         0.000 7         0.00007        -0.067 7        44.531           0.000 6         0.00006        -0.142 6        40.156  
I09  36111189.837 8 141705058.20408        -5.023 8        51.250    36111183.782 7 300167422.01907       -10.800 7        46.250  
I10  38781250.610 7 152182737.78707       -53.219 7        45.156    38781238.772 6 322362317.63806      -112.323 6        39.375  
> 2025 01 25  1 34  0.0000000  0  8      -262.534496263763
I01         0.000 8         0.00008        -0.049 8        52.031           0.000 3         0.00003        -0.104 3        21.562  
I02  38439527.057 7 150841543.72107      -509.029 7        45.469    38439519.564 6 319521699.64906     -1078.497 6        41.562  
I03         0.000 8         0.00008        -0.049 8        50.625           0.000 7         0.00007        -0.104 7        44.844  
I05         0.000 7         0.00007        -0.049 7        46.875           0.000 6         0.00006        -0.104 6        40.938  
I06  38410273.388 7 150726803.37207       -47.597 7        45.312    38410265.741 6 319278569.28406      -100.936 6        40.469  
I07         0.000 7         0.00007        -0.049 7        44.531           0.000 6         0.00006        -0.104 6        40.000  
I09  36111154.947 8 141704921.51208        -4.226 8        51.094    36111148.644 7 300167132.63407        -8.822 7        45.938  
I10  38780846.559 7 152181151.93307       -53.029 7        45.156    38780834.862 6 322358958.83606      -112.081 6        39.219  
> 2025 01 25  1 34 30.0000000  0  8      -262.313344181761
I01         0.000 8         0.00008        -0.052 8        52.188           0.000 3         0.00003        -0.110 3        22.969  
I02  38435634.521 7 150826266.43607      -509.549 7        45.625    38435626.860 6 319489338.68106     -1079.315 6        41.719  
I03         0.000 8         0.00008        -0.052 8        50.625           0.000 7         0.00007        -0.110 7        44.688  
I05         0.000 7         0.00007        -0.052 7        47.188           0.000 6         0.00006        -0.110 6        41.094  
I06  38409909.241 7 150725374.92907       -47.822 7        45.312    38409901.561 6 319275543.64906      -100.976 6        40.469  
I07         0.000 7         0.00007        -0.052 7        44.531           0.000 6         0.00006        -0.110 6        40.000  
I09  36111126.505 8 141704809.74608        -3.320 8        50.938    36111119.998 7 300166896.05407        -7.164 7        45.781  
I10  38780442.931 7 152179568.09807       -52.651 7        45.156    38780431.683 6 322355604.32806      -111.998 6        39.531  
> 2025 01 25  1 35  0.0000000  0  8      -262.667984194662
I01         0.000 8         0.00008        -0.063 8        52.031           0.000 3         0.00003        -0.133 3        23.750  
I02  38431737.625 7 150810974.63807      -510.037 7        45.469    38431729.950 6 319456946.97306     -1080.203 6        41.719  
I03         0.000 8         0.00008        -0.063 8        50.625           0.000 7         0.00007        -0.133 7        44.844  
I05         0.000 7         0.00007        -0.063 7        47.031           0.000 6         0.00006        -0.133 6        40.781  
I06  38409545.945 7 150723948.61107       -47.671 7        45.156    38409538.243 6 319272522.50306      -100.871 6        40.625  
I07         0.000 7         0.00007        -0.063 7        44.375           0.000 6         0.00006        -0.133 6        39.844  
I09  36111104.654 8 141704723.08508        -2.585 8        50.938    36111097.733 7 300166712.67007        -5.333 7        45.781  
I10  38780040.012 7 152177986.30007       -52.734 7        45.156    38780028.505 6 322352254.13406      -111.904 6        39.375  
> 2025 01 25  1 35 30.0000000  0  8      -262.751205645144
I01         0.000 8         0.00008        -0.054 8        51.875           0.000 4         0.00004        -0.115 4        24.375  
I02  38427837.638 7 150795668.28907      -510.487 7        45.781    38427829.448 6 319424524.45606     -1081.342 6        41.719  
I03         0.000 8         0.00008        -0.054 8        50.625           0.000 7         0.00007        -0.115 7        44.844  
I05         0.000 7         0.00007        -0.054 7        47.188           0.000 6         0.00006        -0.115 6        41.250  
I06  38409182.969 7 150722524.36507       -47.784 7        45.312    38409175.260 6 319269505.74306      -100.641 6        40.781  
I07         0.000 7         0.00007        -0.054 7        44.531           0.000 6         0.00006        -0.115 6        40.156  
I09  36111089.055 8 141704661.61008        -1.556 8        50.938    36111082.101 7 300166582.63807        -3.412 7        45.781  
I10  38779637.582 7 152176406.52707       -52.758 7        45.156    38779625.947 6 322348908.25806      -111.374 6        39.531  
> 2025 01 25  1 36  0.0000000  0  8      -263.053113397144
I01         0.000 8         0.00008        -0.017 8        51.875           0.000 4         0.00004        -0.035 4        24.688  
I02  38423933.863 7 150780349.08407      -510.839 7        45.781    38423925.466 6 319392074.71506     -1082.061 6        41.719  
I03         0.000 8         0.00008        -0.017 8        50.625           0.000 7         0.00007        -0.035 7        44.844  
I05         0.000 7         0.00007        -0.017 7        47.031           0.000 6         0.00006        -0.035 6        41.719  
I06  38408820.353 7 150721102.27407       -47.314 7        45.156    38408812.571 6 319266493.58706      -100.297 6        40.625  
I07         0.000 7         0.00007        -0.017 7        44.531           0.000 6         0.00006        -0.035 6        40.312  
I09  36111079.712 8 141704625.43808        -0.800 8        51.094    36111072.878 7 300166506.19007        -1.692 7        45.938  
I10  38779235.957 7 152174828.81207       -52.553 7        45.156    38779224.251 6 322345566.74806      -111.487 6        39.844  
> 2025 01 25  1 36 30.0000000  0  8      -262.770973501364
I01         0.000 8         0.00008        -0.056 8        51.875           0.000 4         0.00004        -0.118 4        26.719  
I02  38420026.442 7 150765015.46007      -511.438 7        45.938    38420018.031 6 319359594.42706     -1083.023 6        41.094  
I03         0.000 8         0.00008        -0.056 8        50.625           0.000 7         0.00007        -0.118 7        44.062  
I05         0.000 7         0.00007        -0.056 7        47.031           0.000 6         0.00006        -0.118 6        41.719  
I06  38408458.826 7 150719682.27407       -47.419 7        45.156    38408451.475 6 319263485.84506      -100.245 6        40.156  
I07         0.000 7         0.00007        -0.056 7        44.531           0.000 6         0.00006        -0.118 6        39.688  
I09  36111077.315 8 141704614.65908         0.016 8        51.250    36111070.305 7 300166483.54107         0.019 7        45.312  
I10  38778834.452 7 152173253.16707       -52.642 7        45.156    38778822.793 6 322342229.60106      -111.377 6        39.062  
> 2025 01 25  1 37  0.0000000  0  8      -263.078502662753
I01         0.000 8         0.00008        -0.047 8        52.031           0.000 4         0.00004        -0.099 4        25.469  
I02  38416115.742 7 150749669.26507      -511.850 7        45.938    38416107.274 6 319327087.51906     -1084.077 6        40.625  
I03         0.000 8         0.00008        -0.047 8        50.625           0.000 7         0.00007        -0.099 7        44.219  
I05         0.000 7         0.00007        -0.047 7        47.031           0.000 6         0.00006        -0.099 6        41.562  
I06  38408097.664 7 150718264.39707       -47.290 7        45.156    38408089.606 6 319260482.60406      -100.287 6        40.156  
I07         0.000 7         0.00007        -0.047 7        44.531           0.000 6         0.00006        -0.099 6        39.688  
I09  36111081.002 8 141704629.35608         0.836 8        51.406    36111074.067 7 300166514.85207         1.773 7        45.156  
I10  38778433.705 7 152171679.58607       -52.384 7        45.156    38778421.840 6 322338896.81606      -111.093 6        39.219  
> 2025 01 25  1 37 30.0000000  0  8      -262.971403442320
I01         0.000 8         0.00008        -0.075 8        51.875           0.000 3         0.00003        -0.160 3        22.031  
I02  38412201.825 7 150734309.30307      -512.380 7        46.094    38412192.833 6 319294551.46606     -1085.138 6        40.938  
I03         0.000 8         0.00008        -0.075 8        50.625           0.000 7         0.00007        -0.160 7        44.688  
I05         0.000 7         0.00007        -0.075 7        47.188           0.000 6         0.00006        -0.160 6        41.562  
I06  38407736.986 7 150716848.68507       -47.362 7        45.156    38407729.148 6 319257483.95206      -100.060 6        40.469  
I07         0.000 7         0.00007        -0.075 7        44.531           0.000 6         0.00006        -0.160 6        40.156  
I09  36111091.267 8 141704669.60808         1.755 8        51.406    36111084.405 7 300166600.29407         3.546 7        45.781  
I10  38778033.316 7 152170108.12407       -52.383 7        45.156    38778021.788 6 322335568.47706      -111.329 6        39.688  
> 2025 01 25  1 38  0.0000000  0  8      -263.144125007091
I01         0.000 8         0.00008        -0.056 8        51.719           0.000 4         0.00004        -0.119 4        25.625  
I02  38408284.276 7 150718935.95507      -512.867 7        46.094    38408274.929 6 319261987.06606     -1086.211 6        40.156  
I03         0.000 8         0.00008        -0.056 8        50.625           0.000 7         0.00007        -0.119 7        44.219  
I05         0.000 7         0.00007        -0.056 7        47.188           0.000 6         0.00006        -0.119 6        41.562  
I06  38407376.918 7 150715435.11207       -47.153 7        45.156    38407369.015 6 319254489.85706       -99.592 6        40.156  
I07         0.000 7         0.00007        -0.056 7        44.531           0.000 6         0.00006        -0.119 6        39.688  
I09  36111108.137 8 141704735.57808         2.516 8        51.250    36111101.192 7 300166740.22907         5.343 7        45.469  
I10  38777633.733 7 152168538.72307       -52.259 7        45.312    38777621.878 6 322332244.53206      -110.766 6        39.531  
> 2025 01 25  1 38 30.0000000  0  8      -263.469993843814
I01         0.000 8         0.00008        -0.051 8        51.562           0.000 3         0.00003        -0.109 3        22.500  
I02  38404363.590 7 150703549.97007      -513.258 7        45.938    38404353.941 6 319229395.86306     -1087.137 6        40.469  
I03         0.000 8         0.00008        -0.051 8        50.781           0.000 7         0.00007        -0.109 7        44.844  
I05         0.000 7         0.00007        -0.051 7        47.188           0.000 6         0.00006        -0.109 6        41.719  
I06  38407017.214 7 150714023.68007       -47.042 7        45.156    38407009.683 6 319251500.28406       -99.556 6        40.625  
I07         0.000 7         0.00007        -0.051 7        44.531           0.000 6         0.00006        -0.109 6        39.844  
I09  36111131.705 8 141704827.33508         3.398 8        51.250    36111124.861 7 300166934.77707         7.319 7        45.938  
I10  38777234.147 7 152166971.39107       -52.177 7        45.156    38777222.389 6 322328925.01806      -110.692 6        40.000  
> 2025 01 25  1 39  0.0000000  0  8      -264.869150130870
I01         0.000 8         0.00008        -0.017 8        51.719           0.000 4         0.00004        -0.035 4        25.625  
I02  38400439.363 7 150688151.09907      -513.404 7        45.781    38400429.901 6 319196777.37306     -1087.499 6        39.531  
I03         0.000 8         0.00008        -0.017 8        50.625           0.000 7         0.00007        -0.035 7        44.062  
I05         0.000 7         0.00007        -0.017 7        46.875           0.000 6         0.00006        -0.035 6        41.250  
I06  38406658.217 7 150712614.41707       -46.937 7        45.156    38406650.333 6 319248515.30706       -99.449 6        40.000  
I07         0.000 7         0.00007        -0.017 7        44.531           0.000 6         0.00006        -0.035 6        39.375  
I09  36111161.814 8 141704944.93208         4.333 8        51.094    36111154.705 7 300167184.06007         9.192 7        45.156  
I10  38776835.629 7 152165406.15907       -52.166 7        45.156    38776823.700 6 322325609.96806      -110.597 6        39.375  
> 2025 01 25  1 39 30.0000000  0  8      -264.772075508139
I01         0.000 8         0.00008        -0.013 8        51.562           0.000 4         0.00004        -0.028 4        25.938  
I02  38396512.065 7 150672739.76307      -513.938 7        45.469    38396502.783 6 319164132.49306     -1088.472 6        40.000  
I03         0.000 8         0.00008        -0.013 8        50.781           0.000 7         0.00007        -0.028 7        44.531  
I05         0.000 7         0.00007        -0.013 7        47.031           0.000 6         0.00006        -0.028 6        41.094  
I06  38406299.700 7 150711207.34307       -46.877 7        45.156    38406291.823 6 319245534.98906       -99.317 6        40.781  
I07         0.000 7         0.00007        -0.013 7        44.531           0.000 6         0.00006        -0.028 6        39.688  
I09  36111198.516 8 141705088.52608         5.199 8        51.094    36111191.431 7 300167488.40907        11.145 7        45.625  
I10  38776437.319 7 152163843.04507       -52.077 7        45.312    38776425.707 6 322322299.38106      -110.104 6        39.844  
> 2025 01 25  1 40  0.0000000  0  8      -264.812487549445
I01         0.000 8         0.00008        -0.045 8        51.406           0.000 3         0.00003        -0.096 3        23.594  
I02  38392581.606 7 150657316.61107      -514.408 7        45.312    38392571.988 6 319131462.56706     -1089.750 6        39.531  
I03         0.000 8         0.00008        -0.045 8        50.781           0.000 7         0.00007        -0.096 7        44.688  
I05         0.000 7         0.00007        -0.045 7        46.875           0.000 6         0.00006        -0.096 6        41.406  
I06  38405941.831 7 150709802.41907       -46.856 7        45.156    38405933.956 6 319242559.21606       -99.359 6        40.781  
I07         0.000 7         0.00007        -0.045 7        44.531           0.000 6         0.00006        -0.096 6        39.844  
I09  36111241.967 8 141705258.21208         6.079 8        51.250    36111234.607 7 300167848.03707        12.895 7        45.938  
I10  38776039.753 7 152162282.05007       -52.006 7        45.312    38776028.153 6 322318993.27606      -110.156 6        39.844  
> 2025 01 25  1 40 30.0000000  0  8      -265.083546161234
I01         0.000 8         0.00008        -0.001 8        51.250           0.000 3         0.00003        -0.001 3        23.438  
I02  38388648.162 7 150641880.65007      -514.634 7        45.312    38388638.354 6 319098765.50606     -1090.398 6        39.375  
I03         0.000 8         0.00008        -0.001 8        50.781           0.000 7         0.00007        -0.001 7        44.531  
I05         0.000 7         0.00007        -0.001 7        47.031           0.000 6         0.00006        -0.001 6        41.406  
I06  38405584.364 7 150708399.68207       -46.634 7        45.156    38405576.673 6 319239588.08606       -99.055 6        40.781  
I07         0.000 7         0.00007        -0.001 7        44.531           0.000 6         0.00006        -0.001 6        39.531  
I09  36111291.854 8 141705454.06108         6.929 8        51.406    36111284.739 7 300168263.08707        14.692 7        45.938  
I10  38775642.762 7 152160723.18807       -51.726 7        45.312    38775630.840 6 322315691.69006      -109.886 6        40.000  
> 2025 01 25  1 41  0.0000000  0  8      -265.306930186908
I01         0.000 8         0.00008        -0.059 8        51.406           0.000 4         0.00004        -0.125 4        24.375  
I02  38384711.431 7 150626431.98507      -515.173 7        45.156    38384701.540 6 319066041.56006     -1091.365 6        39.219  
I03         0.000 8         0.00008        -0.059 8        50.781           0.000 7         0.00007        -0.125 7        44.688  
I05         0.000 7         0.00007        -0.059 7        47.031           0.000 6         0.00006        -0.125 6        41.875  
I06  38405227.552 7 150706999.11707       -46.684 7        45.156    38405219.506 6 319236621.54306       -99.010 6        40.781  
I07         0.000 7         0.00007        -0.059 7        44.531           0.000 6         0.00006        -0.125 6        39.531  
I09  36111348.470 8 141705676.19108         7.765 8        51.250    36111341.405 7 300168733.81207        16.504 7        45.938  
I10  38775246.390 7 152159166.45907       -51.977 7        45.312    38775234.294 6 322312394.62106      -110.126 6        40.000  
> 2025 01 25  1 41 30.0000000  0  8      -265.179252941748
I01         0.000 8         0.00008        -0.032 8        51.406           0.000 4         0.00004        -0.068 4        27.188  
I02  38380771.879 7 150610972.03807      -515.529 7        45.156    38380762.075 6 319033293.71806     -1092.076 6        38.594  
I03         0.000 8         0.00008        -0.032 8        50.781           0.000 7         0.00007        -0.068 7        43.906  
I05         0.000 7         0.00007        -0.032 7        47.188           0.000 6         0.00006        -0.068 6        40.938  
I06  38404871.350 7 150705600.73307       -46.547 7        45.156    38404863.218 6 319233659.62206       -98.719 6        40.156  
I07         0.000 7         0.00007        -0.032 7        44.531           0.000 6         0.00006        -0.068 6        38.750  
I09  36111411.856 8 141705924.68208         8.649 8        51.250    36111404.762 7 300169260.38907        18.372 7        45.312  
I10  38774850.283 7 152157611.86207       -51.784 7        45.156    38774838.265 6 322309102.08206      -109.811 6        39.531  
> 2025 01 25  1 42  0.0000000  0  8      -265.170142013736
I01         0.000 8         0.00008        -0.070 8        51.250           0.000 3         0.00003        -0.149 3        23.281  
I02  38376829.271 7 150595499.85707      -516.003 7        45.000    38376819.341 6 319000519.97106     -1092.987 6        38.906  
I03         0.000 8         0.00008        -0.070 8        50.781           0.000 7         0.00007        -0.149 7        44.688  
I05         0.000 7         0.00007        -0.070 7        47.188           0.000 6         0.00006        -0.149 6        41.250  
I06  38404515.217 7 150704204.58007       -46.559 7        45.156    38404507.436 6 319230702.44706       -98.711 6        40.781  
I07         0.000 7         0.00007        -0.070 7        44.531           0.000 6         0.00006        -0.149 6        39.375  
I09  36111481.877 8 141706199.63908         9.452 8        51.250    36111474.804 7 300169843.01507        20.225 7        45.781  
I10  38774454.787 7 152156059.42407       -51.955 7        45.156    38774442.798 6 322305814.09006      -109.664 6        40.156  
> 2025 01 25  1 42 30.0000000  0  8      -264.704139275349
I01         0.000 8         0.00008        -0.101 8        51.562           0.000 4         0.00004        -0.215 4        28.125  
I02  38372883.832 7 150580016.17107      -516.574 7        45.000    38372873.854 6 318967721.83106     -1094.398 6        38.906  
I03         0.000 8         0.00008        -0.101 8        50.781           0.000 7         0.00007        -0.215 7        44.688  
I05         0.000 7         0.00007        -0.101 7        47.344           0.000 6         0.00006        -0.215 6        41.406  
I06  38404160.318 7 150702810.63307       -46.599 7        45.000    38404152.433 6 319227749.93806       -98.587 6        40.781  
I07         0.000 7         0.00007        -0.101 7        44.688           0.000 6         0.00006        -0.215 6        39.375  
I09  36111558.734 8 141706501.18308        10.373 8        51.250    36111551.711 7 300170481.96607        22.065 7        45.781  
I10  38774059.799 7 152154509.13107       -51.756 7        45.312    38774048.045 6 322302530.66506      -109.612 6        40.156  
> 2025 01 25  1 43  0.0000000  0  8      -264.487524675044
I01         0.000 8         0.00008        -0.036 8        51.562           0.000 3         0.00003        -0.077 3        22.969  
I02  38368935.087 7 150564520.62707      -516.738 7        45.000    38368925.691 6 318934898.60506     -1094.741 6        39.062  
I03         0.000 8         0.00008        -0.036 8        50.938           0.000 7         0.00007        -0.077 7        44.531  
I05         0.000 7         0.00007        -0.036 7        47.656           0.000 6         0.00006        -0.077 6        41.094  
I06  38403805.707 7 150701418.88707       -46.398 7        45.000    38403797.622 6 319224802.11406       -98.344 6        40.781  
I07         0.000 7         0.00007        -0.036 7        44.688           0.000 6         0.00006        -0.077 6        39.688  
I09  36111642.319 8 141706829.39208        11.316 8        51.250    36111635.376 7 300171177.40007        24.007 7        45.781  
I10  38773665.773 7 152152960.98307       -51.409 7        45.312    38773653.427 6 322299251.82406      -109.284 6        40.156  
> 2025 01 25  1 43 30.0000000  0  8      -264.311647136539
I01         0.000 8         0.00008        -0.090 8        51.562           0.000 4         0.00004        -0.191 4        25.938  
I02  38364983.499 7 150549013.16807      -517.249 7        45.156    38364974.284 6 318902050.15106     -1095.927 6        39.219  
I03         0.000 8         0.00008        -0.090 8        50.938           0.000 7         0.00007        -0.191 7        44.531  
I05         0.000 7         0.00007        -0.090 7        47.656           0.000 6         0.00006        -0.191 6        40.938  
I06  38403451.806 7 150700029.38307       -46.386 7        45.156    38403443.699 6 319221859.01306       -98.232 6        40.781  
I07         0.000 7         0.00007        -0.090 7        44.688           0.000 6         0.00006        -0.191 6        39.531  
I09  36111732.795 8 141707184.37208        12.152 8        51.250    36111725.922 7 300171929.55007        25.837 7        45.938  
I10  38773271.608 7 152151415.02807       -51.657 7        45.312    38773259.955 6 322295977.60306      -109.243 6        40.312  
> 2025 01 25  1 44  0.0000000  0  8      -264.283261714059
I01         0.000 8         0.00008        -0.067 8        51.719           0.000 3         0.00003        -0.141 3        21.875  
I02  38361029.089 7 150533495.12307      -517.421 7        45.312    38361019.945 6 318869179.26606     -1096.638 6        38.906  
I03         0.000 8         0.00008        -0.067 8        50.938           0.000 7         0.00007        -0.141 7        44.688  
I05         0.000 7         0.00007        -0.067 7        47.656           0.000 6         0.00006        -0.141 6        40.312  
I06  38403098.130 7 150698642.09707       -46.353 7        45.312    38403090.475 6 319218920.63406       -98.210 6        40.781  
I07         0.000 7         0.00007        -0.067 7        44.688           0.000 6         0.00006        -0.141 6        39.375  
I09  36111830.119 8 141707566.20608        13.139 8        51.250    36111823.346 7 300172738.59507        27.735 7        45.938  
I10  38772878.566 7 152149871.24507       -51.415 7        45.312    38772866.445 6 322292707.96106      -109.101 6        40.625  
> 2025 01 25  1 44 30.0000000  0  8      -264.117644365275
I01         0.000 8         0.00008        -0.052 8        51.719           0.000 4         0.00004        -0.109 4        26.406  
I02  38357072.108 7 150517966.26707      -517.914 7        45.312    38357062.965 6 318836285.46306     -1097.337 6        39.219  
I03         0.000 8         0.00008        -0.052 8        50.938           0.000 7         0.00007        -0.109 7        44.531  
I05         0.000 7         0.00007        -0.052 7        47.812           0.000 6         0.00006        -0.109 6        40.469  
I06  38402745.331 7 150697257.06207       -46.221 7        45.000    38402737.524 6 319215987.01206       -97.604 6        40.938  
I07         0.000 7         0.00007        -0.052 7        44.531           0.000 6         0.00006        -0.109 6        39.375  
I09  36111934.476 8 141707975.03108        14.103 8        51.094    36111927.410 7 300173604.79707        29.731 7        45.938  
I10  38772486.021 7 152148329.66907       -51.462 7        45.312    38772473.534 6 322289442.97606      -108.785 6        40.312  
> 2025 01 25  1 45  0.0000000  0  8      -264.290898549368
I01         0.000 8         0.00008        -0.070 8        51.562           0.000 4         0.00004        -0.148 4        24.062  
I02  38353112.444 7 150502426.86807      -518.184 7        45.469    38353102.922 6 318803369.34906     -1097.766 6        39.062  
I03         0.000 8         0.00008        -0.070 8        50.938           0.000 7         0.00007        -0.148 7        44.531  
I05         0.000 7         0.00007        -0.070 7        47.969           0.000 6         0.00006        -0.148 6        40.938  
I06  38402393.100 7 150695874.28307       -46.314 7        45.156    38402385.272 6 319213058.17006       -97.698 6        40.781  
I07         0.000 7         0.00007        -0.070 7        44.688           0.000 6         0.00006        -0.148 6        39.531  
I09  36112045.573 8 141708410.93308        14.838 8        51.094    36112038.386 7 300174528.36107        31.491 7        45.781  
I10  38772093.620 7 152146790.28107       -51.276 7        45.312    38772081.479 6 322286182.64906      -108.900 6        40.156  
> 2025 01 25  1 45 30.0000000  0  8      -264.456185242361
I01         0.000 8         0.00008        -0.012 8        51.406           0.000 3         0.00003        -0.026 3        23.750  
I02  38349149.797 7 150486876.26607      -518.553 7        45.156    38349140.952 6 318770429.49706     -1098.327 6        39.688  
I03         0.000 8         0.00008        -0.012 8        50.938           0.000 7         0.00007        -0.026 7        44.531  
I05         0.000 7         0.00007        -0.012 7        47.969           0.000 6         0.00006        -0.026 6        41.562  
I06  38402041.486 7 150694493.73007       -46.044 7        45.156    38402033.377 6 319210134.06406       -97.513 6        40.781  
I07         0.000 7         0.00007        -0.012 7        44.688           0.000 6         0.00006        -0.026 6        39.531  
I09  36112163.615 8 141708873.96708        15.945 8        51.094    36112155.937 7 300175509.41507        33.670 7        45.469  
I10  38771702.212 7 152145253.05807       -51.091 7        45.312    38771689.665 6 322282926.95206      -108.307 6        40.156  
> 2025 01 25  1 46  0.0000000  0  8      -265.132924610380
I01         0.000 8         0.00008        -0.032 8        51.250           0.000 3         0.00003        -0.069 3        23.906  
I02  38345184.278 7 150471315.23007      -518.962 7        45.312    38345175.594 6 318737467.53906     -1099.391 6        39.844  
I03         0.000 8         0.00008        -0.032 8        50.938           0.000 7         0.00007        -0.069 7        44.375  
I05         0.000 7         0.00007        -0.032 7        47.969           0.000 6         0.00006        -0.069 6        41.562  
I06  38401690.445 7 150693115.42007       -45.746 7        45.156    38401682.320 6 319207214.72106       -97.105 6        40.938  
I07         0.000 7         0.00007        -0.032 7        44.688           0.000 6         0.00006        -0.069 6        39.531  
I09  36112288.812 8 141709364.27408        16.820 8        51.094    36112280.573 7 300176548.22507        35.535 7        45.156  
I10  38771311.243 7 152143718.06107       -51.283 7        45.312    38771298.263 6 322279675.95606      -108.404 6        40.312  
> 2025 01 25  1 46 30.0000000  0  8      -264.920560076158
I01         0.000 8         0.00008        -0.018 8        51.250           0.000 4         0.00004        -0.038 4        25.156  
I02  38341216.553 7 150455743.57207      -519.199 7        45.312    38341207.623 6 318704483.06506     -1099.746 6        40.156  
I03         0.000 8         0.00008        -0.018 8        50.938           0.000 7         0.00007        -0.038 7        44.375  
I05         0.000 7         0.00007        -0.018 7        47.969           0.000 6         0.00006        -0.038 6        41.094  
I06  38401339.594 7 150691739.39707       -45.878 7        45.156    38401331.514 6 319204300.20206       -97.189 6        40.781  
I07         0.000 7         0.00007        -0.018 7        44.844           0.000 6         0.00006        -0.038 6        39.531  
I09  36112420.602 8 141709881.94908        17.684 8        51.250    36112412.608 7 300177645.00307        37.442 7        45.000  
I10  38770920.848 7 152142185.26907       -50.969 7        45.312    38770908.151 6 322276429.64906      -108.047 6        40.312  
> 2025 01 25  1 47  0.0000000  0  8      -264.820660418182
I01         0.000 8         0.00008        -0.006 8        51.094           0.000 4         0.00004        -0.013 4        25.312  
I02  38337246.008 7 150440161.60807      -519.517 7        45.625    38337237.178 6 318671476.81006     -1100.697 6        40.312  
I03         0.000 8         0.00008        -0.006 8        50.938           0.000 7         0.00007        -0.013 7        44.219  
I05         0.000 7         0.00007        -0.006 7        47.656           0.000 6         0.00006        -0.013 6        41.094  
I06  38400989.284 7 150690365.64207       -45.668 7        45.312    38400981.731 6 319201390.50706       -97.131 6        40.781  
I07         0.000 7         0.00007        -0.006 7        44.844           0.000 6         0.00006        -0.013 6        39.844  
I09  36112559.553 8 141710427.05608        18.623 8        51.094    36112551.343 7 300178799.89107        39.529 7        45.000  
I10  38770530.766 7 152140654.73707       -50.789 7        45.312    38770518.340 6 322273188.08006      -107.909 6        40.469  
> 2025 01 25  1 47 30.0000000  0  8      -264.534039741596
I01         0.000 8         0.00008        -0.015 8        51.094           0.000 4         0.00004        -0.032 4        24.531  
I02  38333273.168 7 150424569.99207      -519.856 7        45.781    38333264.046 6 318638450.10106     -1100.909 6        40.469  
I03         0.000 8         0.00008        -0.015 8        50.938           0.000 7         0.00007        -0.032 7        44.219  
I05         0.000 7         0.00007        -0.015 7        47.656           0.000 6         0.00006        -0.032 6        41.094  
I06  38400640.255 7 150688994.14707       -45.515 7        45.156    38400632.277 6 319198485.61106       -96.989 6        40.781  
I07         0.000 7         0.00007        -0.015 7        44.688           0.000 6         0.00006        -0.032 6        39.844  
I09  36112705.561 8 141710999.74008        19.536 8        51.094    36112697.339 7 300180013.19807        41.325 7        45.156  
I10  38770141.657 7 152139126.43007       -51.039 7        45.469    38770128.644 6 322269951.22806      -107.834 6        40.469  
> 2025 01 25  1 48  0.0000000  0  8      -264.261006458819
I01         0.000 8         0.00008        -0.035 8        51.094           0.000 3         0.00003        -0.074 3        23.281  
I02  38329297.388 7 150408967.88507      -520.217 7        45.938    38329288.612 6 318605401.17506     -1101.829 6        40.469  
I03         0.000 8         0.00008        -0.035 8        50.938           0.000 7         0.00007        -0.074 7        44.219  
I05         0.000 7         0.00007        -0.035 7        47.656           0.000 6         0.00006        -0.074 6        41.094  
I06  38400291.335 7 150687624.96607       -45.652 7        45.156    38400283.420 6 319195585.58906       -96.712 6        40.938  
I07         0.000 7         0.00007        -0.035 7        44.688           0.000 6         0.00006        -0.074 6        39.688  
I09  36112858.686 8 141711600.08608        20.391 8        51.094    36112850.573 7 300181285.09607        43.271 7        45.156  
I10  38769752.907 7 152137600.34607       -50.858 7        45.312    38769740.080 6 322266719.11306      -107.776 6        40.469  
> 2025 01 25  1 48 30.0000000  0  8      -264.230428132778
I01         0.000 8         0.00008        -0.008 8        51.250           0.000 3         0.00003        -0.017 3        22.656  
I02  38325319.178 7 150393355.95607      -520.556 7        45.938    38325310.159 6 318572331.42206     -1102.463 6        40.469  
I03         0.000 8         0.00008        -0.008 8        50.938           0.000 7         0.00007        -0.017 7        44.219  
I05         0.000 7         0.00007        -0.008 7        47.812           0.000 6         0.00006        -0.017 6        41.406  
I06  38399943.169 7 150686258.06207       -45.261 7        45.156    38399935.045 6 319192690.42606       -96.603 6        40.781  
I07         0.000 7         0.00007        -0.008 7        44.531           0.000 6         0.00006        -0.017 6        39.688  
I09  36113018.770 8 141712228.17808        21.406 8        50.938    36113010.797 7 300182615.76907        45.348 7        45.000  
I10  38769364.840 7 152136076.50807       -50.832 7        45.312    38769351.727 6 322263491.75606      -107.543 6        40.000  
> 2025 01 25  1 49  0.0000000  0  8      -264.076966272153
I01         0.000 8         0.00008        -0.036 8        51.406           0.000 4         0.00004        -0.076 4        26.562  
I02  38321338.714 7 150377734.21407      -520.841 7        45.781    38321329.484 6 318539240.91606     -1103.547 6        40.000  
I03         0.000 8         0.00008        -0.036 8        50.781           0.000 7         0.00007        -0.076 7        43.750  
I05         0.000 8         0.00008        -0.036 8        48.125           0.000 6         0.00006        -0.076 6        40.625  
I06  38399595.394 7 150684893.49107       -45.400 7        45.156    38399587.147 6 319189800.18006       -96.360 6        40.156  
I07         0.000 7         0.00007        -0.036 7        44.688           0.000 6         0.00006        -0.076 6        39.062  
I09  36113186.113 8 141712884.10608        22.273 8        50.938    36113178.257 7 300184005.39807        47.191 7        44.844  
I10  38768977.117 7 152134554.91807       -50.693 7        45.312    38768964.397 6 322260269.17306      -107.492 6        39.688  
> 2025 01 25  1 49 30.0000000  0  8      -263.411270250842
I01         0.000 8         0.00008        -0.027 8        51.250           0.000 3         0.00003        -0.058 3        22.500  
I02  38317355.402 7 150362103.22207      -521.178 7        45.781    38317346.428 6 318506130.79706     -1104.101 6        40.000  
I03         0.000 8         0.00008        -0.027 8        50.781           0.000 7         0.00007        -0.058 7        43.906  
I05         0.000 8         0.00008        -0.027 8        48.125           0.000 6         0.00006        -0.058 6        40.625  
I06  38399248.409 7 150683531.20007       -45.380 7        45.156    38399240.564 6 319186914.76606       -96.150 6        40.156  
I07         0.000 7         0.00007        -0.027 7        44.688           0.000 6         0.00006        -0.058 6        39.219  
I09  36113360.267 8 141713567.98608        23.221 8        50.781    36113352.967 7 300185454.24507        49.211 7        45.000  
I10  38768590.294 7 152133035.58007       -50.511 7        45.312    38768577.293 6 322257051.35906      -107.328 6        39.844  
> 2025 01 25  1 50  0.0000000  0  8      -263.338282525315
I01         0.000 8         0.00008        -0.045 8        51.406           0.000 4         0.00004        -0.096 4        25.156  
I02  38313370.069 7 150346463.15307      -521.526 7        45.469    38313360.969 6 318473001.43506     -1104.929 6        40.938  
I03         0.000 8         0.00008        -0.045 8        50.625           0.000 7         0.00007        -0.096 7        44.531  
I05         0.000 7         0.00007        -0.045 7        47.969           0.000 6         0.00006        -0.096 6        41.250  
I06  38398902.026 7 150682171.20907       -45.361 7        45.156    38398893.858 6 319184034.25106       -95.871 6        40.781  
I07         0.000 7         0.00007        -0.045 7        44.688           0.000 6         0.00006        -0.096 6        40.000  
I09  36113541.769 8 141714279.93508        24.178 8        50.781    36113534.545 7 300186962.54607        51.132 7        45.625  
I10  38768203.674 7 152131518.51707       -50.627 7        45.312    38768190.609 6 322253838.34706      -107.090 6        40.469  
> 2025 01 25  1 50 30.0000000  0  8      -262.795724627206
I01         0.000 8         0.00008        -0.031 8        51.562           0.000 4         0.00004        -0.066 4        25.000  
I02  38309382.217 7 150330813.86907      -521.714 7        45.469    38309373.762 6 318439852.57606     -1105.235 6        40.938  
I03         0.000 8         0.00008        -0.031 8        50.625           0.000 7         0.00007        -0.066 7        44.688  
I05         0.000 8         0.00008        -0.031 8        48.125           0.000 6         0.00006        -0.066 6        40.781  
I06  38398556.277 7 150680813.57307       -45.331 7        45.156    38398548.038 6 319181158.69806       -95.912 6        40.781  
I07         0.000 7         0.00007        -0.031 7        44.688           0.000 6         0.00006        -0.066 6        39.531  
I09  36113730.334 8 141715020.02608        25.174 8        50.938    36113723.187 7 300188530.48207        53.164 7        45.781  
I10  38767817.729 7 152130003.74907       -50.408 7        45.312    38767804.734 6 322250630.18206      -107.195 6        40.156  
> 2025 01 25  1 51  0.0000000  0  8      -262.638376981669
I01         0.000 8         0.00008         0.010 8        51.562           0.000 3         0.00003         0.021 3        23.750  
I02  38305392.032 7 150315155.17607      -522.029 7        45.312    38305383.535 6 318406683.75406     -1105.939 6        40.938  
I03         0.000 8         0.00008         0.010 8        50.625           0.000 7         0.00007         0.021 7        44.531  
I05         0.000 7         0.00007         0.010 7        47.969           0.000 6         0.00006         0.021 6        40.781  
I06  38398210.693 7 150679458.24107       -44.948 7        45.000    38398202.255 6 319178288.05106       -95.500 6        40.469  
I07         0.000 7         0.00007         0.010 7        44.688           0.000 6         0.00006         0.021 6        39.219  
I09  36113926.529 8 141715788.33408        26.148 8        51.094    36113919.236 7 300190158.19907        55.247 7        45.781  
I10  38767433.060 7 152128491.27707       -50.370 7        45.312    38767419.353 6 322247426.87306      -106.487 6        40.156  
> 2025 01 25  1 51 30.0000000  0  8      -262.471393253858
I01         0.000 8         0.00008        -0.024 8        51.406           0.000 3         0.00003        -0.052 3        21.719  
I02  38301399.803 7 150299488.23207      -522.322 7        45.156    38301391.231 6 318373497.51206     -1106.748 6        41.562  
I03         0.000 8         0.00008        -0.024 8        50.469           0.000 7         0.00007        -0.052 7        44.688  
I05         0.000 7         0.00007        -0.024 7        47.969           0.000 6         0.00006        -0.052 6        40.781  
I06  38397865.960 7 150678105.25407       -45.070 7        45.000    38397857.883 6 319175422.36106       -95.389 6        40.781  
I07         0.000 7         0.00007        -0.024 7        44.688           0.000 6         0.00006        -0.052 6        39.375  
I09  36114129.483 8 141716584.97108        26.987 8        50.938    36114122.370 7 300191845.91107        57.321 7        45.938  
I10  38767048.152 7 152126981.05307       -50.286 7        45.469    38767034.750 6 322244228.39606      -106.689 6        40.156  
> 2025 01 25  1 52  0.0000000  0  8      -262.420200046889
I01         0.000 8         0.00008        -0.033 8        51.406           0.000 4         0.00004        -0.070 4        26.562  
I02  38297405.196 7 150283811.78107      -522.797 7        45.312    38297396.365 6 318340291.13406     -1107.088 6        41.094  
I03         0.000 8         0.00008        -0.033 8        50.469           0.000 7         0.00007        -0.070 7        44.062  
I05         0.000 7         0.00007        -0.033 7        47.812           0.000 6         0.00006        -0.070 6        40.156  
I06  38397521.945 7 150676754.60107       -45.010 7        45.156    38397513.769 6 319172561.64106       -95.393 6        40.156  
I07         0.000 7         0.00007        -0.033 7        44.844           0.000 6         0.00006        -0.070 6        38.438  
I09  36114339.731 8 141717410.02308        27.949 8        50.938    36114332.695 7 300193593.81507        59.284 7        45.312  
I10  38766664.058 7 152125473.14507       -50.200 7        45.312    38766650.336 6 322241034.77606      -106.491 6        39.531  
> 2025 01 25  1 52 30.0000000  0  8      -262.776368706753
I01         0.000 8         0.00008        -0.061 8        51.406           0.000 4         0.00004        -0.129 4        24.688  
I02  38293408.636 7 150268126.95007      -522.883 7        45.312    38293399.420 6 318307066.99706     -1107.922 6        41.406  
I03         0.000 8         0.00008        -0.061 8        50.469           0.000 7         0.00007        -0.129 7        44.688  
I05         0.000 7         0.00007        -0.061 7        47.500           0.000 6         0.00006        -0.129 6        41.250  
I06  38397178.490 7 150675406.30407       -45.063 7        45.156    38397170.124 6 319169705.91306       -95.329 6        40.781  
I07         0.000 7         0.00007        -0.061 7        44.688           0.000 6         0.00006        -0.129 6        39.062  
I09  36114557.195 8 141718263.62008        28.829 8        50.938    36114550.055 7 300195402.18407        61.117 7        45.938  
I10  38766280.436 7 152123967.58907       -50.308 7        45.469    38766267.060 6 322237846.08106      -106.339 6        40.156  
> 2025 01 25  1 53  0.0000000  0  8      -263.133782415927
I01         0.000 8         0.00008         0.027 8        51.250           0.000 3         0.00003         0.056 3        23.281  
I02  38289409.737 7 150252434.05107      -523.047 7        45.469    38289400.271 6 318273825.77306     -1107.996 6        40.781  
I03         0.000 8         0.00008         0.027 8        50.469           0.000 7         0.00007         0.056 7        43.906  
I05         0.000 7         0.00007         0.027 7        47.188           0.000 6         0.00006         0.056 6        40.938  
I06  38396835.830 7 150674060.39407       -44.695 7        45.156    38396827.282 6 319166855.23706       -94.769 6        40.156  
I07         0.000 7         0.00007         0.027 7        44.688           0.000 6         0.00006         0.056 6        38.594  
I09  36114782.016 8 141719145.83708        29.916 8        50.938    36114774.755 7 300197271.17407        63.443 7        45.312  
I10  38765897.345 7 152122464.35807       -50.066 7        45.469    38765884.081 6 322234662.30506      -105.900 6        39.531  
> 2025 01 25  1 53 30.0000000  0  8      -263.528767905922
I01         0.000 8         0.00008        -0.060 8        51.094           0.000 3         0.00003        -0.128 3        22.031  
I02  38285408.934 7 150236732.84807      -523.546 7        45.469    38285399.330 6 318240566.95606     -1108.855 6        41.094  
I03         0.000 8         0.00008        -0.060 8        50.469           0.000 7         0.00007        -0.128 7        44.531  
I05         0.000 7         0.00007        -0.060 7        47.031           0.000 6         0.00006        -0.128 6        40.938  
I06  38396492.967 7 150672716.80607       -44.919 7        45.156    38396484.825 6 319164009.48706       -95.197 6        40.781  
I07         0.000 7         0.00007        -0.060 7        44.688           0.000 6         0.00006        -0.128 6        38.906  
I09  36115013.893 8 141720056.73508        30.765 8        51.094    36115006.897 7 300199200.93007        65.214 7        45.781  
I10  38765514.888 7 152120963.40807       -50.035 7        45.469    38765501.184 6 322231483.39906      -106.091 6        40.000  
> 2025 01 25  1 54  0.0000000  0  8      -263.454345643491
I01         0.000 8         0.00008        -0.030 8        51.250           0.000 3         0.00003        -0.063 3        23.438  
I02  38281406.021 7 150221023.58207      -523.724 7        45.625    38281395.955 6 318207291.06006     -1109.831 6        40.781  
I03         0.000 8         0.00008        -0.030 8        50.469           0.000 7         0.00007        -0.063 7        44.375  
I05         0.000 7         0.00007        -0.030 7        47.188           0.000 6         0.00006        -0.063 6        40.156  
I06  38396151.792 7 150671375.60307       -44.747 7        45.156    38396143.347 6 319161168.81306       -94.483 6        40.781  
I07         0.000 7         0.00007        -0.030 7        44.844           0.000 6         0.00006        -0.063 6        39.219  
I09  36115253.737 8 141720996.44808        31.800 8        50.938    36115246.289 7 300201191.73107        67.333 7        45.781  
I10  38765133.204 7 152119464.79307       -49.925 7        45.469    38765119.900 6 322228309.45006      -105.725 6        39.844  
> 2025 01 25  1 54 30.0000000  0  8      -263.694651642030
I01         0.000 8         0.00008        -0.032 8        51.250           0.000 4         0.00004        -0.067 4        25.781  
I02  38277401.078 7 150205306.14707      -524.062 7        45.625    38277390.526 6 318173997.84906     -1109.891 6        41.094  
I03         0.000 8         0.00008        -0.032 8        50.469           0.000 7         0.00007        -0.067 7        44.531  
I05         0.000 7         0.00007        -0.032 7        47.344           0.000 6         0.00006        -0.067 6        40.469  
I06  38395810.645 7 150670036.77007       -44.703 7        45.000    38395802.305 6 319158333.14506       -94.563 6        40.781  
I07         0.000 7         0.00007        -0.032 7        44.844           0.000 6         0.00006        -0.067 6        39.375  
I09  36115500.480 8 141721965.07508        32.772 8        50.625    36115493.026 7 300203243.79507        69.396 7        45.938  
I10  38764751.874 7 152117968.52607       -49.865 7        45.312    38764738.662 6 322225140.45406      -105.621 6        40.312  
> 2025 01 25  1 55  0.0000000  0  8      -264.263955439505
I01         0.000 8         0.00008        -0.040 8        51.406           0.000 3         0.00003        -0.085 3        22.031  
I02  38273393.929 7 150189580.83207      -524.304 7        45.312    38273382.982 6 318140687.96506     -1110.745 6        41.094  
I03         0.000 8         0.00008        -0.040 8        50.469           0.000 7         0.00007        -0.085 7        44.531  
I05         0.000 7         0.00007        -0.040 7        47.031           0.000 6         0.00006        -0.085 6        40.312  
I06  38395470.165 7 150668700.34907       -44.619 7        45.000    38395461.772 6 319155502.60706       -94.377 6        40.625  
I07         0.000 7         0.00007        -0.040 7        44.844           0.000 6         0.00006        -0.085 6        39.531  
I09  36115754.676 8 141722962.67808        33.665 8        50.469    36115747.128 7 300205357.24307        71.382 7        45.781  
I10  38764371.405 7 152116474.58207       -49.719 7        45.469    38764358.046 6 322221976.40406      -105.400 6        40.156  
> 2025 01 25  1 55 30.0000000  0  8      -264.378324570395
I01         0.000 8         0.00008        -0.004 8        51.562           0.000 4         0.00004        -0.008 4        25.625  
I02  38269384.894 7 150173848.21007      -524.532 7        45.625    38269374.015 6 318107362.61206     -1111.185 6        41.406  
I03         0.000 8         0.00008        -0.004 8        50.469           0.000 7         0.00007        -0.008 7        44.531  
I05         0.000 7         0.00007        -0.004 7        47.031           0.000 6         0.00006        -0.008 6        40.625  
I06  38395130.229 7 150667366.29607       -44.293 7        45.156    38395121.789 6 319152677.08106       -94.167 6        40.781  
I07         0.000 7         0.00007        -0.004 7        44.844           0.000 6         0.00006        -0.008 6        39.375  
I09  36116016.515 8 141723989.37108        34.846 8        50.469    36116008.794 7 300207532.31407        73.612 7        45.781  
I10  38763991.498 7 152114983.03507       -49.681 7        45.312    38763978.013 6 322218817.37106      -105.247 6        40.469  
> 2025 01 25  1 56  0.0000000  0  8      -264.200468477706
I01         0.000 8         0.00008        -0.003 8        51.562           0.000 4         0.00004        -0.006 4        25.938  
I02  38265374.219 7 150158108.00507      -524.747 7        45.625    38265362.869 6 318074021.18606     -1111.529 6        41.250  
I03         0.000 8         0.00008        -0.003 8        50.469           0.000 7         0.00007        -0.006 7        44.531  
I05         0.000 7         0.00007        -0.003 7        47.188           0.000 6         0.00006        -0.006 6        40.469  
I06  38394791.183 7 150666034.64707       -44.262 7        45.000    38394782.285 6 319149856.65606       -93.916 6        40.781  
I07         0.000 7         0.00007        -0.003 7        45.000           0.000 6         0.00006        -0.006 6        39.688  
I09  36116285.496 8 141725045.26208        35.642 8        50.625    36116278.391 7 300209769.24107        75.493 7        45.938  
I10  38763612.270 7 152113493.83607       -49.498 7        45.312    38763598.999 6 322215663.31106      -104.933 6        40.625  
> 2025 01 25  1 56 30.0000000  0  8      -264.240459201440
I01         0.000 8         0.00008         0.005 8        51.406           0.000 4         0.00004         0.011 4        25.312  
I02  38261361.354 7 150142360.04207      -524.968 7        45.781    38261349.971 6 318040663.34206     -1112.017 6        41.250  
I03         0.000 8         0.00008         0.005 8        50.625           0.000 7         0.00007         0.011 7        44.688  
I05         0.000 7         0.00007         0.005 7        47.344           0.000 6         0.00006         0.011 6        40.781  
I06  38394452.619 7 150664705.38907       -44.069 7        45.156    38394443.803 6 319147041.33606       -93.740 6        40.781  
I07         0.000 7         0.00007         0.005 7        44.844           0.000 6         0.00006         0.011 6        39.531  
I09  36116562.047 8 141726130.43708        36.650 8        50.625    36116554.654 7 300212068.20107        77.643 7        45.938  
I10  38763233.398 7 152112007.01807       -49.529 7        45.312    38763219.996 6 322212514.28506      -104.721 6        40.625  
> 2025 01 25  1 57  0.0000000  0  8      -263.886784824728
I01         0.000 8         0.00008        -0.074 8        51.406           0.000 3         0.00003        -0.157 3        23.906  
I02  38257346.657 7 150126605.74407      -525.435 7        45.781    38257335.457 6 318007292.07806     -1113.039 6        40.938  
I03         0.000 8         0.00008        -0.074 8        50.625           0.000 7         0.00007        -0.157 7        44.531  
I05         0.000 7         0.00007        -0.074 7        47.188           0.000 6         0.00006        -0.157 6        40.312  
I06  38394114.809 7 150663378.55107       -44.419 7        45.312    38394106.237 6 319144231.10706       -93.842 6        40.938  
I07         0.000 7         0.00007        -0.074 7        44.844           0.000 6         0.00006        -0.157 6        39.531  
I09  36116846.140 8 141727244.99408        37.529 8        50.781    36116838.784 7 300214429.40507        79.599 7        45.938  
I10  38762855.277 7 152110522.57107       -49.366 7        45.312    38762841.577 6 322209370.29306      -104.881 6        40.469  
> 2025 01 25  1 57 30.0000000  0  8      -263.995913770565
I01         0.000 8         0.00008        -0.076 8        51.562           0.000 3         0.00003        -0.162 3        23.438  
I02  38253329.983 7 150110843.59307      -525.692 7        45.625    38253319.007 6 317973904.17906     -1113.510 6        41.250  
I03         0.000 8         0.00008        -0.076 8        50.625           0.000 7         0.00007        -0.162 7        44.688  
I05         0.000 7         0.00007        -0.076 7        47.188           0.000 6         0.00006        -0.162 6        39.844  
I06  38393777.013 7 150662054.12207       -44.327 7        45.156    38393768.361 6 319141425.99806       -93.467 6        40.938  
I07         0.000 7         0.00007        -0.076 7        44.844           0.000 6         0.00006        -0.162 6        39.375  
I09  36117137.823 8 141728389.00108        38.481 8        50.781    36117130.363 7 300216853.00507        81.794 7        46.094  
I10  38762477.454 7 152109040.46007       -49.405 7        45.469    38762464.429 6 322206231.32406      -104.776 6        40.625  
> 2025 01 25  1 58  0.0000000  0  8      -263.654748169075
I01         0.000 8         0.00008        -0.044 8        51.562           0.000 4         0.00004        -0.094 4        25.781  
I02  38249311.966 7 150095075.16907      -525.768 7        45.625    38249300.902 6 317940502.98406     -1113.826 6        41.094  
I03         0.000 8         0.00008        -0.044 8        50.625           0.000 7         0.00007        -0.094 7        44.688  
I05         0.000 7         0.00007        -0.044 7        46.875           0.000 6         0.00006        -0.094 6        39.531  
I06  38393440.206 7 150660732.12907       -43.952 7        45.156    38393431.410 6 319138626.05006       -93.327 6        40.938  
I07         0.000 7         0.00007        -0.044 7        44.844           0.000 6         0.00006        -0.094 6        39.531  
I09  36117437.034 8 141729562.58308        39.522 8        50.625    36117429.686 7 300219339.23807        83.803 7        45.938  
I10  38762100.577 7 152107560.72907       -49.365 7        45.312    38762087.157 6 322203097.41006      -104.543 6        40.625  
> 2025 01 25  1 58 30.0000000  0  8      -263.722544560169
I01         0.000 8         0.00008         0.024 8        51.562           0.000 4         0.00004         0.052 4        26.719  
I02  38245291.608 7 150079299.55407      -525.895 7        45.781    38245280.678 6 317907086.56806     -1114.129 6        40.938  
I03         0.000 8         0.00008         0.024 8        50.625           0.000 7         0.00007         0.052 7        44.688  
I05         0.000 7         0.00007         0.024 7        46.875           0.000 6         0.00006         0.052 6        39.219  
I06  38393103.786 7 150659412.57207       -43.707 7        45.156    38393095.650 6 319135831.29106       -92.959 6        40.781  
I07         0.000 7         0.00007         0.024 7        44.688           0.000 6         0.00006         0.052 6        39.688  
I09  36117743.245 8 141730765.82608        40.752 8        50.469    36117736.460 7 300221888.30907        86.134 7        46.094  
I10  38761724.269 7 152106083.43107       -49.121 7        45.312    38761710.957 6 322199968.60306      -104.040 6        40.625  
> 2025 01 25  1 59  0.0000000  0  8      -263.529293321135
I01         0.000 8         0.00008        -0.051 8        51.406           0.000 3         0.00003        -0.108 3        23.125  
I02  38241269.908 7 150063517.12407      -526.366 7        45.938    38241259.425 6 317873655.72306     -1114.940 6        41.094  
I03         0.000 8         0.00008        -0.051 8        50.625           0.000 7         0.00007        -0.108 7        44.531  
I05         0.000 7         0.00007        -0.051 7        46.406           0.000 6         0.00006        -0.108 6        39.375  
I06  38392768.901 7 150658095.46007       -43.873 7        45.312    38392759.582 6 319133041.69806       -93.096 6        40.781  
I07         0.000 7         0.00007        -0.051 7        44.688           0.000 6         0.00006        -0.108 6        39.844  
I09  36118057.884 8 141731998.83508        41.525 8        50.469    36118050.581 7 300224500.42007        88.067 7        46.250  
I10  38761348.710 7 152104608.54607       -49.004 7        45.312    38761334.931 6 322196844.87906      -104.145 6        40.625  
> 2025 01 25  1 59 30.0000000  0  8      -263.053634854603
I01         0.000 8         0.00008        -0.039 8        51.250           0.000 3         0.00003        -0.083 3        22.031  
I02  38237247.331 7 150047729.37107      -526.589 7        45.938    38237236.452 6 317840213.57906     -1115.187 6        40.625  
I03         0.000 8         0.00008        -0.039 8        50.781           0.000 7         0.00007        -0.083 7        43.906  
I05         0.000 7         0.00007        -0.039 7        45.938           0.000 6         0.00006        -0.083 6        38.750  
I06  38392433.766 7 150656780.79507       -43.862 7        45.156    38392424.755 6 319130257.26506       -92.801 6        40.156  
I07         0.000 7         0.00007        -0.039 7        44.688           0.000 6         0.00006        -0.083 6        39.062  
I09  36118379.693 8 141733261.66908        42.615 8        50.469    36118372.723 7 300227175.71507        90.211 7        45.625  
I10  38760973.802 7 152103136.03507       -48.912 7        45.312    38760959.904 6 322193726.24806      -103.975 6        40.000  
> 2025 01 25  2  0  0.0000000  0  8      -262.968956313607
I01         0.000 8         0.00008        -0.039 8        51.250           0.000 3         0.00003        -0.083 3        22.969  
I02  38233222.727 7 150031934.68307      -526.524 7        46.094    38233211.608 6 317806756.75406     -1115.720 6        40.938  
I03         0.000 8         0.00008        -0.039 8        50.781           0.000 7         0.00007        -0.083 7        44.531  
I05         0.000 7         0.00007        -0.039 7        45.625           0.000 6         0.00006        -0.083 6        39.844  
I06  38392099.503 7 150655468.57907       -43.701 7        45.156    38392090.520 6 319127478.04406       -92.547 6        40.938  
I07         0.000 7         0.00007        -0.039 7        44.688           0.000 6         0.00006        -0.083 6        39.688  
I09  36118709.297 8 141734554.46908        43.619 8        50.469    36118702.217 7 300229914.49207        92.305 7        46.250  
I10  38760598.944 7 152101665.97007       -49.062 7        45.312    38760585.462 6 322190612.75006      -104.023 6        40.781  
> 2025 01 25  2  0 30.0000000  0  8      -261.042944777402
I01         0.000 8         0.00008        -0.071 8        51.562           0.000 4         0.00004        -0.151 4        24.844  
I02  38229196.547 7 150016133.86407      -526.983 7        46.250    38229185.082 6 317773286.94206     -1116.320 6        40.938  
I03         0.000 8         0.00008        -0.071 8        50.781           0.000 7         0.00007        -0.151 7        44.531  
I05         0.000 7         0.00007        -0.071 7        45.312           0.000 6         0.00006        -0.151 6        40.156  
I06  38391765.720 7 150654158.81807       -43.632 7        45.156    38391756.837 6 319124704.03406       -92.686 6        40.781  
I07         0.000 7         0.00007        -0.071 7        44.688           0.000 6         0.00006        -0.151 6        40.000  
I09  36119046.473 8 141735877.29408        44.528 8        50.469    36119039.454 7 300232716.86907        94.296 7        46.250  
I10  38760224.991 7 152100198.33907       -48.906 7        45.312    38760211.353 6 322187504.41506      -103.702 6        40.469  
> 2025 01 25  2  1  0.0000000  0  8      -260.684763372578
I01         0.000 8         0.00008        -0.059 8        51.719           0.000 4         0.00004        -0.125 4        24.375  
I02  38225168.756 7 150000327.20507      -527.088 7        46.094    38225157.544 6 317739804.75306     -1116.640 6        40.156  
I03         0.000 8         0.00008        -0.059 8        50.781           0.000 7         0.00007        -0.125 7        43.906  
I05         0.000 7         0.00007        -0.059 7        45.469           0.000 6         0.00006        -0.125 6        39.844  
I06  38391432.865 7 150652851.54507       -43.747 7        45.312    38391423.523 6 319121935.28206       -92.302 6        40.156  
I07         0.000 7         0.00007        -0.059 7        44.688           0.000 6         0.00006        -0.125 6        39.375  
I09  36119391.359 8 141737230.23308        45.541 8        50.625    36119384.609 7 300235583.03407        96.511 7        46.094  
I10  38759852.100 7 152098733.10307       -48.741 7        45.156    38759838.220 6 322184401.19606      -103.475 6        39.688  
> 2025 01 25  2  1 30.0000000  0  8      -260.687378988554
I01         0.000 8         0.00008        -0.013 8        51.719           0.000 3         0.00003        -0.027 3        23.125  
I02  38221139.435 7 149984514.94007      -527.064 7        46.094    38221127.767 6 317706310.69406     -1116.577 6        40.469  
I03         0.000 8         0.00008        -0.013 8        50.781           0.000 7         0.00007        -0.027 7        44.375  
I05         0.000 7         0.00007        -0.013 7        45.938           0.000 6         0.00006        -0.027 6        40.156  
I06  38391100.528 7 150651546.75907       -43.510 7        45.312    38391091.376 6 319119171.77306       -91.988 6        40.781  
I07         0.000 7         0.00007        -0.013 7        44.531           0.000 6         0.00006        -0.027 6        40.000  
I09  36119743.803 8 141738613.38108        46.670 8        50.625    36119737.246 7 300238513.18107        98.746 7        46.562  
I10  38759479.278 7 152097270.28207       -48.758 7        45.312    38759465.431 6 322181303.15206      -103.265 6        40.469  
> 2025 01 25  2  2  0.0000000  0  8      -260.358744979954
I01         0.000 8         0.00008        -0.070 8        51.719           0.000 4         0.00004        -0.148 4        24.531  
I02  38217108.518 7 149968696.76307      -527.230 7        45.938    38217097.515 6 317672804.11206     -1117.351 6        40.469  
I03         0.000 8         0.00008        -0.070 8        50.781           0.000 7         0.00007        -0.148 7        44.375  
I05         0.000 7         0.00007        -0.070 7        45.938           0.000 6         0.00006        -0.148 6        39.688  
I06  38390768.726 7 150650244.45307       -43.304 7        45.312    38390759.702 6 319116413.56106       -92.178 6        40.781  
I07         0.000 7         0.00007        -0.070 7        44.375           0.000 6         0.00006        -0.148 6        39.844  
I09  36120104.178 8 141740026.84908        47.511 8        50.625    36120097.208 7 300241507.55707       100.705 7        46.250  
I10  38759107.257 7 152095809.94307       -49.031 7        45.312    38759093.467 6 322178210.28406      -103.281 6        40.312  
> 2025 01 25  2  2 30.0000000  0  8      -260.597288252405
I01         0.000 8         0.00008         0.004 8        51.719           0.000 4         0.00004         0.009 4        24.375  
I02  38213076.116 7 149952873.16607      -527.341 7        45.938    38213065.448 6 317639286.05706     -1117.387 6        40.625  
I03         0.000 8         0.00008         0.004 8        50.781           0.000 7         0.00007         0.009 7        44.375  
I05         0.000 7         0.00007         0.004 7        45.938           0.000 6         0.00006         0.009 6        39.688  
I06  38390437.562 7 150648944.63407       -43.123 7        45.312    38390428.220 6 319113660.59806       -91.571 6        40.625  
I07         0.000 7         0.00007         0.004 7        44.531           0.000 6         0.00006         0.009 6        39.844  
I09  36120472.160 8 141741470.72308        48.654 8        50.469    36120465.169 7 300244566.34007       103.118 7        46.250  
I10  38758736.062 7 152094352.05207       -48.590 7        45.312    38758721.875 6 322175122.60906      -103.026 6        40.156  
> 2025 01 25  2  3  0.0000000  0  8      -260.557398634698
I01         0.000 8         0.00008        -0.041 8        51.875           0.000 4         0.00004        -0.087 4        24.844  
I02  38209042.527 7 149937043.73307      -527.761 7        45.938    38209031.690 6 317605755.64606     -1118.038 6        40.312  
I03         0.000 8         0.00008        -0.041 8        50.625           0.000 7         0.00007        -0.087 7        44.531  
I05         0.000 7         0.00007        -0.041 7        46.250           0.000 6         0.00006        -0.087 6        40.000  
I06  38390107.226 7 150647647.33207       -43.237 7        45.469    38390097.971 6 319110912.94006       -91.583 6        40.938  
I07         0.000 7         0.00007        -0.041 7        44.375           0.000 6         0.00006        -0.087 6        39.844  
I09  36120847.903 8 141742945.06808        49.629 8        50.469    36120840.791 7 300247689.66407       105.111 7        46.406  
I10  38758365.289 7 152092896.65807       -48.590 7        45.469    38758351.011 6 322172040.17706      -102.547 6        40.312  
> 2025 01 25  2  3 30.0000000  0  8      -260.717509147047
I01         0.000 8         0.00008        -0.012 8        51.875           0.000 4         0.00004        -0.025 4        25.312  
I02  38205007.860 7 149921209.93807      -527.997 7        46.094    38204996.636 6 317572215.99006     -1118.438 6        39.531  
I03         0.000 8         0.00008        -0.012 8        50.625           0.000 7         0.00007        -0.025 7        43.750  
I05         0.000 7         0.00007        -0.012 7        46.094           0.000 6         0.00006        -0.025 6        39.531  
I06  38389777.410 7 150646352.52307       -43.074 7        45.469    38389768.249 6 319108170.58506       -91.124 6        40.469  
I07         0.000 7         0.00007        -0.012 7        44.219           0.000 6         0.00006        -0.025 6        38.906  
I09  36121231.474 8 141744450.00308        50.768 8        50.469    36121224.309 7 300250877.79607       107.349 7        45.938  
I10  38757995.197 7 152091443.71407       -48.263 7        45.312    38757980.839 6 322168962.97006      -102.508 6        39.688  
> 2025 01 25  2  4  0.0000000  0  8      -261.107399767439
I01         0.000 8         0.00008        -0.017 8        52.031           0.000 3         0.00003        -0.037 3        22.969  
I02  38200971.988 7 149905370.71307      -528.049 7        46.250    38200959.881 6 317538664.83006     -1118.719 6        39.844  
I03         0.000 8         0.00008        -0.017 8        50.625           0.000 7         0.00007        -0.037 7        44.375  
I05         0.000 7         0.00007        -0.017 7        46.250           0.000 6         0.00006        -0.037 6        39.844  
I06  38389447.971 7 150645060.23707       -42.936 7        45.156    38389438.836 6 319105433.57406       -91.079 6        40.938  
I07         0.000 7         0.00007        -0.017 7        44.219           0.000 6         0.00006        -0.037 6        39.844  
I09  36121623.131 8 141745985.62608        51.719 8        50.625    36121615.722 7 300254130.90807       109.611 7        46.406  
I10  38757625.661 7 152089993.26807       -48.417 7        45.156    38757611.203 6 322165890.99406      -102.244 6        40.000  
> 2025 01 25  2  4 30.0000000  0  8      -261.697811180068
I01         0.000 8         0.00008        -0.004 8        52.031           0.000 4         0.00004        -0.008 4        24.531  
I02  38196934.606 7 149889527.20907      -528.085 7        46.250    38196922.143 6 317505104.58706     -1118.911 6        39.062  
I03         0.000 8         0.00008        -0.004 8        50.625           0.000 7         0.00007        -0.008 7        43.750  
I05         0.000 7         0.00007        -0.004 7        46.406           0.000 6         0.00006        -0.008 6        39.844  
I06  38389119.496 7 150643770.45607       -42.918 7        45.312    38389110.202 6 319102701.86106       -90.889 6        40.312  
I07         0.000 7         0.00007        -0.004 7        44.219           0.000 6         0.00006        -0.008 6        39.062  
I09  36122022.338 8 141747552.04908        52.761 8        50.625    36122015.112 7 300257449.26407       111.689 7        45.938  
I10  38757256.929 7 152088545.31807       -48.251 7        45.156    38757242.087 6 322162824.30006      -101.995 6        39.531  
> 2025 01 25  2  5  0.0000000  0  8      -261.128511324815
I01         0.000 8         0.00008        -0.077 8        52.031           0.000 3         0.00003        -0.162 3        23.438  
I02  38192895.976 7 149873678.37307      -528.535 7        46.094    38192884.213 6 317471533.04606     -1119.514 6        39.531  
I03         0.000 8         0.00008        -0.077 8        50.469           0.000 7         0.00007        -0.162 7        44.219  
I05         0.000 7         0.00007        -0.077 7        46.562           0.000 6         0.00006        -0.162 6        40.781  
I06  38388791.703 7 150642483.20507       -42.807 7        45.312    38388782.147 6 319099975.51306       -91.143 6        40.938  
I07         0.000 7         0.00007        -0.077 7        44.062           0.000 6         0.00006        -0.162 6        39.531  
I09  36122429.522 8 141749149.28708        53.615 8        50.781    36122422.378 7 300260832.89907       113.646 7        46.719  
I10  38756888.656 7 152087099.87207       -48.291 7        45.156    38756873.951 6 322159762.91806      -102.164 6        40.000  
> 2025 01 25  2  5 30.0000000  0  8      -260.942293935130
I01         0.000 8         0.00008        -0.008 8        52.031           0.000 3         0.00003        -0.018 3        21.562  
I02  38188856.056 7 149857825.03507      -528.449 7        46.094    38188844.441 6 317437951.97706     -1119.308 6        39.688  
I03         0.000 8         0.00008        -0.008 8        50.469           0.000 7         0.00007        -0.018 7        44.219  
I05         0.000 7         0.00007        -0.008 7        46.406           0.000 6         0.00006        -0.018 6        41.406  
I06  38388464.261 7 150641198.50707       -42.742 7        45.469    38388454.748 6 319097254.56406       -90.616 6        40.781  
I07         0.000 7         0.00007        -0.008 7        43.906           0.000 6         0.00006        -0.018 6        39.219  
I09  36122844.603 8 141750777.49008        54.788 8        50.781    36122837.720 7 300264282.11307       116.088 7        46.719  
I10  38756521.061 7 152085656.91107       -48.027 7        45.156    38756506.278 6 322156706.77906      -101.940 6        39.844  
> 2025 01 25  2  6  0.0000000  0  8      -260.529599000274
I01         0.000 8         0.00008        -0.021 8        51.875           0.000 3         0.00003        -0.045 3        22.031  
I02  38184815.216 7 149841967.20907      -528.640 7        46.094    38184803.379 6 317404361.41006     -1120.169 6        39.688  
I03         0.000 8         0.00008        -0.021 8        50.469           0.000 7         0.00007        -0.045 7        44.219  
I05         0.000 7         0.00007        -0.021 7        46.562           0.000 6         0.00006        -0.045 6        41.094  
I06  38388137.880 7 150639916.34107       -42.724 7        45.312    38388128.520 6 319094538.98706       -90.487 6        40.625  
I07         0.000 7         0.00007        -0.021 7        43.906           0.000 6         0.00006        -0.045 6        39.375  
I09  36123267.530 8 141752436.73808        55.825 8        50.938    36123260.738 7 300267797.08607       118.397 7        46.719  
I10  38756154.389 7 152084216.43307       -48.012 7        45.156    38756139.292 6 322153655.93306      -101.321 6        40.000  
> 2025 01 25  2  6 30.0000000  0  8      -260.045647829540
I01         0.000 8         0.00008        -0.047 8        51.719           0.000 4         0.00004        -0.099 4        24.688  
I02  38180773.480 7 149826105.26607      -528.808 7        46.250    38180761.671 6 317370762.08606     -1120.160 6        40.000  
I03         0.000 8         0.00008        -0.047 8        50.469           0.000 7         0.00007        -0.099 7        44.375  
I05         0.000 7         0.00007        -0.047 7        46.562           0.000 6         0.00006        -0.099 6        41.094  
I06  38387811.874 7 150638636.75207       -42.779 7        45.469    38387802.504 6 319091828.84306       -90.446 6        41.094  
I07         0.000 7         0.00007        -0.047 7        43.594           0.000 6         0.00006        -0.099 6        39.531  
I09  36123698.406 8 141754127.11208        56.862 8        51.094    36123691.320 7 300271377.98207       120.274 7        46.875  
I10  38755787.872 7 152082778.51307       -47.826 7        45.000    38755773.112 6 322150610.43906      -101.717 6        39.844  
> 2025 01 25  2  7  0.0000000  0  8      -260.546098329067
I01         0.000 8         0.00008        -0.042 8        51.719           0.000 3         0.00003        -0.089 3        22.812  
I02  38176730.231 7 149810239.20207      -529.022 7        46.406    38176718.735 6 317337154.05106     -1120.635 6        39.844  
I03         0.000 8         0.00008        -0.042 8        50.469           0.000 7         0.00007        -0.089 7        44.062  
I05         0.000 7         0.00007        -0.042 7        46.562           0.000 6         0.00006        -0.089 6        40.781  
I06  38387486.473 7 150637359.69407       -42.599 7        45.312    38387476.797 6 319089124.06806       -90.222 6        41.094  
I07         0.000 7         0.00007        -0.042 7        43.750           0.000 6         0.00006        -0.089 6        39.688  
I09  36124137.168 8 141755848.70008        57.856 8        51.094    36124129.672 7 300275025.02207       122.599 7        46.406  
I10  38755421.985 7 152081343.10807       -47.761 7        45.000    38755407.285 6 322147570.26406      -101.236 6        39.844  
> 2025 01 25  2  7 30.0000000  0  8      -260.604110448870
I01         0.000 8         0.00008        -0.003 8        51.719           0.000 3         0.00003        -0.005 3        23.750  
I02  38172686.082 7 149794368.69107      -528.911 7        46.406    38172674.611 6 317303536.57806     -1120.308 6        39.531  
I03         0.000 8         0.00008        -0.003 8        50.312           0.000 7         0.00007        -0.005 7        44.062  
I05         0.000 7         0.00007        -0.003 7        46.719           0.000 6         0.00006        -0.005 6        40.469  
I06  38387161.928 7 150636085.18307       -42.389 7        45.469    38387152.310 6 319086424.69406       -89.943 6        41.094  
I07         0.000 7         0.00007        -0.003 7        43.594           0.000 6         0.00006        -0.005 6        39.375  
I09  36124583.911 8 141757601.59208        58.952 8        51.094    36124576.215 7 300278738.35507       124.818 7        46.094  
I10  38755057.125 7 152079910.20607       -47.788 7        45.000    38755042.358 6 322144535.42906      -101.072 6        39.844  
> 2025 01 25  2  8  0.0000000  0  8      -261.312950443197
I01         0.000 8         0.00008        -0.000 8        51.719           0.000 4         0.00004        -0.000 4        24.688  
I02  38168640.938 7 149778494.79007      -529.166 7        46.406    38168629.672 6 317269911.93106     -1120.778 6        38.750  
I03         0.000 8         0.00008        -0.000 8        50.312           0.000 7         0.00007        -0.000 7        43.438  
I05         0.000 7         0.00007        -0.000 7        46.719           0.000 6         0.00006        -0.000 6        40.156  
I06  38386837.746 7 150634813.25307       -42.263 7        45.469    38386827.878 6 319083730.78706       -89.583 6        40.312  
I07         0.000 7         0.00007        -0.000 7        43.594           0.000 6         0.00006        -0.000 6        38.594  
I09  36125038.697 8 141759385.88108        59.977 8        50.781    36125030.745 7 300282518.21007       127.096 7        45.625  
I10  38754692.660 7 152078479.83007       -47.635 7        45.000    38754677.616 6 322141505.94606      -100.748 6        39.375  
> 2025 01 25  2  8 30.0000000  0  8      -261.477396545164
I01         0.000 8         0.00008        -0.047 8        51.719           0.000 4         0.00004        -0.100 4        25.000  
I02  38164595.195 7 149762617.18307      -529.375 7        46.250    38164583.111 6 317236279.46006     -1121.696 6        39.375  
I03         0.000 8         0.00008        -0.047 8        50.312           0.000 7         0.00007        -0.100 7        44.062  
I05         0.000 7         0.00007        -0.047 7        47.031           0.000 6         0.00006        -0.100 6        40.469  
I06  38386514.393 7 150633543.90007       -42.303 7        45.469    38386504.628 6 319081042.32606       -89.662 6        40.781  
I07         0.000 7         0.00007        -0.047 7        43.594           0.000 6         0.00006        -0.100 6        39.219  
I09  36125501.284 8 141761201.65408        61.040 8        50.625    36125493.324 7 300286364.74407       129.160 7        46.094  
I10  38754329.418 7 152077052.00607       -47.604 7        45.000    38754314.071 6 322138481.83106      -100.535 6        39.844  
> 2025 01 25  2  9  0.0000000  0  8      -262.223721535515
I01         0.000 8         0.00008        -0.054 8        51.719           0.000 4         0.00004        -0.114 4        24.375  
I02  38160548.254 7 149746735.44507      -529.492 7        46.406    38160535.988 6 317202638.19506     -1121.962 6        39.375  
I03         0.000 8         0.00008        -0.054 8        50.312           0.000 7         0.00007        -0.114 7        44.062  
I05         0.000 7         0.00007        -0.054 7        47.031           0.000 6         0.00006        -0.114 6        40.312  
I06  38386191.861 7 150632277.14407       -42.234 7        45.469    38386181.826 6 319078359.37506       -89.384 6        40.781  
I07         0.000 7         0.00007        -0.054 7        43.594           0.000 6         0.00006        -0.114 6        39.219  
I09  36125972.164 8 141763048.99108        62.048 8        50.625    36125963.915 7 300290278.14107       131.351 7        46.094  
I10  38753965.972 7 152075626.70607       -47.445 7        45.000    38753950.748 6 322135463.12706      -100.630 6        39.844  
> 2025 01 25  2  9 30.0000000  0  8      -262.790682270855
I01         0.000 8         0.00008        -0.008 8        51.719           0.000 3         0.00003        -0.017 3        22.656  
I02  38156500.178 7 149730850.30607      -529.525 7        46.406    38156487.485 6 317168989.71506     -1121.440 6        39.062  
I03         0.000 8         0.00008        -0.008 8        50.312           0.000 7         0.00007        -0.017 7        44.062  
I05         0.000 7         0.00007        -0.008 7        47.031           0.000 6         0.00006        -0.017 6        40.156  
I06  38385869.858 7 150631012.98207       -42.004 7        45.469    38385859.820 6 319075681.90806       -89.212 6        40.781  
I07         0.000 7         0.00007        -0.008 7        43.594           0.000 6         0.00006        -0.017 6        39.219  
I09  36126451.027 8 141764928.00408        63.169 8        50.625    36126442.486 7 300294258.64507       133.837 7        45.781  
I10  38753603.256 7 152074203.93607       -47.390 7        44.844    38753588.408 6 322132449.79706      -100.422 6        39.844  
> 2025 01 25  2 10  0.0000000  0  8      -263.087913271069
I01         0.000 8         0.00008        -0.073 8        51.719           0.000 3         0.00003        -0.155 3        23.438  
I02  38152451.840 7 149714962.50007      -529.717 7        46.562    38152438.832 6 317135335.58706     -1122.513 6        39.219  
I03         0.000 8         0.00008        -0.073 8        50.312           0.000 7         0.00007        -0.155 7        44.062  
I05         0.000 7         0.00007        -0.073 7        47.031           0.000 6         0.00006        -0.155 6        40.312  
I06  38385548.457 7 150629751.40707       -42.046 7        45.469    38385538.379 6 319073009.93106       -89.239 6        40.938  
I07         0.000 7         0.00007        -0.073 7        43.750           0.000 6         0.00006        -0.155 6        39.219  
I09  36126937.859 8 141766838.73408        64.125 8        50.625    36126929.182 7 300298306.34407       135.858 7        45.469  
I10  38753241.640 7 152072783.75207       -47.372 7        44.844    38753226.694 6 322129441.90806      -100.349 6        40.000  
> 2025 01 25  2 10 30.0000000  0  8      -262.951324998673
I01         0.000 8         0.00008        -0.052 8        51.562           0.000 3         0.00003        -0.110 3        23.438  
I02  38148402.304 7 149699071.53707      -529.765 7        46.406    38148389.628 6 317101674.81306     -1122.124 6        39.375  
I03         0.000 8         0.00008        -0.052 8        50.312           0.000 7         0.00007        -0.110 7        44.062  
I05         0.000 7         0.00007        -0.052 7        47.031           0.000 6         0.00006        -0.110 6        40.469  
I06  38385227.660 7 150628492.42507       -42.048 7        45.469    38385217.800 6 319070343.43806       -88.862 6        41.094  
I07         0.000 7         0.00007        -0.052 7        43.594           0.000 6         0.00006        -0.110 6        39.375  
I09  36127433.111 8 141768781.33308        65.255 8        50.625    36127424.141 7 300302421.52707       138.177 7        45.469  
I10  38752880.468 7 152071366.09007       -47.308 7        44.844    38752865.600 6 322126439.43906      -100.323 6        40.000  
> 2025 01 25  2 11  0.0000000  0  8      -263.179991585954
I01         0.000 8         0.00008        -0.067 8        51.562           0.000 3         0.00003        -0.142 3        23.750  
I02  38144352.262 7 149683177.32507      -530.017 7        46.250    38144339.490 6 317068007.14806     -1122.371 6        39.531  
I03         0.000 8         0.00008        -0.067 8        50.312           0.000 7         0.00007        -0.142 7        44.062  
I05         0.000 7         0.00007        -0.067 7        47.031           0.000 6         0.00006        -0.142 6        40.156  
I06  38384907.623 7 150627236.07507       -41.984 7        45.469    38384897.648 6 319067682.53106       -88.876 6        40.938  
I07         0.000 7         0.00007        -0.067 7        43.594           0.000 6         0.00006        -0.142 6        39.375  
I09  36127936.496 8 141770755.83308        66.265 8        50.781    36127927.337 7 300306604.29207       140.436 7        45.469  
I10  38752520.012 7 152069951.01207       -47.221 7        44.688    38752504.958 6 322123442.41506       -99.925 6        40.000  
> 2025 01 25  2 11 30.0000000  0  8      -262.523549934852
I01         0.000 8         0.00008        -0.047 8        51.406           0.000 3         0.00003        -0.099 3        21.719  
I02  38140301.174 7 149667281.05907      -529.843 7        46.250    38140289.333 6 317034335.14906     -1122.430 6        39.844  
I03         0.000 8         0.00008        -0.047 8        50.312           0.000 7         0.00007        -0.099 7        44.219  
I05         0.000 7         0.00007        -0.047 7        47.188           0.000 6         0.00006        -0.099 6        40.781  
I06  38384588.301 7 150625982.31707       -41.771 7        45.312    38384578.467 6 319065027.13406       -88.461 6        40.938  
I07         0.000 7         0.00007        -0.047 7        43.750           0.000 6         0.00006        -0.099 6        39.062  
I09  36128448.046 8 141772762.36908        67.319 8        50.781    36128438.390 7 300310854.91807       142.703 7        45.156  
I10  38752160.362 7 152068538.55307       -47.260 7        44.844    38752145.008 6 322120450.86506       -99.953 6        39.844  
> 2025 01 25  2 12  0.0000000  0  8      -262.173316310018
I01         0.000 8         0.00008        -0.024 8        51.406           0.000 4         0.00004        -0.050 4        26.094  
I02  38136250.014 7 149651381.77307      -529.903 7        46.250    38136237.629 6 317000656.74906     -1122.849 6        40.000  
I03         0.000 8         0.00008        -0.024 8        50.312           0.000 7         0.00007        -0.050 7        44.375  
I05         0.000 7         0.00007        -0.024 7        47.344           0.000 6         0.00006        -0.050 6        41.094  
I06  38384269.736 7 150624731.20007       -41.487 7        45.469    38384259.659 6 319062377.32806       -88.150 6        40.938  
I07         0.000 7         0.00007        -0.024 7        43.906           0.000 6         0.00006        -0.050 6        38.906  
I09  36128967.599 8 141774800.99008        68.453 8        51.094    36128958.282 7 300315173.50007       145.008 7        45.469  
I10  38751800.974 7 152067128.62007       -47.175 7        44.688    38751786.035 6 322117464.76706       -99.502 6        40.156  
> 2025 01 25  2 12 30.0000000  0  8      -261.797399039059
I01         0.000 8         0.00008        -0.012 8        51.562           0.000 4         0.00004        -0.026 4        25.156  
I02  38132198.036 7 149635480.56207      -529.880 7        46.094    38132185.607 6 316966974.24806     -1122.620 6        39.688  
I03         0.000 8         0.00008        -0.012 8        50.312           0.000 7         0.00007        -0.026 7        44.375  
I05         0.000 7         0.00007        -0.012 7        47.656           0.000 6         0.00006        -0.026 6        40.625  
I06  38383951.618 7 150623482.71407       -41.706 7        45.469    38383941.276 6 319059733.10806       -88.056 6        40.781  
I07         0.000 7         0.00007        -0.012 7        43.438           0.000 6         0.00006        -0.026 6        39.062  
I09  36129495.547 8 141776871.78808        69.513 8        51.250    36129486.319 7 300319560.23307       147.190 7        45.625  
I10  38751442.516 7 152065721.25407       -46.824 7        44.844    38751427.659 6 322114484.15806       -99.238 6        39.844  
> 2025 01 25  2 13  0.0000000  0  8      -261.163040359718
I01         0.000 8         0.00008        -0.020 8        51.562           0.000 4         0.00004        -0.043 4        24.688  
I02  38128145.184 7 149619576.95407      -529.996 7        45.938    38128133.633 6 316933286.71306     -1122.949 6        39.844  
I03         0.000 8         0.00008        -0.020 8        50.156           0.000 7         0.00007        -0.043 7        44.531  
I05         0.000 7         0.00007        -0.020 7        47.812           0.000 6         0.00006        -0.043 6        40.781  
I06  38383634.007 7 150622236.84007       -41.446 7        45.469    38383624.084 6 319057094.40806       -87.958 6        40.938  
I07         0.000 7         0.00007        -0.020 7        43.906           0.000 6         0.00006        -0.043 6        39.688  
I09  36130031.657 8 141778974.87208        70.615 8        51.094    36130022.493 7 300324015.36607       149.577 7        45.781  
I10  38751084.350 7 152064316.48607       -46.935 7        44.844    38751069.687 6 322111509.04706       -99.097 6        40.000  
